header: 
  seq: 116585
  stamp: 
    secs: 1596524210
    nsecs: 274778467
  frame_id: "node1_radarinterface_radarscan"
range: 2.26700544357
angle: -0.252743303776
elev: 0.0220961458981
doppler: 0.0
snr: 304
noise: 397
frame_num: 13453
point_id: 2
x: -0.566751360893
y: 2.19444704056
z: 0.0500880070031
doppler_bin: 32
target_idx: 13
posX: -0.687698602676
posY: 2.1031794548
posZ: 0.309058010578
velX: 0.156167000532
velY: 0.0510700345039
velZ: -0.803873538971
accX: 0.0
accY: 0.0
accZ: 0.0
---
header: 
  seq: 116586
  stamp: 
    secs: 1596524210
    nsecs: 274853149
  frame_id: "node1_radarinterface_radarscan"
range: 2.34517812729
angle: -0.285261750221
elev: 0.0335781089962
doppler: 0.0
snr: 274
noise: 402
frame_num: 13453
point_id: 3
x: -0.659581363201
y: 2.24913620949
z: 0.0787318497896
doppler_bin: 32
target_idx: 13
posX: -0.687698602676
posY: 2.1031794548
posZ: 0.309058010578
velX: 0.156167000532
velY: 0.0510700345039
velZ: -0.803873538971
accX: 0.0
accY: 0.0
accZ: 0.0
---
header: 
  seq: 116587
  stamp: 
    secs: 1596524210
    nsecs: 274866607
  frame_id: "node1_radarinterface_radarscan"
range: 2.42335057259
angle: -0.32095733285
elev: -0.137445136905
doppler: 0.0
snr: 187
noise: 423
frame_num: 13453
point_id: 4
x: -0.757297039032
y: 2.27791261673
z: -0.332030028105
doppler_bin: 32
target_idx: 13
posX: -0.687698602676
posY: 2.1031794548
posZ: 0.309058010578
velX: 0.156167000532
velY: 0.0510700345039
velZ: -0.803873538971
accX: 0.0
accY: 0.0
accZ: 0.0
---
header: 
  seq: 116588
  stamp: 
    secs: 1596524210
    nsecs: 274878450
  frame_id: "node1_radarinterface_radarscan"
range: 2.03248763084
angle: -0.439374804497
elev: 0.300993144512
doppler: 0.0795030742884
snr: 153
noise: 452
frame_num: 13453
point_id: 9
x: -0.825698137283
y: 1.75674104691
z: 0.602569282055
doppler_bin: 33
target_idx: 13
posX: -0.687698602676
posY: 2.1031794548
posZ: 0.309058010578
velX: 0.156167000532
velY: 0.0510700345039
velZ: -0.803873538971
accX: 0.0
accY: 0.0
accZ: 0.0
---
header: 
  seq: 116589
  stamp: 
    secs: 1596524210
    nsecs: 274896810
  frame_id: "node1_radarinterface_radarscan"
range: 2.26700544357
angle: -0.290944635868
elev: 0.198047101498
doppler: 0.0795030742884
snr: 328
noise: 408
frame_num: 13453
point_id: 12
x: -0.637595295906
y: 2.12927913666
z: 0.446044623852
doppler_bin: 33
target_idx: 13
posX: -0.687698602676
posY: 2.1031794548
posZ: 0.309058010578
velX: 0.156167000532
velY: 0.0510700345039
velZ: -0.803873538971
accX: 0.0
accY: 0.0
accZ: 0.0
---
header: 
  seq: 116590
  stamp: 
    secs: 1596524210
    nsecs: 274912762
  frame_id: "node1_radarinterface_radarscan"
range: 2.34517812729
angle: -0.230212077498
elev: 0.28855484724
doppler: 0.0795030742884
snr: 268
noise: 403
frame_num: 13453
point_id: 13
x: -0.513007700443
y: 2.18890666962
z: 0.667360603809
doppler_bin: 33
target_idx: 13
posX: -0.687698602676
posY: 2.1031794548
posZ: 0.309058010578
velX: 0.156167000532
velY: 0.0510700345039
velZ: -0.803873538971
accX: 0.0
accY: 0.0
accZ: 0.0
---
header: 
  seq: 116591
  stamp: 
    secs: 1596524210
    nsecs: 274929551
  frame_id: "node1_radarinterface_radarscan"
range: 2.26700544357
angle: -0.356125056744
elev: 0.167768731713
doppler: 0.159006148577
snr: 319
noise: 388
frame_num: 13453
point_id: 21
x: -0.779283165932
y: 2.09492993355
z: 0.378550976515
doppler_bin: 34
target_idx: 13
posX: -0.687698602676
posY: 2.1031794548
posZ: 0.309058010578
velX: 0.156167000532
velY: 0.0510700345039
velZ: -0.803873538971
accX: 0.0
accY: 0.0
accZ: 0.0
---
header: 
  seq: 116592
  stamp: 
    secs: 1596524210
    nsecs: 274946134
  frame_id: "node1_radarinterface_radarscan"
range: 2.18883275986
angle: -0.285134226084
elev: -0.0160581376404
doppler: -0.159006148577
snr: 370
noise: 374
frame_num: 13453
point_id: 27
x: -0.615609169006
y: 2.10018539429
z: -0.0351470671594
doppler_bin: 30
target_idx: 13
posX: -0.687698602676
posY: 2.1031794548
posZ: 0.309058010578
velX: 0.156167000532
velY: 0.0510700345039
velZ: -0.803873538971
accX: 0.0
accY: 0.0
accZ: 0.0
---
header: 
  seq: 116593
  stamp: 
    secs: 1596524210
    nsecs: 274961842
  frame_id: "node1_radarinterface_radarscan"
range: 2.26700544357
angle: -0.285101294518
elev: 0.00575994281098
doppler: -0.159006148577
snr: 375
noise: 371
frame_num: 13453
point_id: 28
x: -0.637595236301
y: 2.17545747757
z: 0.0130577497184
doppler_bin: 30
target_idx: 13
posX: -0.687698602676
posY: 2.1031794548
posZ: 0.309058010578
velX: 0.156167000532
velY: 0.0510700345039
velZ: -0.803873538971
accX: 0.0
accY: 0.0
accZ: 0.0
---
header: 
  seq: 116594
  stamp: 
    secs: 1596524210
    nsecs: 274977961
  frame_id: "node1_radarinterface_radarscan"
range: 2.34517812729
angle: -0.318064600229
elev: 0.0382561720908
doppler: -0.159006148577
snr: 303
noise: 382
frame_num: 13453
point_id: 29
x: -0.73286819458
y: 2.22591996193
z: 0.0896956548095
doppler_bin: 30
target_idx: 13
posX: -0.687698602676
posY: 2.1031794548
posZ: 0.309058010578
velX: 0.156167000532
velY: 0.0510700345039
velZ: -0.803873538971
accX: 0.0
accY: 0.0
accZ: 0.0
---
header: 
  seq: 116595
  stamp: 
    secs: 1596524210
    nsecs: 274994893
  frame_id: "node1_radarinterface_radarscan"
range: 2.18883275986
angle: -0.285300195217
elev: -0.0372774079442
doppler: -0.0795030742884
snr: 363
noise: 404
frame_num: 13453
point_id: 33
x: -0.615609228611
y: 2.09889483452
z: -0.0815751180053
doppler_bin: 31
target_idx: 13
posX: -0.687698602676
posY: 2.1031794548
posZ: 0.309058010578
velX: 0.156167000532
velY: 0.0510700345039
velZ: -0.803873538971
accX: 0.0
accY: 0.0
accZ: 0.0
---
header: 
  seq: 116596
  stamp: 
    secs: 1596524210
    nsecs: 275010932
  frame_id: "node1_radarinterface_radarscan"
range: 2.26700544357
angle: -0.285303473473
elev: 0.0375760346651
doppler: -0.0795030742884
snr: 391
noise: 393
frame_num: 13453
point_id: 34
x: -0.637595295906
y: 2.17382907867
z: 0.0851650312543
doppler_bin: 31
target_idx: 13
posX: -0.687698602676
posY: 2.1031794548
posZ: 0.309058010578
velX: 0.156167000532
velY: 0.0510700345039
velZ: -0.803873538971
accX: 0.0
accY: 0.0
accZ: 0.0
---
header: 
  seq: 116597
  stamp: 
    secs: 1596524210
    nsecs: 376115319
  frame_id: "node1_radarinterface_radarscan"
range: 2.11066031456
angle: -0.296104848385
elev: 0.26968190074
doppler: 0.0
snr: 355
noise: 426
frame_num: 13454
point_id: 2
x: -0.593623161316
y: 1.94583666325
z: 0.562332332134
doppler_bin: 32
target_idx: 13
posX: -0.654683589935
posY: 2.09420394897
posZ: 0.354421257973
velX: 0.231026351452
velY: 0.0599136911333
velZ: -0.513069927692
accX: 0.0
accY: 0.0
accZ: 0.0
---
header: 
  seq: 116598
  stamp: 
    secs: 1596524210
    nsecs: 376176519
  frame_id: "node1_radarinterface_radarscan"
range: 2.18883275986
angle: -0.295072793961
elev: 0.257113665342
doppler: 0.0
snr: 406
noise: 410
frame_num: 13454
point_id: 3
x: -0.615609228611
y: 2.02539181709
z: 0.556598603725
doppler_bin: 32
target_idx: 13
posX: -0.654683589935
posY: 2.09420394897
posZ: 0.354421257973
velX: 0.231026351452
velY: 0.0599136911333
velZ: -0.513069927692
accX: 0.0
accY: 0.0
accZ: 0.0
---
header: 
  seq: 116599
  stamp: 
    secs: 1596524210
    nsecs: 376195162
  frame_id: "node1_radarinterface_radarscan"
range: 2.26700544357
angle: -0.294935852289
elev: 0.255393564701
doppler: 0.0
snr: 388
noise: 398
frame_num: 13454
point_id: 4
x: -0.637595295906
y: 2.09876012802
z: 0.572705030441
doppler_bin: 32
target_idx: 13
posX: -0.654683589935
posY: 2.09420394897
posZ: 0.354421257973
velX: 0.231026351452
velY: 0.0599136911333
velZ: -0.513069927692
accX: 0.0
accY: 0.0
accZ: 0.0
---
header: 
  seq: 116600
  stamp: 
    secs: 1596524210
    nsecs: 376209859
  frame_id: "node1_radarinterface_radarscan"
range: 2.03248763084
angle: -0.346702754498
elev: 0.403576314449
doppler: 0.0795030742884
snr: 202
noise: 478
frame_num: 13454
point_id: 9
x: -0.63515239954
y: 1.75798165798
z: 0.79817789793
doppler_bin: 33
target_idx: 13
posX: -0.654683589935
posY: 2.09420394897
posZ: 0.354421257973
velX: 0.231026351452
velY: 0.0599136911333
velZ: -0.513069927692
accX: 0.0
accY: 0.0
accZ: 0.0
---
header: 
  seq: 116601
  stamp: 
    secs: 1596524210
    nsecs: 376226717
  frame_id: "node1_radarinterface_radarscan"
range: 2.5015232563
angle: -0.566847205162
elev: -0.146155148745
doppler: 0.0795030742884
snr: 126
noise: 487
frame_num: 13454
point_id: 12
x: -1.32893419266
y: 2.08778119087
z: -0.364310234785
doppler_bin: 33
target_idx: 13
posX: -0.654683589935
posY: 2.09420394897
posZ: 0.354421257973
velX: 0.231026351452
velY: 0.0599136911333
velZ: -0.513069927692
accX: 0.0
accY: 0.0
accZ: 0.0
---
header: 
  seq: 116602
  stamp: 
    secs: 1596524210
    nsecs: 376243107
  frame_id: "node1_radarinterface_radarscan"
range: 2.03248763084
angle: -0.3459623456
elev: 0.398739367723
doppler: 0.159006148577
snr: 232
noise: 429
frame_num: 13454
point_id: 13
x: -0.63515239954
y: 1.76206290722
z: 0.789127349854
doppler_bin: 34
target_idx: 13
posX: -0.654683589935
posY: 2.09420394897
posZ: 0.354421257973
velX: 0.231026351452
velY: 0.0599136911333
velZ: -0.513069927692
accX: 0.0
accY: 0.0
accZ: 0.0
---
header: 
  seq: 116603
  stamp: 
    secs: 1596524210
    nsecs: 376259481
  frame_id: "node1_radarinterface_radarscan"
range: 2.11066031456
angle: -0.41470605135
elev: 0.374464213848
doppler: 0.238509222865
snr: 318
noise: 373
frame_num: 13454
point_id: 16
x: -0.791497647762
y: 1.79788672924
z: 0.772024512291
doppler_bin: 35
target_idx: 13
posX: -0.654683589935
posY: 2.09420394897
posZ: 0.354421257973
velX: 0.231026351452
velY: 0.0599136911333
velZ: -0.513069927692
accX: 0.0
accY: 0.0
accZ: 0.0
---
header: 
  seq: 116604
  stamp: 
    secs: 1596524210
    nsecs: 376275890
  frame_id: "node1_radarinterface_radarscan"
range: 2.11066031456
angle: -0.253923296928
elev: 0.0979216694832
doppler: -0.159006148577
snr: 326
noise: 397
frame_num: 13454
point_id: 22
x: -0.52766507864
y: 2.03319358826
z: 0.206349238753
doppler_bin: 30
target_idx: 13
posX: -0.654683589935
posY: 2.09420394897
posZ: 0.354421257973
velX: 0.231026351452
velY: 0.0599136911333
velZ: -0.513069927692
accX: 0.0
accY: 0.0
accZ: 0.0
---
header: 
  seq: 116605
  stamp: 
    secs: 1596524210
    nsecs: 376292402
  frame_id: "node1_radarinterface_radarscan"
range: 2.18883275986
angle: -0.253874182701
elev: 0.0959755033255
doppler: -0.159006148577
snr: 375
noise: 387
frame_num: 13454
point_id: 23
x: -0.547208189964
y: 2.10892295837
z: 0.209751963615
doppler_bin: 30
target_idx: 13
posX: -0.654683589935
posY: 2.09420394897
posZ: 0.354421257973
velX: 0.231026351452
velY: 0.0599136911333
velZ: -0.513069927692
accX: 0.0
accY: 0.0
accZ: 0.0
---
header: 
  seq: 116606
  stamp: 
    secs: 1596524210
    nsecs: 376308946
  frame_id: "node1_radarinterface_radarscan"
range: 2.03248763084
angle: -0.222714290023
elev: 0.138912722468
doppler: -0.0795030742884
snr: 184
noise: 457
frame_num: 13454
point_id: 29
x: -0.444606661797
y: 1.96319317818
z: 0.281431227922
doppler_bin: 31
target_idx: 13
posX: -0.654683589935
posY: 2.09420394897
posZ: 0.354421257973
velX: 0.231026351452
velY: 0.0599136911333
velZ: -0.513069927692
accX: 0.0
accY: 0.0
accZ: 0.0
---
header: 
  seq: 116607
  stamp: 
    secs: 1596524210
    nsecs: 376325122
  frame_id: "node1_radarinterface_radarscan"
range: 2.11066031456
angle: -0.289438545704
elev: 0.171029374003
doppler: -0.0795030742884
snr: 364
noise: 432
frame_num: 13454
point_id: 30
x: -0.593623220921
y: 1.99335241318
z: 0.359227627516
doppler_bin: 31
target_idx: 13
posX: -0.654683589935
posY: 2.09420394897
posZ: 0.354421257973
velX: 0.231026351452
velY: 0.0599136911333
velZ: -0.513069927692
accX: 0.0
accY: 0.0
accZ: 0.0
---
header: 
  seq: 116608
  stamp: 
    secs: 1596524210
    nsecs: 376340886
  frame_id: "node1_radarinterface_radarscan"
range: 2.18883275986
angle: -0.289598762989
elev: 0.174115285277
doppler: -0.0795030742884
snr: 426
noise: 413
frame_num: 13454
point_id: 31
x: -0.615609228611
y: 2.065969944
z: 0.379186540842
doppler_bin: 31
target_idx: 13
posX: -0.654683589935
posY: 2.09420394897
posZ: 0.354421257973
velX: 0.231026351452
velY: 0.0599136911333
velZ: -0.513069927692
accX: 0.0
accY: 0.0
accZ: 0.0
---
header: 
  seq: 116609
  stamp: 
    secs: 1596524210
    nsecs: 478638283
  frame_id: "node1_radarinterface_radarscan"
range: 2.03248763084
angle: -0.3291220963
elev: 0.258178859949
doppler: 0.0
snr: 205
noise: 431
frame_num: 13455
point_id: 0
x: -0.63515239954
y: 1.85964882374
z: 0.518935143948
doppler_bin: 32
target_idx: 13
posX: -0.611100018024
posY: 2.10993027687
posZ: 0.370686292648
velX: 0.321872442961
velY: 0.160740971565
velZ: -0.347747504711
accX: 0.0
accY: 0.0
accZ: 0.0
---
header: 
  seq: 116610
  stamp: 
    secs: 1596524210
    nsecs: 479170371
  frame_id: "node1_radarinterface_radarscan"
range: 2.26700544357
angle: -0.289560616016
elev: 0.173385620117
doppler: 0.0
snr: 372
noise: 396
frame_num: 13455
point_id: 3
x: -0.637595295906
y: 2.14005303383
z: 0.391099661589
doppler_bin: 32
target_idx: 13
posX: -0.611100018024
posY: 2.10993027687
posZ: 0.370686292648
velX: 0.321872442961
velY: 0.160740971565
velZ: -0.347747504711
accX: 0.0
accY: 0.0
accZ: 0.0
---
header: 
  seq: 116611
  stamp: 
    secs: 1596524210
    nsecs: 479254515
  frame_id: "node1_radarinterface_radarscan"
range: 2.11066031456
angle: -0.343987733126
elev: 0.385450690985
doppler: 0.0795030742884
snr: 302
noise: 423
frame_num: 13455
point_id: 12
x: -0.659581303596
y: 1.8412232399
z: 0.79355931282
doppler_bin: 33
target_idx: 13
posX: -0.611100018024
posY: 2.10993027687
posZ: 0.370686292648
velX: 0.321872442961
velY: 0.160740971565
velZ: -0.347747504711
accX: 0.0
accY: 0.0
accZ: 0.0
---
header: 
  seq: 116612
  stamp: 
    secs: 1596524210
    nsecs: 479277546
  frame_id: "node1_radarinterface_radarscan"
range: 2.11066031456
angle: -0.337658405304
elev: 0.338316768408
doppler: 0.159006148577
snr: 305
noise: 389
frame_num: 13455
point_id: 21
x: -0.659581363201
y: 1.87859010696
z: 0.700527608395
doppler_bin: 34
target_idx: 13
posX: -0.611100018024
posY: 2.10993027687
posZ: 0.370686292648
velX: 0.321872442961
velY: 0.160740971565
velZ: -0.347747504711
accX: 0.0
accY: 0.0
accZ: 0.0
---
header: 
  seq: 116613
  stamp: 
    secs: 1596524210
    nsecs: 479310552
  frame_id: "node1_radarinterface_radarscan"
range: 2.42335057259
angle: -0.163311719894
elev: 0.280108392239
doppler: 1.19254612923
snr: 215
noise: 380
frame_num: 13455
point_id: 26
x: -0.378648519516
y: 2.29791378975
z: 0.669959068298
doppler_bin: 47
target_idx: 13
posX: -0.611100018024
posY: 2.10993027687
posZ: 0.370686292648
velX: 0.321872442961
velY: 0.160740971565
velZ: -0.347747504711
accX: 0.0
accY: 0.0
accZ: 0.0
---
header: 
  seq: 116614
  stamp: 
    secs: 1596524210
    nsecs: 479352493
  frame_id: "node1_radarinterface_radarscan"
range: 2.5015232563
angle: -0.162310212851
elev: 0.257998466492
doppler: 1.19254612923
snr: 212
noise: 379
frame_num: 13455
point_id: 28
x: -0.390863001347
y: 2.38693904877
z: 0.638253092766
doppler_bin: 47
target_idx: 13
posX: -0.611100018024
posY: 2.10993027687
posZ: 0.370686292648
velX: 0.321872442961
velY: 0.160740971565
velZ: -0.347747504711
accX: 0.0
accY: 0.0
accZ: 0.0
---
header: 
  seq: 116615
  stamp: 
    secs: 1596524210
    nsecs: 479393719
  frame_id: "node1_radarinterface_radarscan"
range: 2.42335057259
angle: -0.164873600006
elev: 0.311081945896
doppler: 1.27204918861
snr: 200
noise: 387
frame_num: 13455
point_id: 30
x: -0.378648519516
y: 2.27575135231
z: 0.741760551929
doppler_bin: 48
target_idx: 13
posX: -0.611100018024
posY: 2.10993027687
posZ: 0.370686292648
velX: 0.321872442961
velY: 0.160740971565
velZ: -0.347747504711
accX: 0.0
accY: 0.0
accZ: 0.0
---
header: 
  seq: 116616
  stamp: 
    secs: 1596524210
    nsecs: 479961494
  frame_id: "node1_radarinterface_radarscan"
range: 2.5015232563
angle: -0.164093896747
elev: 0.296087265015
doppler: 1.27204918861
snr: 205
noise: 382
frame_num: 13455
point_id: 32
x: -0.390863001347
y: 2.36052942276
z: 0.729894399643
doppler_bin: 48
target_idx: 13
posX: -0.611100018024
posY: 2.10993027687
posZ: 0.370686292648
velX: 0.321872442961
velY: 0.160740971565
velZ: -0.347747504711
accX: 0.0
accY: 0.0
accZ: 0.0
---
header: 
  seq: 116617
  stamp: 
    secs: 1596524210
    nsecs: 479991785
  frame_id: "node1_radarinterface_radarscan"
range: 2.03248763084
angle: -0.2883233428
elev: 0.147682577372
doppler: -0.159006148577
snr: 222
noise: 429
frame_num: 13455
point_id: 38
x: -0.57163721323
y: 1.92737972736
z: 0.29907310009
doppler_bin: 30
target_idx: 13
posX: -0.611100018024
posY: 2.10993027687
posZ: 0.370686292648
velX: 0.321872442961
velY: 0.160740971565
velZ: -0.347747504711
accX: 0.0
accY: 0.0
accZ: 0.0
---
header: 
  seq: 116618
  stamp: 
    secs: 1596524210
    nsecs: 480036473
  frame_id: "node1_radarinterface_radarscan"
range: 2.11066031456
angle: -0.287209659815
elev: 0.119709216058
doppler: -0.159006148577
snr: 347
noise: 410
frame_num: 13455
point_id: 39
x: -0.593623161316
y: 2.00971698761
z: 0.252062469721
doppler_bin: 30
target_idx: 13
posX: -0.611100018024
posY: 2.10993027687
posZ: 0.370686292648
velX: 0.321872442961
velY: 0.160740971565
velZ: -0.347747504711
accX: 0.0
accY: 0.0
accZ: 0.0
---
header: 
  seq: 116619
  stamp: 
    secs: 1596524210
    nsecs: 480124329
  frame_id: "node1_radarinterface_radarscan"
range: 2.11066031456
angle: -0.287755459547
elev: 0.13417249918
doppler: -0.0795030742884
snr: 351
noise: 440
frame_num: 13455
point_id: 48
x: -0.593623220921
y: 2.00568699837
z: 0.282343655825
doppler_bin: 31
target_idx: 13
posX: -0.611100018024
posY: 2.10993027687
posZ: 0.370686292648
velX: 0.321872442961
velY: 0.160740971565
velZ: -0.347747504711
accX: 0.0
accY: 0.0
accZ: 0.0
---
header: 
  seq: 116620
  stamp: 
    secs: 1596524210
    nsecs: 480153330
  frame_id: "node1_radarinterface_radarscan"
range: 2.18883275986
angle: -0.287753552198
elev: 0.134124219418
doppler: -0.0795030742884
snr: 407
noise: 424
frame_num: 13455
point_id: 49
x: -0.615609228611
y: 2.07998633385
z: 0.29269605875
doppler_bin: 31
target_idx: 13
posX: -0.611100018024
posY: 2.10993027687
posZ: 0.370686292648
velX: 0.321872442961
velY: 0.160740971565
velZ: -0.347747504711
accX: 0.0
accY: 0.0
accZ: 0.0
---
header: 
  seq: 116621
  stamp: 
    secs: 1596524210
    nsecs: 480180987
  frame_id: "node1_radarinterface_radarscan"
range: 2.26700544357
angle: -0.255324095488
elev: 0.142474129796
doppler: -0.0795030742884
snr: 399
noise: 417
frame_num: 13455
point_id: 50
x: -0.566751360893
y: 2.1712872982
z: 0.321898013353
doppler_bin: 31
target_idx: 13
posX: -0.611100018024
posY: 2.10993027687
posZ: 0.370686292648
velX: 0.321872442961
velY: 0.160740971565
velZ: -0.347747504711
accX: 0.0
accY: 0.0
accZ: 0.0
---
header: 
  seq: 116622
  stamp: 
    secs: 1596524210
    nsecs: 575839382
  frame_id: "node1_radarinterface_radarscan"
range: 2.18883275986
angle: -0.296776294708
elev: 0.277515232563
doppler: 0.0
snr: 409
noise: 388
frame_num: 13456
point_id: 3
x: -0.615609169006
y: 2.01306056976
z: 0.599667489529
doppler_bin: 32
target_idx: 13
posX: -0.57913672924
posY: 2.11797142029
posZ: 0.464306652546
velX: 0.351924777031
velY: 0.192677378654
velZ: 0.031336158514
accX: 0.0
accY: 0.0
accZ: 0.0
---
header: 
  seq: 116623
  stamp: 
    secs: 1596524210
    nsecs: 575897243
  frame_id: "node1_radarinterface_radarscan"
range: 2.03248763084
angle: -0.332062661648
elev: 0.28872564435
doppler: 0.0795030742884
snr: 272
noise: 448
frame_num: 13456
point_id: 7
x: -0.63515239954
y: 1.84192287922
z: 0.578711926937
doppler_bin: 33
target_idx: 13
posX: -0.57913672924
posY: 2.11797142029
posZ: 0.464306652546
velX: 0.351924777031
velY: 0.192677378654
velZ: 0.031336158514
accX: 0.0
accY: 0.0
accZ: 0.0
---
header: 
  seq: 116624
  stamp: 
    secs: 1596524210
    nsecs: 575914010
  frame_id: "node1_radarinterface_radarscan"
range: 2.11066031456
angle: -0.332086056471
elev: 0.288954079151
doppler: 0.0795030742884
snr: 378
noise: 432
frame_num: 13456
point_id: 8
x: -0.659581303596
y: 1.91262078285
z: 0.601432263851
doppler_bin: 33
target_idx: 13
posX: -0.57913672924
posY: 2.11797142029
posZ: 0.464306652546
velX: 0.351924777031
velY: 0.192677378654
velZ: 0.031336158514
accX: 0.0
accY: 0.0
accZ: 0.0
---
header: 
  seq: 116625
  stamp: 
    secs: 1596524210
    nsecs: 575932194
  frame_id: "node1_radarinterface_radarscan"
range: 2.18883275986
angle: -0.365977436304
elev: 0.281768083572
doppler: 0.0795030742884
snr: 408
noise: 421
frame_num: 13456
point_id: 9
x: -0.7524112463
y: 1.96327650547
z: 0.608614683151
doppler_bin: 33
target_idx: 13
posX: -0.57913672924
posY: 2.11797142029
posZ: 0.464306652546
velX: 0.351924777031
velY: 0.192677378654
velZ: 0.031336158514
accX: 0.0
accY: 0.0
accZ: 0.0
---
header: 
  seq: 116626
  stamp: 
    secs: 1596524210
    nsecs: 575950073
  frame_id: "node1_radarinterface_radarscan"
range: 2.26700544357
angle: -0.364263385534
elev: 0.265801727772
doppler: 0.0795030742884
snr: 379
noise: 410
frame_num: 13456
point_id: 10
x: -0.779283106327
y: 2.04387044907
z: 0.595503628254
doppler_bin: 33
target_idx: 13
posX: -0.57913672924
posY: 2.11797142029
posZ: 0.464306652546
velX: 0.351924777031
velY: 0.192677378654
velZ: 0.031336158514
accX: 0.0
accY: 0.0
accZ: 0.0
---
header: 
  seq: 116627
  stamp: 
    secs: 1596524210
    nsecs: 575968047
  frame_id: "node1_radarinterface_radarscan"
range: 2.11066031456
angle: -0.363948464394
elev: 0.262748003006
doppler: 0.159006148577
snr: 369
noise: 386
frame_num: 13456
point_id: 14
x: -0.725539445877
y: 1.90471565723
z: 0.548212826252
doppler_bin: 34
target_idx: 13
posX: -0.57913672924
posY: 2.11797142029
posZ: 0.464306652546
velX: 0.351924777031
velY: 0.192677378654
velZ: 0.031336158514
accX: 0.0
accY: 0.0
accZ: 0.0
---
header: 
  seq: 116628
  stamp: 
    secs: 1596524210
    nsecs: 575989681
  frame_id: "node1_radarinterface_radarscan"
range: 2.11066031456
angle: -0.229663640261
elev: 0.280544400215
doppler: 0.238509222865
snr: 318
noise: 378
frame_num: 13456
point_id: 22
x: -0.461706906557
y: 1.97489070892
z: 0.584397137165
doppler_bin: 35
target_idx: 13
posX: -0.57913672924
posY: 2.11797142029
posZ: 0.464306652546
velX: 0.351924777031
velY: 0.192677378654
velZ: 0.031336158514
accX: 0.0
accY: 0.0
accZ: 0.0
---
header: 
  seq: 116629
  stamp: 
    secs: 1596524210
    nsecs: 576008626
  frame_id: "node1_radarinterface_radarscan"
range: 2.42335057259
angle: -0.0655264034867
elev: 0.302828043699
doppler: 0.318012297153
snr: 285
noise: 404
frame_num: 13456
point_id: 31
x: -0.151459425688
y: 2.30811667442
z: 0.722693443298
doppler_bin: 36
target_idx: 13
posX: -0.57913672924
posY: 2.11797142029
posZ: 0.464306652546
velX: 0.351924777031
velY: 0.192677378654
velZ: 0.031336158514
accX: 0.0
accY: 0.0
accZ: 0.0
---
header: 
  seq: 116630
  stamp: 
    secs: 1596524210
    nsecs: 576046731
  frame_id: "node1_radarinterface_radarscan"
range: 2.5015232563
angle: -0.0650794878602
elev: 0.280047655106
doppler: 0.318012297153
snr: 246
noise: 442
frame_num: 13456
point_id: 32
x: -0.156345203519
y: 2.3989803791
z: 0.691424667835
doppler_bin: 36
target_idx: 13
posX: -0.57913672924
posY: 2.11797142029
posZ: 0.464306652546
velX: 0.351924777031
velY: 0.192677378654
velZ: 0.031336158514
accX: 0.0
accY: 0.0
accZ: 0.0
---
header: 
  seq: 116631
  stamp: 
    secs: 1596524210
    nsecs: 576061137
  frame_id: "node1_radarinterface_radarscan"
range: 2.42335057259
angle: -0.334203273058
elev: 0.540549457073
doppler: -0.238509222865
snr: 218
noise: 397
frame_num: 13456
point_id: 43
x: -0.681567370892
y: 1.96288084984
z: 1.24707365036
doppler_bin: 29
target_idx: 13
posX: -0.57913672924
posY: 2.11797142029
posZ: 0.464306652546
velX: 0.351924777031
velY: 0.192677378654
velZ: 0.031336158514
accX: 0.0
accY: 0.0
accZ: 0.0
---
header: 
  seq: 116632
  stamp: 
    secs: 1596524210
    nsecs: 675700680
  frame_id: "node1_radarinterface_radarscan"
range: 2.03248763084
angle: -0.324499905109
elev: 0.199673712254
doppler: 0.0
snr: 206
noise: 437
frame_num: 13457
point_id: 0
x: -0.63515239954
y: 1.88813745975
z: 0.403142988682
doppler_bin: 32
target_idx: 13
posX: -0.600635409355
posY: 2.1228055954
posZ: 0.421049773693
velX: 0.187106668949
velY: 0.195441603661
velZ: -0.0665830671787
accX: 0.0
accY: 0.0
accZ: 0.0
---
header: 
  seq: 116633
  stamp: 
    secs: 1596524210
    nsecs: 675793470
  frame_id: "node1_radarinterface_radarscan"
range: 2.11066031456
angle: -0.321107596159
elev: 0.140673771501
doppler: 0.0795030742884
snr: 348
noise: 447
frame_num: 13457
point_id: 8
x: -0.659581303596
y: 1.9829928875
z: 0.295936226845
doppler_bin: 33
target_idx: 13
posX: -0.600635409355
posY: 2.1228055954
posZ: 0.421049773693
velX: 0.187106668949
velY: 0.195441603661
velZ: -0.0665830671787
accX: 0.0
accY: 0.0
accZ: 0.0
---
header: 
  seq: 116634
  stamp: 
    secs: 1596524210
    nsecs: 675838229
  frame_id: "node1_radarinterface_radarscan"
range: 2.18883275986
angle: -0.353122085333
elev: 0.109703689814
doppler: 0.0795030742884
snr: 398
noise: 430
frame_num: 13457
point_id: 9
x: -0.7524112463
y: 2.04143023491
z: 0.239641681314
doppler_bin: 33
target_idx: 13
posX: -0.600635409355
posY: 2.1228055954
posZ: 0.421049773693
velX: 0.187106668949
velY: 0.195441603661
velZ: -0.0665830671787
accX: 0.0
accY: 0.0
accZ: 0.0
---
header: 
  seq: 116635
  stamp: 
    secs: 1596524210
    nsecs: 675856058
  frame_id: "node1_radarinterface_radarscan"
range: 2.26700544357
angle: -0.352857261896
elev: 0.102970033884
doppler: 0.0795030742884
snr: 386
noise: 424
frame_num: 13457
point_id: 10
x: -0.779283106327
y: 2.11606526375
z: 0.233021333814
doppler_bin: 33
target_idx: 13
posX: -0.600635409355
posY: 2.1228055954
posZ: 0.421049773693
velX: 0.187106668949
velY: 0.195441603661
velZ: -0.0665830671787
accX: 0.0
accY: 0.0
accZ: 0.0
---
header: 
  seq: 116636
  stamp: 
    secs: 1596524210
    nsecs: 675901017
  frame_id: "node1_radarinterface_radarscan"
range: 2.34517812729
angle: -0.389442175627
elev: 0.15704652667
doppler: 0.0795030742884
snr: 294
noise: 430
frame_num: 13457
point_id: 11
x: -0.879441797733
y: 2.14287376404
z: 0.366789996624
doppler_bin: 33
target_idx: 13
posX: -0.600635409355
posY: 2.1228055954
posZ: 0.421049773693
velX: 0.187106668949
velY: 0.195441603661
velZ: -0.0665830671787
accX: 0.0
accY: 0.0
accZ: 0.0
---
header: 
  seq: 116637
  stamp: 
    secs: 1596524210
    nsecs: 675922273
  frame_id: "node1_radarinterface_radarscan"
range: 2.18883275986
angle: -0.354807347059
elev: 0.145277753472
doppler: 0.159006148577
snr: 418
noise: 395
frame_num: 13457
point_id: 16
x: -0.752411305904
y: 2.03087639809
z: 0.316871315241
doppler_bin: 34
target_idx: 13
posX: -0.600635409355
posY: 2.1228055954
posZ: 0.421049773693
velX: 0.187106668949
velY: 0.195441603661
velZ: -0.0665830671787
accX: 0.0
accY: 0.0
accZ: 0.0
---
header: 
  seq: 116638
  stamp: 
    secs: 1596524210
    nsecs: 675944025
  frame_id: "node1_radarinterface_radarscan"
range: 2.42335057259
angle: -0.0992028713226
elev: 0.328321307898
doppler: 0.318012297153
snr: 273
noise: 398
frame_num: 13457
point_id: 19
x: -0.227189108729
y: 2.28262901306
z: 0.781420171261
doppler_bin: 36
target_idx: 13
posX: -0.600635409355
posY: 2.1228055954
posZ: 0.421049773693
velX: 0.187106668949
velY: 0.195441603661
velZ: -0.0665830671787
accX: 0.0
accY: 0.0
accZ: 0.0
---
header: 
  seq: 116639
  stamp: 
    secs: 1596524210
    nsecs: 676044450
  frame_id: "node1_radarinterface_radarscan"
range: 2.34517812729
angle: -0.65029501915
elev: 0.500196695328
doppler: 1.351552248
snr: 154
noise: 375
frame_num: 13457
point_id: 23
x: -1.24587595463
y: 1.63786661625
z: 1.12474310398
doppler_bin: 49
target_idx: 13
posX: -0.600635409355
posY: 2.1228055954
posZ: 0.421049773693
velX: 0.187106668949
velY: 0.195441603661
velZ: -0.0665830671787
accX: 0.0
accY: 0.0
accZ: 0.0
---
header: 
  seq: 116640
  stamp: 
    secs: 1596524210
    nsecs: 771329831
  frame_id: "node1_radarinterface_radarscan"
range: 2.03248763084
angle: -0.341333657503
elev: 0.366607069969
doppler: 0.0
snr: 220
noise: 407
frame_num: 13458
point_id: 0
x: -0.63515239954
y: 1.78796231747
z: 0.728545248508
doppler_bin: 32
target_idx: 13
posX: -0.596633851528
posY: 2.10095930099
posZ: 0.499466747046
velX: 0.141231372952
velY: 0.0826418250799
velZ: 0.215040624142
accX: 0.0
accY: 0.0
accZ: 0.0
---
header: 
  seq: 116641
  stamp: 
    secs: 1596524210
    nsecs: 771443520
  frame_id: "node1_radarinterface_radarscan"
range: 2.03248763084
angle: -0.301233202219
elev: 0.324113965034
doppler: -0.159006148577
snr: 246
noise: 378
frame_num: 13458
point_id: 31
x: -0.571637153625
y: 1.83990764618
z: 0.647284328938
doppler_bin: 30
target_idx: 13
posX: -0.596633851528
posY: 2.10095930099
posZ: 0.499466747046
velX: 0.141231372952
velY: 0.0826418250799
velZ: 0.215040624142
accX: 0.0
accY: 0.0
accZ: 0.0
---
header: 
  seq: 116642
  stamp: 
    secs: 1596524210
    nsecs: 771466983
  frame_id: "node1_radarinterface_radarscan"
range: 2.03248763084
angle: -0.303744882345
elev: 0.347184687853
doppler: -0.0795030742884
snr: 250
noise: 408
frame_num: 13458
point_id: 33
x: -0.571637153625
y: 1.82372832298
z: 0.691557645798
doppler_bin: 31
target_idx: 13
posX: -0.596633851528
posY: 2.10095930099
posZ: 0.499466747046
velX: 0.141231372952
velY: 0.0826418250799
velZ: 0.215040624142
accX: 0.0
accY: 0.0
accZ: 0.0
---
header: 
  seq: 116643
  stamp: 
    secs: 1596524210
    nsecs: 875661584
  frame_id: "node1_radarinterface_radarscan"
range: 2.03248763084
angle: -0.333785176277
elev: 0.305009007454
doppler: 0.0
snr: 213
noise: 430
frame_num: 13459
point_id: 0
x: -0.63515239954
y: 1.83167910576
z: 0.610359609127
doppler_bin: 32
target_idx: 13
posX: -0.701588094234
posY: 2.07694745064
posZ: 0.458237469196
velX: -0.233631938696
velY: -0.0130480974913
velZ: 0.0913837552071
accX: 0.0
accY: 0.0
accZ: 0.0
---
header: 
  seq: 116644
  stamp: 
    secs: 1596524210
    nsecs: 875724627
  frame_id: "node1_radarinterface_radarscan"
range: 2.11066031456
angle: -0.334235399961
elev: 0.309100806713
doppler: 0.0795030742884
snr: 369
noise: 425
frame_num: 13459
point_id: 8
x: -0.659581363201
y: 1.89936542511
z: 0.642067492008
doppler_bin: 33
target_idx: 13
posX: -0.701588094234
posY: 2.07694745064
posZ: 0.458237469196
velX: -0.233631938696
velY: -0.0130480974913
velZ: 0.0913837552071
accX: 0.0
accY: 0.0
accZ: 0.0
---
header: 
  seq: 116645
  stamp: 
    secs: 1596524210
    nsecs: 875739257
  frame_id: "node1_radarinterface_radarscan"
range: 2.18883275986
angle: -0.333856195211
elev: 0.305658787489
doppler: 0.0795030742884
snr: 410
noise: 409
frame_num: 13459
point_id: 9
x: -0.684010267258
y: 1.9721249342
z: 0.658666849136
doppler_bin: 33
target_idx: 13
posX: -0.701588094234
posY: 2.07694745064
posZ: 0.458237469196
velX: -0.233631938696
velY: -0.0130480974913
velZ: 0.0913837552071
accX: 0.0
accY: 0.0
accZ: 0.0
---
header: 
  seq: 116646
  stamp: 
    secs: 1596524210
    nsecs: 875756552
  frame_id: "node1_radarinterface_radarscan"
range: 2.26700544357
angle: -0.333216190338
elev: 0.299744069576
doppler: 0.0795030742884
snr: 383
noise: 398
frame_num: 13459
point_id: 10
x: -0.708439171314
y: 2.04678821564
z: 0.66939163208
doppler_bin: 33
target_idx: 13
posX: -0.701588094234
posY: 2.07694745064
posZ: 0.458237469196
velX: -0.233631938696
velY: -0.0130480974913
velZ: 0.0913837552071
accX: 0.0
accY: 0.0
accZ: 0.0
---
header: 
  seq: 116647
  stamp: 
    secs: 1596524210
    nsecs: 875773534
  frame_id: "node1_radarinterface_radarscan"
range: 2.42335057259
angle: -0.434060126543
elev: 0.261594593525
doppler: 0.397515356541
snr: 294
noise: 387
frame_num: 13459
point_id: 19
x: -0.984486103058
y: 2.12382292747
z: 0.626729905605
doppler_bin: 37
target_idx: 13
posX: -0.701588094234
posY: 2.07694745064
posZ: 0.458237469196
velX: -0.233631938696
velY: -0.0130480974913
velZ: 0.0913837552071
accX: 0.0
accY: 0.0
accZ: 0.0
---
header: 
  seq: 116648
  stamp: 
    secs: 1596524210
    nsecs: 875789765
  frame_id: "node1_radarinterface_radarscan"
range: 2.26700544357
angle: -0.384412139654
elev: -0.00871501117945
doppler: -0.159006148577
snr: 311
noise: 396
frame_num: 13459
point_id: 23
x: -0.85012704134
y: 2.10147738457
z: -0.0197567269206
doppler_bin: 30
target_idx: 13
posX: -0.701588094234
posY: 2.07694745064
posZ: 0.458237469196
velX: -0.233631938696
velY: -0.0130480974913
velZ: 0.0913837552071
accX: 0.0
accY: 0.0
accZ: 0.0
---
header: 
  seq: 116649
  stamp: 
    secs: 1596524210
    nsecs: 875805812
  frame_id: "node1_radarinterface_radarscan"
range: 2.11066031456
angle: -0.384428054094
elev: 0.0124341016635
doppler: -0.0795030742884
snr: 277
noise: 435
frame_num: 13459
point_id: 29
x: -0.791497647762
y: 1.95645856857
z: 0.0262434892356
doppler_bin: 31
target_idx: 13
posX: -0.701588094234
posY: 2.07694745064
posZ: 0.458237469196
velX: -0.233631938696
velY: -0.0130480974913
velZ: 0.0913837552071
accX: 0.0
accY: 0.0
accZ: 0.0
---
header: 
  seq: 116650
  stamp: 
    secs: 1596524210
    nsecs: 875822134
  frame_id: "node1_radarinterface_radarscan"
range: 2.18883275986
angle: -0.38442209363
elev: -0.0111859468743
doppler: -0.0795030742884
snr: 353
noise: 417
frame_num: 13459
point_id: 30
x: -0.820812344551
y: 2.02895474434
z: -0.0244836565107
doppler_bin: 31
target_idx: 13
posX: -0.701588094234
posY: 2.07694745064
posZ: 0.458237469196
velX: -0.233631938696
velY: -0.0130480974913
velZ: 0.0913837552071
accX: 0.0
accY: 0.0
accZ: 0.0
---
header: 
  seq: 116651
  stamp: 
    secs: 1596524210
    nsecs: 875837439
  frame_id: "node1_radarinterface_radarscan"
range: 2.26700544357
angle: -0.384430855513
elev: -0.0129799377173
doppler: -0.0795030742884
snr: 355
noise: 408
frame_num: 13459
point_id: 31
x: -0.85012704134
y: 2.10136437416
z: -0.0294247623533
doppler_bin: 31
target_idx: 13
posX: -0.701588094234
posY: 2.07694745064
posZ: 0.458237469196
velX: -0.233631938696
velY: -0.0130480974913
velZ: 0.0913837552071
accX: 0.0
accY: 0.0
accZ: 0.0
---
header: 
  seq: 116652
  stamp: 
    secs: 1596524210
    nsecs: 875852946
  frame_id: "node1_radarinterface_radarscan"
range: 2.42335057259
angle: -0.524690628052
elev: 0.0614421628416
doppler: -0.0795030742884
snr: 235
noise: 423
frame_num: 13459
point_id: 33
x: -1.21167528629
y: 2.09340119362
z: 0.148802235723
doppler_bin: 31
target_idx: 13
posX: -0.701588094234
posY: 2.07694745064
posZ: 0.458237469196
velX: -0.233631938696
velY: -0.0130480974913
velZ: 0.0913837552071
accX: 0.0
accY: 0.0
accZ: 0.0
---
header: 
  seq: 116653
  stamp: 
    secs: 1596524210
    nsecs: 971149417
  frame_id: "node1_radarinterface_radarscan"
range: 2.03248763084
angle: -0.422341972589
elev: 0.41562962532
doppler: 0.0
snr: 184
noise: 421
frame_num: 13460
point_id: 0
x: -0.762182891369
y: 1.69605946541
z: 0.820649445057
doppler_bin: 32
target_idx: 13
posX: -0.79358124733
posY: 2.00251507759
posZ: 0.623326182365
velX: -0.501132011414
velY: -0.244220361114
velZ: 0.572593450546
accX: 0.0
accY: 0.0
accZ: 0.0
---
header: 
  seq: 116654
  stamp: 
    secs: 1596524210
    nsecs: 971239313
  frame_id: "node1_radarinterface_radarscan"
range: 2.26700544357
angle: -0.510167598724
elev: 0.460292875767
doppler: 0.0795030742884
snr: 316
noise: 404
frame_num: 13460
point_id: 8
x: -0.991814792156
y: 1.77243101597
z: 1.00702762604
doppler_bin: 33
target_idx: 13
posX: -0.79358124733
posY: 2.00251507759
posZ: 0.623326182365
velX: -0.501132011414
velY: -0.244220361114
velZ: 0.572593450546
accX: 0.0
accY: 0.0
accZ: 0.0
---
header: 
  seq: 116655
  stamp: 
    secs: 1596524210
    nsecs: 971255169
  frame_id: "node1_radarinterface_radarscan"
range: 2.03248763084
angle: -0.370444625616
elev: 0.529245376587
doppler: 0.159006148577
snr: 256
noise: 379
frame_num: 13460
point_id: 9
x: -0.63515239954
y: 1.6354111433
z: 1.02616667747
doppler_bin: 34
target_idx: 13
posX: -0.79358124733
posY: 2.00251507759
posZ: 0.623326182365
velX: -0.501132011414
velY: -0.244220361114
velZ: 0.572593450546
accX: 0.0
accY: 0.0
accZ: 0.0
---
header: 
  seq: 116656
  stamp: 
    secs: 1596524210
    nsecs: 971275581
  frame_id: "node1_radarinterface_radarscan"
range: 2.11066031456
angle: -0.402833908796
elev: 0.501519858837
doppler: 0.159006148577
snr: 369
noise: 378
frame_num: 13460
point_id: 10
x: -0.725539505482
y: 1.70259392262
z: 1.01471853256
doppler_bin: 34
target_idx: 13
posX: -0.79358124733
posY: 2.00251507759
posZ: 0.623326182365
velX: -0.501132011414
velY: -0.244220361114
velZ: 0.572593450546
accX: 0.0
accY: 0.0
accZ: 0.0
---
header: 
  seq: 116657
  stamp: 
    secs: 1596524210
    nsecs: 971326042
  frame_id: "node1_radarinterface_radarscan"
range: 2.18883275986
angle: -0.405050426722
elev: 0.510873496532
doppler: 0.159006148577
snr: 400
noise: 377
frame_num: 13460
point_id: 11
x: -0.7524112463
y: 1.75485730171
z: 1.07020652294
doppler_bin: 34
target_idx: 13
posX: -0.79358124733
posY: 2.00251507759
posZ: 0.623326182365
velX: -0.501132011414
velY: -0.244220361114
velZ: 0.572593450546
accX: 0.0
accY: 0.0
accZ: 0.0
---
header: 
  seq: 116658
  stamp: 
    secs: 1596524210
    nsecs: 971346576
  frame_id: "node1_radarinterface_radarscan"
range: 2.26700544357
angle: -0.410112470388
elev: 0.531298100948
doppler: 0.159006148577
snr: 363
noise: 376
frame_num: 13460
point_id: 12
x: -0.779283106327
y: 1.79242408276
z: 1.14858496189
doppler_bin: 34
target_idx: 13
posX: -0.79358124733
posY: 2.00251507759
posZ: 0.623326182365
velX: -0.501132011414
velY: -0.244220361114
velZ: 0.572593450546
accX: 0.0
accY: 0.0
accZ: 0.0
---
header: 
  seq: 116659
  stamp: 
    secs: 1596524210
    nsecs: 971364927
  frame_id: "node1_radarinterface_radarscan"
range: 2.42335057259
angle: -0.47000259161
elev: 0.261430442333
doppler: 0.47701844573
snr: 261
noise: 375
frame_num: 13460
point_id: 19
x: -1.06021595001
y: 2.08716583252
z: 0.62634563446
doppler_bin: 38
target_idx: 13
posX: -0.79358124733
posY: 2.00251507759
posZ: 0.623326182365
velX: -0.501132011414
velY: -0.244220361114
velZ: 0.572593450546
accX: 0.0
accY: 0.0
accZ: 0.0
---
header: 
  seq: 116660
  stamp: 
    secs: 1596524210
    nsecs: 971384968
  frame_id: "node1_radarinterface_radarscan"
range: 2.11066031456
angle: -0.386504650116
elev: 0.101843960583
doppler: -0.159006148577
snr: 250
noise: 419
frame_num: 13460
point_id: 23
x: -0.791497588158
y: 1.94483184814
z: 0.214586600661
doppler_bin: 30
target_idx: 13
posX: -0.79358124733
posY: 2.00251507759
posZ: 0.623326182365
velX: -0.501132011414
velY: -0.244220361114
velZ: 0.572593450546
accX: 0.0
accY: 0.0
accZ: 0.0
---
header: 
  seq: 116661
  stamp: 
    secs: 1596524210
    nsecs: 971403320
  frame_id: "node1_radarinterface_radarscan"
range: 2.03248763084
angle: -0.358132481575
elev: 0.196941971779
doppler: -0.0795030742884
snr: 180
noise: 457
frame_num: 13460
point_id: 30
x: -0.69866758585
y: 1.86673629284
z: 0.397699564695
doppler_bin: 31
target_idx: 13
posX: -0.79358124733
posY: 2.00251507759
posZ: 0.623326182365
velX: -0.501132011414
velY: -0.244220361114
velZ: 0.572593450546
accX: 0.0
accY: 0.0
accZ: 0.0
---
header: 
  seq: 116662
  stamp: 
    secs: 1596524210
    nsecs: 971425137
  frame_id: "node1_radarinterface_radarscan"
range: 2.11066031456
angle: -0.356621295214
elev: 0.175460025668
doppler: -0.0795030742884
snr: 300
noise: 438
frame_num: 13460
point_id: 31
x: -0.725539505482
y: 1.94749379158
z: 0.368439227343
doppler_bin: 31
target_idx: 13
posX: -0.79358124733
posY: 2.00251507759
posZ: 0.623326182365
velX: -0.501132011414
velY: -0.244220361114
velZ: 0.572593450546
accX: 0.0
accY: 0.0
accZ: 0.0
---
header: 
  seq: 116663
  stamp: 
    secs: 1596524210
    nsecs: 971453552
  frame_id: "node1_radarinterface_radarscan"
range: 2.26700544357
angle: -0.352470427752
elev: 0.0922354906797
doppler: -0.0795030742884
snr: 332
noise: 420
frame_num: 13460
point_id: 33
x: -0.779283106327
y: 2.11859226227
z: 0.208801999688
doppler_bin: 31
target_idx: 13
posX: -0.79358124733
posY: 2.00251507759
posZ: 0.623326182365
velX: -0.501132011414
velY: -0.244220361114
velZ: 0.572593450546
accX: 0.0
accY: 0.0
accZ: 0.0
---
header: 
  seq: 116664
  stamp: 
    secs: 1596524210
    nsecs: 971479787
  frame_id: "node1_radarinterface_radarscan"
range: 2.42335057259
angle: -0.318129181862
elev: 0.0430775843561
doppler: -0.0795030742884
snr: 261
noise: 432
frame_num: 13460
point_id: 35
x: -0.757297039032
y: 2.29961705208
z: 0.104359805584
doppler_bin: 31
target_idx: 13
posX: -0.79358124733
posY: 2.00251507759
posZ: 0.623326182365
velX: -0.501132011414
velY: -0.244220361114
velZ: 0.572593450546
accX: 0.0
accY: 0.0
accZ: 0.0
---
header: 
  seq: 116665
  stamp: 
    secs: 1596524211
    nsecs:  70995116
  frame_id: "node1_radarinterface_radarscan"
range: 2.03248763084
angle: -0.320053875446
elev: 0.116091474891
doppler: 0.0
snr: 146
noise: 421
frame_num: 13461
point_id: 0
x: -0.63515239954
y: 1.91628885269
z: 0.235424846411
doppler_bin: 32
target_idx: 13
posX: -0.836452305317
posY: 1.98714840412
posZ: 0.673027098179
velX: -0.533583462238
velY: -0.295937895775
velZ: 0.607569813728
accX: 0.0
accY: 0.0
accZ: 0.0
---
header: 
  seq: 116666
  stamp: 
    secs: 1596524211
    nsecs:  71078621
  frame_id: "node1_radarinterface_radarscan"
range: 2.11066031456
angle: -0.337818711996
elev: 0.339611321688
doppler: 0.0795030742884
snr: 285
noise: 428
frame_num: 13461
point_id: 8
x: -0.659581363201
y: 1.87762701511
z: 0.703104496002
doppler_bin: 33
target_idx: 13
posX: -0.836452305317
posY: 1.98714840412
posZ: 0.673027098179
velX: -0.533583462238
velY: -0.295937895775
velZ: 0.607569813728
accX: 0.0
accY: 0.0
accZ: 0.0
---
header: 
  seq: 116667
  stamp: 
    secs: 1596524211
    nsecs:  71090574
  frame_id: "node1_radarinterface_radarscan"
range: 2.18883275986
angle: -0.342811971903
elev: 0.377250105143
doppler: 0.0795030742884
snr: 321
noise: 416
frame_num: 13461
point_id: 9
x: -0.684010207653
y: 1.91651105881
z: 0.806290149689
doppler_bin: 33
target_idx: 13
posX: -0.836452305317
posY: 1.98714840412
posZ: 0.673027098179
velX: -0.533583462238
velY: -0.295937895775
velZ: 0.607569813728
accX: 0.0
accY: 0.0
accZ: 0.0
---
header: 
  seq: 116668
  stamp: 
    secs: 1596524211
    nsecs:  71100791
  frame_id: "node1_radarinterface_radarscan"
range: 2.26700544357
angle: -0.383821964264
elev: 0.407861292362
doppler: 0.0795030742884
snr: 293
noise: 417
frame_num: 13461
point_id: 10
x: -0.779283165932
y: 1.92962944508
z: 0.899200856686
doppler_bin: 33
target_idx: 13
posX: -0.836452305317
posY: 1.98714840412
posZ: 0.673027098179
velX: -0.533583462238
velY: -0.295937895775
velZ: 0.607569813728
accX: 0.0
accY: 0.0
accZ: 0.0
---
header: 
  seq: 116669
  stamp: 
    secs: 1596524211
    nsecs:  71135846
  frame_id: "node1_radarinterface_radarscan"
range: 2.34517812729
angle: -0.432885438204
elev: 0.251927822828
doppler: 0.0795030742884
snr: 277
noise: 412
frame_num: 13461
point_id: 11
x: -0.952728629112
y: 2.06165647507
z: 0.584585785866
doppler_bin: 33
target_idx: 13
posX: -0.836452305317
posY: 1.98714840412
posZ: 0.673027098179
velX: -0.533583462238
velY: -0.295937895775
velZ: 0.607569813728
accX: 0.0
accY: 0.0
accZ: 0.0
---
header: 
  seq: 116670
  stamp: 
    secs: 1596524211
    nsecs:  71146403
  frame_id: "node1_radarinterface_radarscan"
range: 2.42335057259
angle: -0.466746091843
elev: 0.236092627048
doppler: 0.0795030742884
snr: 246
noise: 435
frame_num: 13461
point_id: 12
x: -1.06021595001
y: 2.10410761833
z: 0.566834867001
doppler_bin: 33
target_idx: 13
posX: -0.836452305317
posY: 1.98714840412
posZ: 0.673027098179
velX: -0.533583462238
velY: -0.295937895775
velZ: 0.607569813728
accX: 0.0
accY: 0.0
accZ: 0.0
---
header: 
  seq: 116671
  stamp: 
    secs: 1596524211
    nsecs:  71157005
  frame_id: "node1_radarinterface_radarscan"
range: 2.11066031456
angle: -0.352109998465
elev: 0.436789184809
doppler: 0.159006148577
snr: 235
noise: 413
frame_num: 13461
point_id: 19
x: -0.659581363201
y: 1.79516267776
z: 0.892877459526
doppler_bin: 34
target_idx: 13
posX: -0.836452305317
posY: 1.98714840412
posZ: 0.673027098179
velX: -0.533583462238
velY: -0.295937895775
velZ: 0.607569813728
accX: 0.0
accY: 0.0
accZ: 0.0
---
header: 
  seq: 116672
  stamp: 
    secs: 1596524211
    nsecs:  71166159
  frame_id: "node1_radarinterface_radarscan"
range: 2.34517812729
angle: -0.469390302896
elev: 0.256880521774
doppler: 0.159006148577
snr: 259
noise: 400
frame_num: 13461
point_id: 22
x: -1.02601540089
y: 2.02290463448
z: 0.595826923847
doppler_bin: 34
target_idx: 13
posX: -0.836452305317
posY: 1.98714840412
posZ: 0.673027098179
velX: -0.533583462238
velY: -0.295937895775
velZ: 0.607569813728
accX: 0.0
accY: 0.0
accZ: 0.0
---
header: 
  seq: 116673
  stamp: 
    secs: 1596524211
    nsecs:  71178773
  frame_id: "node1_radarinterface_radarscan"
range: 2.42335057259
angle: -0.466033697128
elev: 0.230132594705
doppler: 0.159006148577
snr: 242
noise: 419
frame_num: 13461
point_id: 23
x: -1.06021595001
y: 2.10784292221
z: 0.552782297134
doppler_bin: 34
target_idx: 13
posX: -0.836452305317
posY: 1.98714840412
posZ: 0.673027098179
velX: -0.533583462238
velY: -0.295937895775
velZ: 0.607569813728
accX: 0.0
accY: 0.0
accZ: 0.0
---
header: 
  seq: 116674
  stamp: 
    secs: 1596524211
    nsecs:  71188646
  frame_id: "node1_radarinterface_radarscan"
range: 2.34517812729
angle: -0.466525524855
elev: 0.23426514864
doppler: 0.238509222865
snr: 223
noise: 392
frame_num: 13461
point_id: 27
x: -1.0260155201
y: 2.03735136986
z: 0.544382154942
doppler_bin: 35
target_idx: 13
posX: -0.836452305317
posY: 1.98714840412
posZ: 0.673027098179
velX: -0.533583462238
velY: -0.295937895775
velZ: 0.607569813728
accX: 0.0
accY: 0.0
accZ: 0.0
---
header: 
  seq: 116675
  stamp: 
    secs: 1596524211
    nsecs:  71203295
  frame_id: "node1_radarinterface_radarscan"
range: 2.42335057259
angle: -0.466088712215
elev: 0.230598852038
doppler: 0.238509222865
snr: 245
noise: 386
frame_num: 13461
point_id: 28
x: -1.06021595001
y: 2.10755419731
z: 0.553882360458
doppler_bin: 35
target_idx: 13
posX: -0.836452305317
posY: 1.98714840412
posZ: 0.673027098179
velX: -0.533583462238
velY: -0.295937895775
velZ: 0.607569813728
accX: 0.0
accY: 0.0
accZ: 0.0
---
header: 
  seq: 116676
  stamp: 
    secs: 1596524211
    nsecs:  71258062
  frame_id: "node1_radarinterface_radarscan"
range: 2.03248763084
angle: -0.33738258481
elev: 0.336074829102
doppler: -0.159006148577
snr: 152
noise: 403
frame_num: 13461
point_id: 29
x: -0.63515239954
y: 1.81061029434
z: 0.670282006264
doppler_bin: 30
target_idx: 13
posX: -0.836452305317
posY: 1.98714840412
posZ: 0.673027098179
velX: -0.533583462238
velY: -0.295937895775
velZ: 0.607569813728
accX: 0.0
accY: 0.0
accZ: 0.0
---
header: 
  seq: 116677
  stamp: 
    secs: 1596524211
    nsecs:  71277054
  frame_id: "node1_radarinterface_radarscan"
range: 2.11066031456
angle: -0.35627964139
elev: 0.460220098495
doppler: -0.159006148577
snr: 254
noise: 396
frame_num: 13461
point_id: 30
x: -0.659581363201
y: 1.77229964733
z: 0.937439918518
doppler_bin: 30
target_idx: 13
posX: -0.836452305317
posY: 1.98714840412
posZ: 0.673027098179
velX: -0.533583462238
velY: -0.295937895775
velZ: 0.607569813728
accX: 0.0
accY: 0.0
accZ: 0.0
---
header: 
  seq: 116678
  stamp: 
    secs: 1596524211
    nsecs:  71292272
  frame_id: "node1_radarinterface_radarscan"
range: 2.18883275986
angle: -0.441733777523
elev: 0.636670768261
doppler: -0.159006148577
snr: 281
noise: 387
frame_num: 13461
point_id: 31
x: -0.7524112463
y: 1.59105682373
z: 1.30130875111
doppler_bin: 30
target_idx: 13
posX: -0.836452305317
posY: 1.98714840412
posZ: 0.673027098179
velX: -0.533583462238
velY: -0.295937895775
velZ: 0.607569813728
accX: 0.0
accY: 0.0
accZ: 0.0
---
header: 
  seq: 116679
  stamp: 
    secs: 1596524211
    nsecs:  71304195
  frame_id: "node1_radarinterface_radarscan"
range: 2.03248763084
angle: -0.327466875315
elev: 0.239037230611
doppler: -0.0795030742884
snr: 194
noise: 441
frame_num: 13461
point_id: 35
x: -0.63515239954
y: 1.86976158619
z: 0.481226682663
doppler_bin: 31
target_idx: 13
posX: -0.836452305317
posY: 1.98714840412
posZ: 0.673027098179
velX: -0.533583462238
velY: -0.295937895775
velZ: 0.607569813728
accX: 0.0
accY: 0.0
accZ: 0.0
---
header: 
  seq: 116680
  stamp: 
    secs: 1596524211
    nsecs:  71314081
  frame_id: "node1_radarinterface_radarscan"
range: 2.18883275986
angle: -0.332922339439
elev: 0.296982318163
doppler: -0.0795030742884
snr: 353
noise: 403
frame_num: 13461
point_id: 37
x: -0.684010207653
y: 1.97808969021
z: 0.640531182289
doppler_bin: 31
target_idx: 13
posX: -0.836452305317
posY: 1.98714840412
posZ: 0.673027098179
velX: -0.533583462238
velY: -0.295937895775
velZ: 0.607569813728
accX: 0.0
accY: 0.0
accZ: 0.0
---
header: 
  seq: 116681
  stamp: 
    secs: 1596524211
    nsecs:  71327538
  frame_id: "node1_radarinterface_radarscan"
range: 2.81421375275
angle: -0.501618504524
elev: 0.224768280983
doppler: -0.0795030742884
snr: 120
noise: 513
frame_num: 13461
point_id: 39
x: -1.3191627264
y: 2.40544939041
z: 0.627233326435
doppler_bin: 31
target_idx: 13
posX: -0.836452305317
posY: 1.98714840412
posZ: 0.673027098179
velX: -0.533583462238
velY: -0.295937895775
velZ: 0.607569813728
accX: 0.0
accY: 0.0
accZ: 0.0
---
header: 
  seq: 116682
  stamp: 
    secs: 1596524211
    nsecs: 175712106
  frame_id: "node1_radarinterface_radarscan"
range: 2.11066031456
angle: -0.329945206642
elev: 0.267130106688
doppler: 0.0
snr: 227
noise: 420
frame_num: 13462
point_id: 0
x: -0.659581363201
y: 1.92598938942
z: 0.557139217854
doppler_bin: 32
target_idx: 13
posX: -0.841971993446
posY: 1.97073626518
posZ: 0.697644531727
velX: -0.427400708199
velY: -0.314356654882
velZ: 0.55019903183
accX: 0.0
accY: 0.0
accZ: 0.0
---
header: 
  seq: 116683
  stamp: 
    secs: 1596524211
    nsecs: 175790827
  frame_id: "node1_radarinterface_radarscan"
range: 2.18883275986
angle: -0.414211630821
elev: 0.371592611074
doppler: 0.0795030742884
snr: 331
noise: 433
frame_num: 13462
point_id: 8
x: -0.820812225342
y: 1.86697745323
z: 0.794764757156
doppler_bin: 33
target_idx: 13
posX: -0.841971993446
posY: 1.97073626518
posZ: 0.697644531727
velX: -0.427400708199
velY: -0.314356654882
velZ: 0.55019903183
accX: 0.0
accY: 0.0
accZ: 0.0
---
header: 
  seq: 116684
  stamp: 
    secs: 1596524211
    nsecs: 175806072
  frame_id: "node1_radarinterface_radarscan"
range: 2.26700544357
angle: -0.413244605064
elev: 0.365893006325
doppler: 0.0795030742884
snr: 331
noise: 417
frame_num: 13462
point_id: 9
x: -0.85012704134
y: 1.93874192238
z: 0.811096787453
doppler_bin: 33
target_idx: 13
posX: -0.841971993446
posY: 1.97073626518
posZ: 0.697644531727
velX: -0.427400708199
velY: -0.314356654882
velZ: 0.55019903183
accX: 0.0
accY: 0.0
accZ: 0.0
---
header: 
  seq: 116685
  stamp: 
    secs: 1596524211
    nsecs: 175845742
  frame_id: "node1_radarinterface_radarscan"
range: 2.81421375275
angle: -0.468001514673
elev: 0.246207475662
doppler: 0.0795030742884
snr: 118
noise: 508
frame_num: 13462
point_id: 10
x: -1.23121845722
y: 2.4358651638
z: 0.685901463032
doppler_bin: 33
target_idx: 13
posX: -0.841971993446
posY: 1.97073626518
posZ: 0.697644531727
velX: -0.427400708199
velY: -0.314356654882
velZ: 0.55019903183
accX: 0.0
accY: 0.0
accZ: 0.0
---
header: 
  seq: 116686
  stamp: 
    secs: 1596524211
    nsecs: 175859101
  frame_id: "node1_radarinterface_radarscan"
range: 2.42335057259
angle: -0.294909238815
elev: 0.255057871342
doppler: -0.397515356541
snr: 209
noise: 385
frame_num: 13462
point_id: 19
x: -0.681567370892
y: 2.24371695518
z: 0.611414790154
doppler_bin: 27
target_idx: 13
posX: -0.841971993446
posY: 1.97073626518
posZ: 0.697644531727
velX: -0.427400708199
velY: -0.314356654882
velZ: 0.55019903183
accX: 0.0
accY: 0.0
accZ: 0.0
---
header: 
  seq: 116687
  stamp: 
    secs: 1596524211
    nsecs: 175871640
  frame_id: "node1_radarinterface_radarscan"
range: 2.18883275986
angle: -0.358412653208
elev: 0.20065587759
doppler: -0.159006148577
snr: 272
noise: 383
frame_num: 13462
point_id: 22
x: -0.7524112463
y: 2.00861692429
z: 0.436260849237
doppler_bin: 30
target_idx: 13
posX: -0.841971993446
posY: 1.97073626518
posZ: 0.697644531727
velX: -0.427400708199
velY: -0.314356654882
velZ: 0.55019903183
accX: 0.0
accY: 0.0
accZ: 0.0
---
header: 
  seq: 116688
  stamp: 
    secs: 1596524211
    nsecs: 175939212
  frame_id: "node1_radarinterface_radarscan"
range: 2.11066031456
angle: -0.359667003155
elev: 0.216448485851
doppler: -0.0795030742884
snr: 255
noise: 454
frame_num: 13462
point_id: 27
x: -0.725539445877
y: 1.92950963974
z: 0.453290343285
doppler_bin: 31
target_idx: 13
posX: -0.841971993446
posY: 1.97073626518
posZ: 0.697644531727
velX: -0.427400708199
velY: -0.314356654882
velZ: 0.55019903183
accX: 0.0
accY: 0.0
accZ: 0.0
---
header: 
  seq: 116689
  stamp: 
    secs: 1596524211
    nsecs: 175971922
  frame_id: "node1_radarinterface_radarscan"
range: 2.18883275986
angle: -0.359180301428
elev: 0.210472747684
doppler: -0.0795030742884
snr: 307
noise: 434
frame_num: 13462
point_id: 28
x: -0.7524112463
y: 2.00393271446
z: 0.457295835018
doppler_bin: 31
target_idx: 13
posX: -0.841971993446
posY: 1.97073626518
posZ: 0.697644531727
velX: -0.427400708199
velY: -0.314356654882
velZ: 0.55019903183
accX: 0.0
accY: 0.0
accZ: 0.0
---
header: 
  seq: 116690
  stamp: 
    secs: 1596524211
    nsecs: 176055256
  frame_id: "node1_radarinterface_radarscan"
range: 2.26700544357
angle: -0.357133537531
elev: 0.183041974902
doppler: -0.0795030742884
snr: 283
noise: 427
frame_num: 13462
point_id: 29
x: -0.779283165932
y: 2.08848190308
z: 0.412643879652
doppler_bin: 31
target_idx: 13
posX: -0.841971993446
posY: 1.97073626518
posZ: 0.697644531727
velX: -0.427400708199
velY: -0.314356654882
velZ: 0.55019903183
accX: 0.0
accY: 0.0
accZ: 0.0
---
header: 
  seq: 116691
  stamp: 
    secs: 1596524211
    nsecs: 271706412
  frame_id: "node1_radarinterface_radarscan"
range: 2.03248763084
angle: -0.359814703465
elev: 0.218226626515
doppler: 0.0
snr: 217
noise: 430
frame_num: 13463
point_id: 0
x: -0.698667645454
y: 1.85721361637
z: 0.440030843019
doppler_bin: 32
target_idx: 13
posX: -0.815995395184
posY: 1.97605264187
posZ: 0.690675914288
velX: -0.236537635326
velY: -0.221692100167
velZ: 0.409943580627
accX: 0.0
accY: 0.0
accZ: 0.0
---
header: 
  seq: 116692
  stamp: 
    secs: 1596524211
    nsecs: 271799504
  frame_id: "node1_radarinterface_radarscan"
range: 2.26700544357
angle: -0.38188958168
elev: 0.39658254385
doppler: 0.0795030742884
snr: 354
noise: 396
frame_num: 13463
point_id: 8
x: -0.779283106327
y: 1.94041991234
z: 0.875672519207
doppler_bin: 33
target_idx: 13
posX: -0.815995395184
posY: 1.97605264187
posZ: 0.690675914288
velX: -0.236537635326
velY: -0.221692100167
velZ: 0.409943580627
accX: 0.0
accY: 0.0
accZ: 0.0
---
header: 
  seq: 116693
  stamp: 
    secs: 1596524211
    nsecs: 271827024
  frame_id: "node1_radarinterface_radarscan"
range: 2.34517812729
angle: -0.353306233883
elev: 0.443687826395
doppler: 0.0795030742884
snr: 278
noise: 395
frame_num: 13463
point_id: 9
x: -0.73286819458
y: 1.98727846146
z: 1.00672197342
doppler_bin: 33
target_idx: 13
posX: -0.815995395184
posY: 1.97605264187
posZ: 0.690675914288
velX: -0.236537635326
velY: -0.221692100167
velZ: 0.409943580627
accX: 0.0
accY: 0.0
accZ: 0.0
---
header: 
  seq: 116694
  stamp: 
    secs: 1596524211
    nsecs: 271854621
  frame_id: "node1_radarinterface_radarscan"
range: 2.34517812729
angle: -0.347269713879
elev: 0.407229602337
doppler: 0.159006148577
snr: 261
noise: 365
frame_num: 13463
point_id: 16
x: -0.732868134975
y: 2.02484726906
z: 0.928847670555
doppler_bin: 34
target_idx: 13
posX: -0.815995395184
posY: 1.97605264187
posZ: 0.690675914288
velX: -0.236537635326
velY: -0.221692100167
velZ: 0.409943580627
accX: 0.0
accY: 0.0
accZ: 0.0
---
header: 
  seq: 116695
  stamp: 
    secs: 1596524211
    nsecs: 271917808
  frame_id: "node1_radarinterface_radarscan"
range: 2.03248763084
angle: -0.357003748417
elev: 0.181152850389
doppler: -0.159006148577
snr: 197
noise: 434
frame_num: 13463
point_id: 23
x: -0.698667645454
y: 1.87317419052
z: 0.366180449724
doppler_bin: 30
target_idx: 13
posX: -0.815995395184
posY: 1.97605264187
posZ: 0.690675914288
velX: -0.236537635326
velY: -0.221692100167
velZ: 0.409943580627
accX: 0.0
accY: 0.0
accZ: 0.0
---
header: 
  seq: 116696
  stamp: 
    secs: 1596524211
    nsecs: 271939296
  frame_id: "node1_radarinterface_radarscan"
range: 2.03248763084
angle: -0.358347654343
elev: 0.199800878763
doppler: -0.0795030742884
snr: 233
noise: 460
frame_num: 13463
point_id: 29
x: -0.69866758585
y: 1.86551356316
z: 0.403396308422
doppler_bin: 31
target_idx: 13
posX: -0.815995395184
posY: 1.97605264187
posZ: 0.690675914288
velX: -0.236537635326
velY: -0.221692100167
velZ: 0.409943580627
accX: 0.0
accY: 0.0
accZ: 0.0
---
header: 
  seq: 116697
  stamp: 
    secs: 1596524211
    nsecs: 271957699
  frame_id: "node1_radarinterface_radarscan"
range: 2.11066031456
angle: -0.322304695845
elev: 0.164063110948
doppler: -0.0795030742884
snr: 336
noise: 449
frame_num: 13463
point_id: 30
x: -0.659581363201
y: 1.97509515285
z: 0.344730138779
doppler_bin: 31
target_idx: 13
posX: -0.815995395184
posY: 1.97605264187
posZ: 0.690675914288
velX: -0.236537635326
velY: -0.221692100167
velZ: 0.409943580627
accX: 0.0
accY: 0.0
accZ: 0.0
---
header: 
  seq: 116698
  stamp: 
    secs: 1596524211
    nsecs: 271982626
  frame_id: "node1_radarinterface_radarscan"
range: 2.18883275986
angle: -0.321250915527
elev: 0.143682703376
doppler: -0.0795030742884
snr: 371
noise: 439
frame_num: 13463
point_id: 31
x: -0.684010267258
y: 2.05545353889
z: 0.313416391611
doppler_bin: 31
target_idx: 13
posX: -0.815995395184
posY: 1.97605264187
posZ: 0.690675914288
velX: -0.236537635326
velY: -0.221692100167
velZ: 0.409943580627
accX: 0.0
accY: 0.0
accZ: 0.0
---
header: 
  seq: 116699
  stamp: 
    secs: 1596524211
    nsecs: 272047793
  frame_id: "node1_radarinterface_radarscan"
range: 2.65786838531
angle: -0.246005252004
elev: 0.455044865608
doppler: -0.0795030742884
snr: 126
noise: 519
frame_num: 13463
point_id: 35
x: -0.581408679485
y: 2.31552934647
z: 1.16814005375
doppler_bin: 31
target_idx: 13
posX: -0.815995395184
posY: 1.97605264187
posZ: 0.690675914288
velX: -0.236537635326
velY: -0.221692100167
velZ: 0.409943580627
accX: 0.0
accY: 0.0
accZ: 0.0
---
header: 
  seq: 116700
  stamp: 
    secs: 1596524211
    nsecs: 378161374
  frame_id: "node1_radarinterface_radarscan"
range: 2.11066031456
angle: -0.258233368397
elev: 0.205492600799
doppler: 0.0
snr: 244
noise: 424
frame_num: 13464
point_id: 0
x: -0.52766507864
y: 1.99774169922
z: 0.430679023266
doppler_bin: 32
target_idx: 13
posX: -0.732154726982
posY: 1.98802983761
posZ: 0.68407791853
velX: 0.155765369534
velY: -0.185060977936
velZ: 0.239085108042
accX: 0.0
accY: 0.0
accZ: 0.0
---
header: 
  seq: 116701
  stamp: 
    secs: 1596524211
    nsecs: 378265425
  frame_id: "node1_radarinterface_radarscan"
range: 2.11066031456
angle: -0.369634002447
elev: 0.312742471695
doppler: 0.0795030742884
snr: 275
noise: 429
frame_num: 13464
point_id: 12
x: -0.725539445877
y: 1.87263941765
z: 0.649385213852
doppler_bin: 33
target_idx: 13
posX: -0.732154726982
posY: 1.98802983761
posZ: 0.68407791853
velX: 0.155765369534
velY: -0.185060977936
velZ: 0.239085108042
accX: 0.0
accY: 0.0
accZ: 0.0
---
header: 
  seq: 116702
  stamp: 
    secs: 1596524211
    nsecs: 378302735
  frame_id: "node1_radarinterface_radarscan"
range: 2.18883275986
angle: -0.162759900093
elev: 0.268180012703
doppler: -1.19254612923
snr: 274
noise: 378
frame_num: 13464
point_id: 23
x: -0.342005133629
y: 2.08269834518
z: 0.579990208149
doppler_bin: 17
target_idx: 13
posX: -0.732154726982
posY: 1.98802983761
posZ: 0.68407791853
velX: 0.155765369534
velY: -0.185060977936
velZ: 0.239085108042
accX: 0.0
accY: 0.0
accZ: 0.0
---
header: 
  seq: 116703
  stamp: 
    secs: 1596524211
    nsecs: 378326669
  frame_id: "node1_radarinterface_radarscan"
range: 2.11066031456
angle: -0.194624319673
elev: 0.247599497437
doppler: -1.03354001045
snr: 242
noise: 379
frame_num: 13464
point_id: 27
x: -0.395748794079
y: 2.00765943527
z: 0.517275094986
doppler_bin: 19
target_idx: 13
posX: -0.732154726982
posY: 1.98802983761
posZ: 0.68407791853
velX: 0.155765369534
velY: -0.185060977936
velZ: 0.239085108042
accX: 0.0
accY: 0.0
accZ: 0.0
---
header: 
  seq: 116704
  stamp: 
