header: 
  seq: 27473
  stamp: 
    secs: 1596613608
    nsecs: 707320179
  frame_id: "node1_radarinterface_radarscan"
range: 1.6416246891
angle: -0.225085571408
elev: 0.199793249369
doppler: 0.0
snr: 290
noise: 401
frame_num: 1881
point_id: 3
x: -0.359105408192
y: 1.56838262081
z: 0.325807839632
doppler_bin: 32
target_idx: 4
posX: -0.347445815802
posY: 1.69490206242
posZ: 0.479192703962
velX: -0.191307410598
velY: -0.138006225228
velZ: 0.0448333770037
accX: 0.0
accY: 0.0
accZ: 0.0
---
header: 
  seq: 27474
  stamp: 
    secs: 1596613608
    nsecs: 707422770
  frame_id: "node1_radarinterface_radarscan"
range: 1.79796981812
angle: -0.222717911005
elev: 0.139027088881
doppler: 0.0
snr: 272
noise: 443
frame_num: 1881
point_id: 5
x: -0.393305897713
y: 1.73664164543
z: 0.2491620332
doppler_bin: 32
target_idx: 4
posX: -0.347445815802
posY: 1.69490206242
posZ: 0.479192703962
velX: -0.191307410598
velY: -0.138006225228
velZ: 0.0448333770037
accX: 0.0
accY: 0.0
accZ: 0.0
---
header: 
  seq: 27475
  stamp: 
    secs: 1596613608
    nsecs: 707458274
  frame_id: "node1_radarinterface_radarscan"
range: 1.71979725361
angle: -0.160836219788
elev: 0.220965534449
doppler: 0.0795030742884
snr: 266
noise: 442
frame_num: 1881
point_id: 15
x: -0.268718332052
y: 1.65632605553
z: 0.376931041479
doppler_bin: 33
target_idx: 4
posX: -0.347445815802
posY: 1.69490206242
posZ: 0.479192703962
velX: -0.191307410598
velY: -0.138006225228
velZ: 0.0448333770037
accX: 0.0
accY: 0.0
accZ: 0.0
---
header: 
  seq: 27476
  stamp: 
    secs: 1596613608
    nsecs: 707536018
  frame_id: "node1_radarinterface_radarscan"
range: 1.87614250183
angle: -0.0959658920765
elev: 0.208170294762
doppler: 0.159006148577
snr: 157
noise: 516
frame_num: 1881
point_id: 27
x: -0.175888374448
y: 1.82719182968
z: 0.387742459774
doppler_bin: 34
target_idx: 4
posX: -0.347445815802
posY: 1.69490206242
posZ: 0.479192703962
velX: -0.191307410598
velY: -0.138006225228
velZ: 0.0448333770037
accX: 0.0
accY: 0.0
accZ: 0.0
---
header: 
  seq: 27477
  stamp: 
    secs: 1596613608
    nsecs: 707561526
  frame_id: "node1_radarinterface_radarscan"
range: 1.95431506634
angle: -0.06427013129
elev: 0.232351109385
doppler: 0.238509222865
snr: 125
noise: 490
frame_num: 1881
point_id: 31
x: -0.122144684196
y: 1.8978716135
z: 0.450012475252
doppler_bin: 35
target_idx: 4
posX: -0.347445815802
posY: 1.69490206242
posZ: 0.479192703962
velX: -0.191307410598
velY: -0.138006225228
velZ: 0.0448333770037
accX: 0.0
accY: 0.0
accZ: 0.0
---
header: 
  seq: 27478
  stamp: 
    secs: 1596613608
    nsecs: 707591940
  frame_id: "node1_radarinterface_radarscan"
range: 1.71979725361
angle: -0.23015922308
elev: 0.28779399395
doppler: -0.238509222865
snr: 377
noise: 360
frame_num: 1881
point_id: 34
x: -0.376205652952
y: 1.6055803299
z: 0.488143205643
doppler_bin: 29
target_idx: 4
posX: -0.347445815802
posY: 1.69490206242
posZ: 0.479192703962
velX: -0.191307410598
velY: -0.138006225228
velZ: 0.0448333770037
accX: 0.0
accY: 0.0
accZ: 0.0
---
header: 
  seq: 27479
  stamp: 
    secs: 1596613608
    nsecs: 707663405
  frame_id: "node1_radarinterface_radarscan"
range: 1.79796981812
angle: -0.229966148734
elev: 0.284994721413
doppler: -0.238509222865
snr: 352
noise: 366
frame_num: 1881
point_id: 35
x: -0.393305897713
y: 1.68002152443
z: 0.505503475666
doppler_bin: 29
target_idx: 4
posX: -0.347445815802
posY: 1.69490206242
posZ: 0.479192703962
velX: -0.191307410598
velY: -0.138006225228
velZ: 0.0448333770037
accX: 0.0
accY: 0.0
accZ: 0.0
---
header: 
  seq: 27480
  stamp: 
    secs: 1596613608
    nsecs: 707684964
  frame_id: "node1_radarinterface_radarscan"
range: 1.6416246891
angle: -0.227942422032
elev: 0.253529340029
doppler: -0.159006148577
snr: 376
noise: 368
frame_num: 1881
point_id: 37
x: -0.359105378389
y: 1.54804134369
z: 0.411755651236
doppler_bin: 30
target_idx: 4
posX: -0.347445815802
posY: 1.69490206242
posZ: 0.479192703962
velX: -0.191307410598
velY: -0.138006225228
velZ: 0.0448333770037
accX: 0.0
accY: 0.0
accZ: 0.0
---
header: 
  seq: 27481
  stamp: 
    secs: 1596613608
    nsecs: 707705455
  frame_id: "node1_radarinterface_radarscan"
range: 1.79796981812
angle: -0.25923165679
elev: 0.222834423184
doppler: -0.159006148577
snr: 409
noise: 371
frame_num: 1881
point_id: 39
x: -0.449492454529
y: 1.69492518902
z: 0.397342056036
doppler_bin: 30
target_idx: 4
posX: -0.347445815802
posY: 1.69490206242
posZ: 0.479192703962
velX: -0.191307410598
velY: -0.138006225228
velZ: 0.0448333770037
accX: 0.0
accY: 0.0
accZ: 0.0
---
header: 
  seq: 27482
  stamp: 
    secs: 1596613608
    nsecs: 707728476
  frame_id: "node1_radarinterface_radarscan"
range: 1.87614250183
angle: -0.255590498447
elev: 0.149414420128
doppler: -0.159006148577
snr: 290
noise: 379
frame_num: 1881
point_id: 40
x: -0.469035595655
y: 1.79497027397
z: 0.279280900955
doppler_bin: 30
target_idx: 4
posX: -0.347445815802
posY: 1.69490206242
posZ: 0.479192703962
velX: -0.191307410598
velY: -0.138006225228
velZ: 0.0448333770037
accX: 0.0
accY: 0.0
accZ: 0.0
---
header: 
  seq: 27483
  stamp: 
    secs: 1596613608
    nsecs: 707752812
  frame_id: "node1_radarinterface_radarscan"
range: 1.95431506634
angle: -0.194325655699
elev: 0.628099739552
doppler: -0.159006148577
snr: 200
noise: 406
frame_num: 1881
point_id: 41
x: -0.305361717939
y: 1.55156183243
z: 1.14837157726
doppler_bin: 30
target_idx: 4
posX: -0.347445815802
posY: 1.69490206242
posZ: 0.479192703962
velX: -0.191307410598
velY: -0.138006225228
velZ: 0.0448333770037
accX: 0.0
accY: 0.0
accZ: 0.0
---
header: 
  seq: 27484
  stamp: 
    secs: 1596613608
    nsecs: 707850982
  frame_id: "node1_radarinterface_radarscan"
range: 1.6416246891
angle: -0.22444871068
elev: 0.185514181852
doppler: -0.0795030742884
snr: 377
noise: 367
frame_num: 1881
point_id: 44
x: -0.359105408192
y: 1.57298660278
z: 0.302800834179
doppler_bin: 31
target_idx: 4
posX: -0.347445815802
posY: 1.69490206242
posZ: 0.479192703962
velX: -0.191307410598
velY: -0.138006225228
velZ: 0.0448333770037
accX: 0.0
accY: 0.0
accZ: 0.0
---
header: 
  seq: 27485
  stamp: 
    secs: 1596613608
    nsecs: 707878126
  frame_id: "node1_radarinterface_radarscan"
range: 1.71979725361
angle: -0.224080681801
elev: 0.176702916622
doppler: -0.0795030742884
snr: 423
noise: 373
frame_num: 1881
point_id: 45
x: -0.376205652952
y: 1.65069007874
z: 0.302314192057
doppler_bin: 31
target_idx: 4
posX: -0.347445815802
posY: 1.69490206242
posZ: 0.479192703962
velX: -0.191307410598
velY: -0.138006225228
velZ: 0.0448333770037
accX: 0.0
accY: 0.0
accZ: 0.0
---
header: 
  seq: 27486
  stamp: 
    secs: 1596613608
    nsecs: 707893572
  frame_id: "node1_radarinterface_radarscan"
range: 1.95431506634
angle: -0.170166954398
elev: 0.39586776495
doppler: -0.0795030742884
snr: 228
noise: 432
frame_num: 1881
point_id: 48
x: -0.305361717939
y: 1.77712869644
z: 0.753601431847
doppler_bin: 31
target_idx: 4
posX: -0.347445815802
posY: 1.69490206242
posZ: 0.479192703962
velX: -0.191307410598
velY: -0.138006225228
velZ: 0.0448333770037
accX: 0.0
accY: 0.0
accZ: 0.0
---
header: 
  seq: 27487
  stamp: 
    secs: 1596613608
    nsecs: 806198271
  frame_id: "node1_radarinterface_radarscan"
range: 1.6416246891
angle: -0.232940107584
elev: 0.325067251921
doppler: 0.0
snr: 321
noise: 394
frame_num: 1882
point_id: 3
x: -0.359105378389
y: 1.51363635063
z: 0.524289786816
doppler_bin: 32
target_idx: 4
posX: -0.351938188076
posY: 1.68220174313
posZ: 0.487264066935
velX: -0.160411983728
velY: -0.122751899064
velZ: 0.0646031796932
accX: 0.0
accY: 0.0
accZ: 0.0
---
header: 
  seq: 27488
  stamp: 
    secs: 1596613608
    nsecs: 806264364
  frame_id: "node1_radarinterface_radarscan"
range: 1.79796981812
angle: -0.225489109755
elev: 0.208302617073
doppler: 0.0
snr: 333
noise: 437
frame_num: 1882
point_id: 5
x: -0.393305897713
y: 1.71457183361
z: 0.371819287539
doppler_bin: 32
target_idx: 4
posX: -0.351938188076
posY: 1.68220174313
posZ: 0.487264066935
velX: -0.160411983728
velY: -0.122751899064
velZ: 0.0646031796932
accX: 0.0
accY: 0.0
accZ: 0.0
---
header: 
  seq: 27489
  stamp: 
    secs: 1596613608
    nsecs: 806276478
  frame_id: "node1_radarinterface_radarscan"
range: 1.79796981812
angle: -0.164295688272
elev: 0.300051569939
doppler: 0.0795030742884
snr: 264
noise: 474
frame_num: 1882
point_id: 15
x: -0.280932784081
y: 1.69450867176
z: 0.531424999237
doppler_bin: 33
target_idx: 4
posX: -0.351938188076
posY: 1.68220174313
posZ: 0.487264066935
velX: -0.160411983728
velY: -0.122751899064
velZ: 0.0646031796932
accX: 0.0
accY: 0.0
accZ: 0.0
---
header: 
  seq: 27490
  stamp: 
    secs: 1596613608
    nsecs: 806319830
  frame_id: "node1_radarinterface_radarscan"
range: 1.71979725361
angle: -0.163053691387
elev: 0.274603813887
doppler: 0.159006148577
snr: 232
noise: 442
frame_num: 1882
point_id: 22
x: -0.26871830225
y: 1.63340461254
z: 0.466349869967
doppler_bin: 34
target_idx: 4
posX: -0.351938188076
posY: 1.68220174313
posZ: 0.487264066935
velX: -0.160411983728
velY: -0.122751899064
velZ: 0.0646031796932
accX: 0.0
accY: 0.0
accZ: 0.0
---
header: 
  seq: 27491
  stamp: 
    secs: 1596613608
    nsecs: 806332503
  frame_id: "node1_radarinterface_radarscan"
range: 1.95431506634
angle: -0.191026464105
elev: 0.604220092297
doppler: 0.238509222865
snr: 195
noise: 461
frame_num: 1882
point_id: 31
x: -0.305361717939
y: 1.57903945446
z: 1.11028635502
doppler_bin: 35
target_idx: 4
posX: -0.351938188076
posY: 1.68220174313
posZ: 0.487264066935
velX: -0.160411983728
velY: -0.122751899064
velZ: 0.0646031796932
accX: 0.0
accY: 0.0
accZ: 0.0
---
header: 
  seq: 27492
  stamp: 
    secs: 1596613608
    nsecs: 806346673
  frame_id: "node1_radarinterface_radarscan"
range: 1.56345200539
angle: -0.233360692859
elev: 0.330277472734
doppler: -0.159006148577
snr: 229
noise: 362
frame_num: 1882
point_id: 37
x: -0.342005133629
y: 1.43886387348
z: 0.507036089897
doppler_bin: 30
target_idx: 4
posX: -0.351938188076
posY: 1.68220174313
posZ: 0.487264066935
velX: -0.160411983728
velY: -0.122751899064
velZ: 0.0646031796932
accX: 0.0
accY: 0.0
accZ: 0.0
---
header: 
  seq: 27493
  stamp: 
    secs: 1596613608
    nsecs: 806389453
  frame_id: "node1_radarinterface_radarscan"
range: 1.71979725361
angle: -0.229519084096
elev: 0.278388947248
doppler: -0.159006148577
snr: 427
noise: 370
frame_num: 1882
point_id: 39
x: -0.376205652952
y: 1.61022031307
z: 0.472612291574
doppler_bin: 30
target_idx: 4
posX: -0.351938188076
posY: 1.68220174313
posZ: 0.487264066935
velX: -0.160411983728
velY: -0.122751899064
velZ: 0.0646031796932
accX: 0.0
accY: 0.0
accZ: 0.0
---
header: 
  seq: 27494
  stamp: 
    secs: 1596613608
    nsecs: 806402084
  frame_id: "node1_radarinterface_radarscan"
range: 1.79796981812
angle: -0.192679092288
elev: 0.204473361373
doppler: -0.159006148577
snr: 422
noise: 374
frame_num: 1882
point_id: 40
x: -0.337119340897
y: 1.72793579102
z: 0.36508050561
doppler_bin: 30
target_idx: 4
posX: -0.351938188076
posY: 1.68220174313
posZ: 0.487264066935
velX: -0.160411983728
velY: -0.122751899064
velZ: 0.0646031796932
accX: 0.0
accY: 0.0
accZ: 0.0
---
header: 
  seq: 27495
  stamp: 
    secs: 1596613608
    nsecs: 806416981
  frame_id: "node1_radarinterface_radarscan"
range: 1.87614250183
angle: -0.157257527113
elev: 0.0678329467773
doppler: -0.159006148577
snr: 365
noise: 379
frame_num: 1882
point_id: 41
x: -0.293147265911
y: 1.84873044491
z: 0.127166703343
doppler_bin: 30
target_idx: 4
posX: -0.351938188076
posY: 1.68220174313
posZ: 0.487264066935
velX: -0.160411983728
velY: -0.122751899064
velZ: 0.0646031796932
accX: 0.0
accY: 0.0
accZ: 0.0
---
header: 
  seq: 27496
  stamp: 
    secs: 1596613608
    nsecs: 806427179
  frame_id: "node1_radarinterface_radarscan"
range: 1.6416246891
angle: -0.233225420117
elev: 0.328612446785
doppler: -0.0795030742884
snr: 399
noise: 372
frame_num: 1882
point_id: 44
x: -0.359105378389
y: 1.51171600819
z: 0.529801607132
doppler_bin: 31
target_idx: 4
posX: -0.351938188076
posY: 1.68220174313
posZ: 0.487264066935
velX: -0.160411983728
velY: -0.122751899064
velZ: 0.0646031796932
accX: 0.0
accY: 0.0
accZ: 0.0
---
header: 
  seq: 27497
  stamp: 
    secs: 1596613608
    nsecs: 806437349
  frame_id: "node1_radarinterface_radarscan"
range: 1.71979725361
angle: -0.230136349797
elev: 0.287463933229
doppler: -0.0795030742884
snr: 448
noise: 381
frame_num: 1882
point_id: 45
x: -0.376205652952
y: 1.60574567318
z: 0.487598866224
doppler_bin: 31
target_idx: 4
posX: -0.351938188076
posY: 1.68220174313
posZ: 0.487264066935
velX: -0.160411983728
velY: -0.122751899064
velZ: 0.0646031796932
accX: 0.0
accY: 0.0
accZ: 0.0
---
header: 
  seq: 27498
  stamp: 
    secs: 1596613608
    nsecs: 806500215
  frame_id: "node1_radarinterface_radarscan"
range: 1.95431506634
angle: -0.126034066081
elev: -0.105633333325
doppler: -0.0795030742884
snr: 250
noise: 430
frame_num: 1882
point_id: 48
x: -0.244289398193
y: 1.92800688744
z: -0.206057101488
doppler_bin: 31
target_idx: 4
posX: -0.351938188076
posY: 1.68220174313
posZ: 0.487264066935
velX: -0.160411983728
velY: -0.122751899064
velZ: 0.0646031796932
accX: 0.0
accY: 0.0
accZ: 0.0
---
header: 
  seq: 27499
  stamp: 
    secs: 1596613608
    nsecs: 906039485
  frame_id: "node1_radarinterface_radarscan"
range: 1.6416246891
angle: -0.129213407636
elev: 0.245198830962
doppler: 0.0
snr: 257
noise: 411
frame_num: 1883
point_id: 5
x: -0.205203086138
y: 1.57924616337
z: 0.398503094912
doppler_bin: 32
target_idx: 4
posX: -0.309680461884
posY: 1.70425951481
posZ: 0.426263928413
velX: 0.067081451416
velY: 0.0225189477205
velZ: -0.142568141222
accX: 0.0
accY: 0.0
accZ: 0.0
---
header: 
  seq: 27500
  stamp: 
    secs: 1596613608
    nsecs: 906119454
  frame_id: "node1_radarinterface_radarscan"
range: 1.56345200539
angle: -0.19029122591
elev: 0.131977036595
doppler: 0.159006148577
snr: 215
noise: 369
frame_num: 1883
point_id: 22
x: -0.293147265911
y: 1.52187955379
z: 0.205741286278
doppler_bin: 34
target_idx: 4
posX: -0.309680461884
posY: 1.70425951481
posZ: 0.426263928413
velX: 0.067081451416
velY: 0.0225189477205
velZ: -0.142568141222
accX: 0.0
accY: 0.0
accZ: 0.0
---
header: 
  seq: 27501
  stamp: 
    secs: 1596613608
    nsecs: 906172636
  frame_id: "node1_radarinterface_radarscan"
range: 1.95431506634
angle: -0.186367049813
elev: 0.567453682423
doppler: 0.238509222865
snr: 176
noise: 504
frame_num: 1883
point_id: 30
x: -0.305361717939
y: 1.61948251724
z: 1.05041801929
doppler_bin: 35
target_idx: 4
posX: -0.309680461884
posY: 1.70425951481
posZ: 0.426263928413
velX: 0.067081451416
velY: 0.0225189477205
velZ: -0.142568141222
accX: 0.0
accY: 0.0
accZ: 0.0
---
header: 
  seq: 27502
  stamp: 
    secs: 1596613608
    nsecs: 906185638
  frame_id: "node1_radarinterface_radarscan"
range: 2.03248763084
angle: -0.18395216763
elev: 0.546757221222
doppler: 0.238509222865
snr: 156
noise: 490
frame_num: 1883
point_id: 31
x: -0.31757619977
y: 1.70688927174
z: 1.05673086643
doppler_bin: 35
target_idx: 4
posX: -0.309680461884
posY: 1.70425951481
posZ: 0.426263928413
velX: 0.067081451416
velY: 0.0225189477205
velZ: -0.142568141222
accX: 0.0
accY: 0.0
accZ: 0.0
---
header: 
  seq: 27503
  stamp: 
    secs: 1596613608
    nsecs: 906200357
  frame_id: "node1_radarinterface_radarscan"
range: 1.6416246891
angle: -0.127597719431
elev: 0.188402295113
doppler: -0.159006148577
snr: 246
noise: 363
frame_num: 1883
point_id: 34
x: -0.205203086138
y: 1.59946608543
z: 0.307459384203
doppler_bin: 30
target_idx: 4
posX: -0.309680461884
posY: 1.70425951481
posZ: 0.426263928413
velX: 0.067081451416
velY: 0.0225189477205
velZ: -0.142568141222
accX: 0.0
accY: 0.0
accZ: 0.0
---
header: 
  seq: 27504
  stamp: 
    secs: 1596613608
    nsecs: 906221303
  frame_id: "node1_radarinterface_radarscan"
range: 1.71979725361
angle: -0.126177668571
elev: 0.11582107842
doppler: -0.159006148577
snr: 341
noise: 363
frame_num: 1883
point_id: 35
x: -0.214974656701
y: 1.69469439983
z: 0.198743730783
doppler_bin: 30
target_idx: 4
posX: -0.309680461884
posY: 1.70425951481
posZ: 0.426263928413
velX: 0.067081451416
velY: 0.0225189477205
velZ: -0.142568141222
accX: 0.0
accY: 0.0
accZ: 0.0
---
header: 
  seq: 27505
  stamp: 
    secs: 1596613608
    nsecs: 906274632
  frame_id: "node1_radarinterface_radarscan"
range: 1.87614250183
angle: -0.0633681640029
elev: -0.161668881774
doppler: -0.159006148577
snr: 321
noise: 367
frame_num: 1883
point_id: 37
x: -0.117258898914
y: 1.84796118736
z: -0.30199432373
doppler_bin: 30
target_idx: 4
posX: -0.309680461884
posY: 1.70425951481
posZ: 0.426263928413
velX: 0.067081451416
velY: 0.0225189477205
velZ: -0.142568141222
accX: 0.0
accY: 0.0
accZ: 0.0
---
header: 
  seq: 27506
  stamp: 
    secs: 1596613608
    nsecs: 906287020
  frame_id: "node1_radarinterface_radarscan"
range: 1.71979725361
angle: -0.127282768488
elev: 0.175025269389
doppler: -0.0795030742884
snr: 384
noise: 374
frame_num: 1883
point_id: 39
x: -0.214974656701
y: 1.67982268333
z: 0.299473494291
doppler_bin: 31
target_idx: 4
posX: -0.309680461884
posY: 1.70425951481
posZ: 0.426263928413
velX: 0.067081451416
velY: 0.0225189477205
velZ: -0.142568141222
accX: 0.0
accY: 0.0
accZ: 0.0
---
header: 
  seq: 27507
  stamp: 
    secs: 1596613608
    nsecs: 906304301
  frame_id: "node1_radarinterface_radarscan"
range: 1.79796981812
angle: -0.125746905804
elev: 0.0814500227571
doppler: -0.0795030742884
snr: 398
noise: 383
frame_num: 1883
point_id: 40
x: -0.224746212363
y: 1.77785992622
z: 0.146282821894
doppler_bin: 31
target_idx: 4
posX: -0.309680461884
posY: 1.70425951481
posZ: 0.426263928413
velX: 0.067081451416
velY: 0.0225189477205
velZ: -0.142568141222
accX: 0.0
accY: 0.0
accZ: 0.0
---
header: 
  seq: 27508
  stamp: 
    secs: 1596613608
    nsecs: 906326034
  frame_id: "node1_radarinterface_radarscan"
range: 1.87614250183
angle: -0.0940825939178
elev: -0.0642534568906
doppler: -0.0795030742884
snr: 360
noise: 392
frame_num: 1883
point_id: 41
x: -0.175888359547
y: 1.86399078369
z: -0.120465710759
doppler_bin: 31
target_idx: 4
posX: -0.309680461884
posY: 1.70425951481
posZ: 0.426263928413
velX: 0.067081451416
velY: 0.0225189477205
velZ: -0.142568141222
accX: 0.0
accY: 0.0
accZ: 0.0
---
header: 
  seq: 27509
  stamp: 
    secs: 1596613609
    nsecs:   6911808
  frame_id: "node1_radarinterface_radarscan"
range: 1.6416246891
angle: -0.189897924662
elev: 0.115546561778
doppler: 0.0
snr: 243
noise: 402
frame_num: 1884
point_id: 3
x: -0.307804614305
y: 1.60136425495
z: 0.189262285829
doppler_bin: 32
target_idx: 4
posX: -0.277135074139
posY: 1.70438361168
posZ: 0.444702774286
velX: 0.201388910413
velY: 0.00468375533819
velZ: -0.0690695717931
accX: 0.0
accY: 0.0
accZ: 0.0
---
header: 
  seq: 27510
  stamp: 
    secs: 1596613609
    nsecs:   7013587
  frame_id: "node1_radarinterface_radarscan"
range: 1.56345200539
angle: -0.199922412634
elev: 0.335819125175
doppler: 0.0795030742884
snr: 222
noise: 384
frame_num: 1884
point_id: 9
x: -0.293147265911
y: 1.44671738148
z: 0.515224099159
doppler_bin: 33
target_idx: 4
posX: -0.277135074139
posY: 1.70438361168
posZ: 0.444702774286
velX: 0.201388910413
velY: 0.00468375533819
velZ: -0.0690695717931
accX: 0.0
accY: 0.0
accZ: 0.0
---
header: 
  seq: 27511
  stamp: 
    secs: 1596613609
    nsecs:   7047057
  frame_id: "node1_radarinterface_radarscan"
range: 1.71979725361
angle: -0.193234324455
elev: 0.217733979225
doppler: 0.0795030742884
snr: 288
noise: 437
frame_num: 1884
point_id: 11
x: -0.322461992502
y: 1.64793932438
z: 0.37150657177
doppler_bin: 33
target_idx: 4
posX: -0.277135074139
posY: 1.70438361168
posZ: 0.444702774286
velX: 0.201388910413
velY: 0.00468375533819
velZ: -0.0690695717931
accX: 0.0
accY: 0.0
accZ: 0.0
---
header: 
  seq: 27512
  stamp: 
    secs: 1596613609
    nsecs:   7070962
  frame_id: "node1_radarinterface_radarscan"
range: 1.87614250183
angle: -0.253252893686
elev: -0.0665366575122
doppler: 0.0795030742884
snr: 231
noise: 496
frame_num: 1884
point_id: 12
x: -0.469035625458
y: 1.8122792244
z: -0.124740161002
doppler_bin: 33
target_idx: 4
posX: -0.277135074139
posY: 1.70438361168
posZ: 0.444702774286
velX: 0.201388910413
velY: 0.00468375533819
velZ: -0.0690695717931
accX: 0.0
accY: 0.0
accZ: 0.0
---
header: 
  seq: 27513
  stamp: 
    secs: 1596613609
    nsecs:   7087540
  frame_id: "node1_radarinterface_radarscan"
range: 1.6416246891
angle: -0.196421921253
elev: 0.281125843525
doppler: 0.159006148577
snr: 326
noise: 407
frame_num: 1884
point_id: 18
x: -0.307804644108
y: 1.54685330391
z: 0.455448210239
doppler_bin: 34
target_idx: 4
posX: -0.277135074139
posY: 1.70438361168
posZ: 0.444702774286
velX: 0.201388910413
velY: 0.00468375533819
velZ: -0.0690695717931
accX: 0.0
accY: 0.0
accZ: 0.0
---
header: 
  seq: 27514
  stamp: 
    secs: 1596613609
    nsecs:   7132676
  frame_id: "node1_radarinterface_radarscan"
range: 1.79796981812
angle: -0.213071763515
elev: 0.480683356524
doppler: 0.159006148577
snr: 272
noise: 465
frame_num: 1884
point_id: 20
x: -0.337119340897
y: 1.55817055702
z: 0.831354618073
doppler_bin: 34
target_idx: 4
posX: -0.277135074139
posY: 1.70438361168
posZ: 0.444702774286
velX: 0.201388910413
velY: 0.00468375533819
velZ: -0.0690695717931
accX: 0.0
accY: 0.0
accZ: 0.0
---
header: 
  seq: 27515
  stamp: 
    secs: 1596613609
    nsecs:   7153004
  frame_id: "node1_radarinterface_radarscan"
range: 1.95431506634
angle: -0.188717156649
elev: 0.032485652715
doppler: 0.159006148577
snr: 152
noise: 523
frame_num: 1884
point_id: 21
x: -0.366434067488
y: 1.91860473156
z: 0.0634760335088
doppler_bin: 34
target_idx: 4
posX: -0.277135074139
posY: 1.70438361168
posZ: 0.444702774286
velX: 0.201388910413
velY: 0.00468375533819
velZ: -0.0690695717931
accX: 0.0
accY: 0.0
accZ: 0.0
---
header: 
  seq: 27516
  stamp: 
    secs: 1596613609
    nsecs:   7176849
  frame_id: "node1_radarinterface_radarscan"
range: 1.6416246891
angle: -0.232924893498
elev: 0.32487693429
doppler: 0.238509222865
snr: 339
noise: 407
frame_num: 1884
point_id: 27
x: -0.359105378389
y: 1.51373887062
z: 0.523993730545
doppler_bin: 35
target_idx: 4
posX: -0.277135074139
posY: 1.70438361168
posZ: 0.444702774286
velX: 0.201388910413
velY: 0.00468375533819
velZ: -0.0690695717931
accX: 0.0
accY: 0.0
accZ: 0.0
---
header: 
  seq: 27517
  stamp: 
    secs: 1596613609
    nsecs:   7226727
  frame_id: "node1_radarinterface_radarscan"
range: 1.71979725361
angle: -0.232307642698
elev: 0.31703966856
doppler: 0.238509222865
snr: 364
noise: 438
frame_num: 1884
point_id: 28
x: -0.376205652952
y: 1.5901914835
z: 0.536155641079
doppler_bin: 35
target_idx: 4
posX: -0.277135074139
posY: 1.70438361168
posZ: 0.444702774286
velX: 0.201388910413
velY: 0.00468375533819
velZ: -0.0690695717931
accX: 0.0
accY: 0.0
accZ: 0.0
---
header: 
  seq: 27518
  stamp: 
    secs: 1596613609
    nsecs:   7244298
  frame_id: "node1_radarinterface_radarscan"
range: 1.79796981812
angle: -0.266875088215
elev: 0.323965013027
doppler: 0.238509222865
snr: 328
noise: 463
frame_num: 1884
point_id: 29
x: -0.449492454529
y: 1.64410305023
z: 0.572343766689
doppler_bin: 35
target_idx: 4
posX: -0.277135074139
posY: 1.70438361168
posZ: 0.444702774286
velX: 0.201388910413
velY: 0.00468375533819
velZ: -0.0690695717931
accX: 0.0
accY: 0.0
accZ: 0.0
---
header: 
  seq: 27519
  stamp: 
    secs: 1596613609
    nsecs:   7263223
  frame_id: "node1_radarinterface_radarscan"
range: 1.79796981812
angle: -0.262993484735
elev: 0.277873247862
doppler: 0.318012297153
snr: 312
noise: 450
frame_num: 1884
point_id: 34
x: -0.449492454529
y: 1.66955173016
z: 0.49320307374
doppler_bin: 36
target_idx: 4
posX: -0.277135074139
posY: 1.70438361168
posZ: 0.444702774286
velX: 0.201388910413
velY: 0.00468375533819
velZ: -0.0690695717931
accX: 0.0
accY: 0.0
accZ: 0.0
---
header: 
  seq: 27520
  stamp: 
    secs: 1596613609
    nsecs:   7285559
  frame_id: "node1_radarinterface_radarscan"
range: 1.95431506634
angle: -0.0327069722116
elev: 0.299024939537
doppler: -0.636024594307
snr: 254
noise: 363
frame_num: 1884
point_id: 35
x: -0.0610723495483
y: 1.86659193039
z: 0.5757188797
doppler_bin: 24
target_idx: 4
posX: -0.277135074139
posY: 1.70438361168
posZ: 0.444702774286
velX: 0.201388910413
velY: 0.00468375533819
velZ: -0.0690695717931
accX: 0.0
accY: 0.0
accZ: 0.0
---
header: 
  seq: 27521
  stamp: 
    secs: 1596613609
    nsecs:   7320780
  frame_id: "node1_radarinterface_radarscan"
range: 1.87614250183
angle: -0.0658407434821
elev: 0.317731887102
doppler: -0.55652153492
snr: 311
noise: 369
frame_num: 1884
point_id: 37
x: -0.117258906364
y: 1.77837336063
z: 0.586130917072
doppler_bin: 25
target_idx: 4
posX: -0.277135074139
posY: 1.70438361168
posZ: 0.444702774286
velX: 0.201388910413
velY: 0.00468375533819
velZ: -0.0690695717931
accX: 0.0
accY: 0.0
accZ: 0.0
---
header: 
  seq: 27522
  stamp: 
    secs: 1596613609
    nsecs:   7377989
  frame_id: "node1_radarinterface_radarscan"
range: 2.03248763084
angle: -0.0656420215964
elev: 0.308407843113
doppler: -0.55652153492
snr: 342
noise: 379
frame_num: 1884
point_id: 39
x: -0.127030476928
y: 1.93242013454
z: 0.616945326328
doppler_bin: 25
target_idx: 4
posX: -0.277135074139
posY: 1.70438361168
posZ: 0.444702774286
velX: 0.201388910413
velY: 0.00468375533819
velZ: -0.0690695717931
accX: 0.0
accY: 0.0
accZ: 0.0
---
header: 
  seq: 27523
  stamp: 
    secs: 1596613609
    nsecs:   7394612
  frame_id: "node1_radarinterface_radarscan"
range: 2.11066031456
angle: -0.0659591853619
elev: 0.323139727116
doppler: -0.55652153492
snr: 257
noise: 384
frame_num: 1884
point_id: 40
x: -0.13191626966
y: 1.99706697464
z: 0.670230329037
doppler_bin: 25
target_idx: 4
posX: -0.277135074139
posY: 1.70438361168
posZ: 0.444702774286
velX: 0.201388910413
velY: 0.00468375533819
velZ: -0.0690695717931
accX: 0.0
accY: 0.0
accZ: 0.0
---
header: 
  seq: 27524
  stamp: 
    secs: 1596613609
    nsecs:   7412078
  frame_id: "node1_radarinterface_radarscan"
range: 1.87614250183
angle: -0.0663321614265
elev: 0.339506983757
doppler: -0.47701844573
snr: 330
noise: 361
frame_num: 1884
point_id: 41
x: -0.117258898914
y: 1.76515996456
z: 0.624797224998
doppler_bin: 26
target_idx: 4
posX: -0.277135074139
posY: 1.70438361168
posZ: 0.444702774286
velX: 0.201388910413
velY: 0.00468375533819
velZ: -0.0690695717931
accX: 0.0
accY: 0.0
accZ: 0.0
---
header: 
  seq: 27525
  stamp: 
    secs: 1596613609
    nsecs:   7471332
  frame_id: "node1_radarinterface_radarscan"
range: 2.11066031456
angle: -0.0661877393723
elev: 0.333282828331
doppler: -0.47701844573
snr: 281
noise: 373
frame_num: 1884
point_id: 44
x: -0.13191626966
y: 1.99015080929
z: 0.690496146679
doppler_bin: 26
target_idx: 4
posX: -0.277135074139
posY: 1.70438361168
posZ: 0.444702774286
velX: 0.201388910413
velY: 0.00468375533819
velZ: -0.0690695717931
accX: 0.0
accY: 0.0
accZ: 0.0
---
header: 
  seq: 27526
  stamp: 
    secs: 1596613609
    nsecs:   7489886
  frame_id: "node1_radarinterface_radarscan"
range: 2.03248763084
angle: -0.06613317132
elev: 0.330894708633
doppler: -0.397515356541
snr: 307
noise: 367
frame_num: 1884
point_id: 45
x: -0.127030476928
y: 1.91802728176
z: 0.660333573818
doppler_bin: 27
target_idx: 4
posX: -0.277135074139
posY: 1.70438361168
posZ: 0.444702774286
velX: 0.201388910413
velY: 0.00468375533819
velZ: -0.0690695717931
accX: 0.0
accY: 0.0
accZ: 0.0
---
header: 
  seq: 27527
  stamp: 
    secs: 1596613609
    nsecs:   7506988
  frame_id: "node1_radarinterface_radarscan"
range: 1.6416246891
angle: -0.127595588565
elev: 0.188315317035
doppler: -0.0795030742884
snr: 287
noise: 369
frame_num: 1884
point_id: 48
x: -0.205203101039
y: 1.59949314594
z: 0.307319134474
doppler_bin: 31
target_idx: 4
posX: -0.277135074139
posY: 1.70438361168
posZ: 0.444702774286
velX: 0.201388910413
velY: 0.00468375533819
velZ: -0.0690695717931
accX: 0.0
accY: 0.0
accZ: 0.0
---
header: 
  seq: 27528
  stamp: 
    secs: 1596613609
    nsecs: 102807058
  frame_id: "node1_radarinterface_radarscan"
range: 1.6416246891
angle: -0.160864382982
elev: 0.221736967564
doppler: 0.0
snr: 313
noise: 394
frame_num: 1885
point_id: 0
x: -0.256503850222
y: 1.58075690269
z: 0.361033320427
doppler_bin: 32
target_idx: 4
posX: -0.24644562602
posY: 1.71265351772
posZ: 0.425344198942
velX: 0.292300492525
velY: 0.0189645458013
velZ: -0.125754639506
accX: 0.0
accY: 0.0
accZ: 0.0
---
header: 
  seq: 27529
  stamp: 
    secs: 1596613609
    nsecs: 102895252
  frame_id: "node1_radarinterface_radarscan"
range: 1.71979725361
angle: -0.162376195192
elev: 0.259520381689
doppler: 0.0795030742884
snr: 411
noise: 423
frame_num: 1885
point_id: 9
x: -0.26871830225
y: 1.64034187794
z: 0.441329240799
doppler_bin: 33
target_idx: 4
posX: -0.24644562602
posY: 1.71265351772
posZ: 0.425344198942
velX: 0.292300492525
velY: 0.0189645458013
velZ: -0.125754639506
accX: 0.0
accY: 0.0
accZ: 0.0
---
header: 
  seq: 27530
  stamp: 
    secs: 1596613609
    nsecs: 102928618
  frame_id: "node1_radarinterface_radarscan"
range: 1.87614250183
angle: -0.192023709416
elev: 0.187525331974
doppler: 0.0795030742884
snr: 317
noise: 485
frame_num: 1885
point_id: 11
x: -0.351776719093
y: 1.80937218666
z: 0.349765837193
doppler_bin: 33
target_idx: 4
posX: -0.24644562602
posY: 1.71265351772
posZ: 0.425344198942
velX: 0.292300492525
velY: 0.0189645458013
velZ: -0.125754639506
accX: 0.0
accY: 0.0
accZ: 0.0
---
header: 
  seq: 27531
  stamp: 
    secs: 1596613609
    nsecs: 102956711
  frame_id: "node1_radarinterface_radarscan"
range: 1.71979725361
angle: -0.165066346526
elev: 0.314660876989
doppler: 0.159006148577
snr: 382
noise: 428
frame_num: 1885
point_id: 18
x: -0.268718332052
y: 1.61312890053
z: 0.532266974449
doppler_bin: 34
target_idx: 4
posX: -0.24644562602
posY: 1.71265351772
posZ: 0.425344198942
velX: 0.292300492525
velY: 0.0189645458013
velZ: -0.125754639506
accX: 0.0
accY: 0.0
accZ: 0.0
---
header: 
  seq: 27532
  stamp: 
    secs: 1596613609
    nsecs: 102982394
  frame_id: "node1_radarinterface_radarscan"
range: 1.87614250183
angle: -0.193950951099
elev: 0.233653590083
doppler: 0.159006148577
snr: 290
noise: 495
frame_num: 1885
point_id: 20
x: -0.351776748896
y: 1.79094099998
z: 0.434389591217
doppler_bin: 34
target_idx: 4
posX: -0.24644562602
posY: 1.71265351772
posZ: 0.425344198942
velX: 0.292300492525
velY: 0.0189645458013
velZ: -0.125754639506
accX: 0.0
accY: 0.0
accZ: 0.0
---
header: 
  seq: 27533
  stamp: 
    secs: 1596613609
    nsecs: 103011200
  frame_id: "node1_radarinterface_radarscan"
range: 1.95431506634
angle: -0.289641320705
elev: 0.174925222993
doppler: 0.397515356541
snr: 281
noise: 395
frame_num: 1885
point_id: 27
x: -0.54965108633
y: 1.84432935715
z: 0.340118259192
doppler_bin: 37
target_idx: 4
posX: -0.24644562602
posY: 1.71265351772
posZ: 0.425344198942
velX: 0.292300492525
velY: 0.0189645458013
velZ: -0.125754639506
accX: 0.0
accY: 0.0
accZ: 0.0
---
header: 
  seq: 27534
  stamp: 
    secs: 1596613609
    nsecs: 103073433
  frame_id: "node1_radarinterface_radarscan"
range: 1.95431506634
angle: -0.0332687720656
elev: 0.349650323391
doppler: -0.636024594307
snr: 277
noise: 378
frame_num: 1885
point_id: 28
x: -0.0610723420978
y: 1.83504843712
z: 0.669488370419
doppler_bin: 24
target_idx: 4
posX: -0.24644562602
posY: 1.71265351772
posZ: 0.425344198942
velX: 0.292300492525
velY: 0.0189645458013
velZ: -0.125754639506
accX: 0.0
accY: 0.0
accZ: 0.0
---
header: 
  seq: 27535
  stamp: 
    secs: 1596613609
    nsecs: 103093446
  frame_id: "node1_radarinterface_radarscan"
range: 2.03248763084
angle: -0.0333335995674
elev: 0.354943484068
doppler: -0.636024594307
snr: 215
noise: 380
frame_num: 1885
point_id: 29
x: -0.0635152384639
y: 1.90473616123
z: 0.706365406513
doppler_bin: 24
target_idx: 4
posX: -0.24644562602
posY: 1.71265351772
posZ: 0.425344198942
velX: 0.292300492525
velY: 0.0189645458013
velZ: -0.125754639506
accX: 0.0
accY: 0.0
accZ: 0.0
---
header: 
  seq: 27536
  stamp: 
    secs: 1596613609
    nsecs: 103112488
  frame_id: "node1_radarinterface_radarscan"
range: 1.95431506634
angle: -0.0963693484664
elev: 0.227083623409
doppler: -0.55652153492
snr: 315
noise: 369
frame_num: 1885
point_id: 30
x: -0.183217033744
y: 1.89530706406
z: 0.439988583326
doppler_bin: 25
target_idx: 4
posX: -0.24644562602
posY: 1.71265351772
posZ: 0.425344198942
velX: 0.292300492525
velY: 0.0189645458013
velZ: -0.125754639506
accX: 0.0
accY: 0.0
accZ: 0.0
---
header: 
  seq: 27537
  stamp: 
    secs: 1596613609
    nsecs: 103186450
  frame_id: "node1_radarinterface_radarscan"
range: 2.03248763084
angle: -0.0949987694621
elev: 0.152852550149
doppler: -0.55652153492
snr: 250
noise: 371
frame_num: 1885
point_id: 31
x: -0.190545722842
y: 1.99973285198
z: 0.309462577105
doppler_bin: 25
target_idx: 4
posX: -0.24644562602
posY: 1.71265351772
posZ: 0.425344198942
velX: 0.292300492525
velY: 0.0189645458013
velZ: -0.125754639506
accX: 0.0
accY: 0.0
accZ: 0.0
---
header: 
  seq: 27538
  stamp: 
    secs: 1596613609
    nsecs: 103215380
  frame_id: "node1_radarinterface_radarscan"
range: 2.03248763084
angle: -0.0650527104735
elev: 0.278614968061
doppler: -0.47701844573
snr: 302
noise: 360
frame_num: 1885
point_id: 34
x: -0.127030476928
y: 1.94997608662
z: 0.558983445168
doppler_bin: 26
target_idx: 4
posX: -0.24644562602
posY: 1.71265351772
posZ: 0.425344198942
velX: 0.292300492525
velY: 0.0189645458013
velZ: -0.125754639506
accX: 0.0
accY: 0.0
accZ: 0.0
---
header: 
  seq: 27539
  stamp: 
    secs: 1596613609
    nsecs: 103235913
  frame_id: "node1_radarinterface_radarscan"
range: 1.6416246891
angle: -0.126544311643
elev: 0.138403519988
doppler: -0.159006148577
snr: 268
noise: 354
frame_num: 1885
point_id: 35
x: -0.205203071237
y: 1.61292564869
z: 0.226481959224
doppler_bin: 30
target_idx: 4
posX: -0.24644562602
posY: 1.71265351772
posZ: 0.425344198942
velX: 0.292300492525
velY: 0.0189645458013
velZ: -0.125754639506
accX: 0.0
accY: 0.0
accZ: 0.0
---
header: 
  seq: 27540
  stamp: 
    secs: 1596613609
    nsecs: 103275338
  frame_id: "node1_radarinterface_radarscan"
range: 1.6416246891
angle: -0.126611143351
elev: 0.142122834921
doppler: -0.0795030742884
snr: 287
noise: 363
frame_num: 1885
point_id: 37
x: -0.205203086138
y: 1.61206519604
z: 0.232527703047
doppler_bin: 31
target_idx: 4
posX: -0.24644562602
posY: 1.71265351772
posZ: 0.425344198942
velX: 0.292300492525
velY: 0.0189645458013
velZ: -0.125754639506
accX: 0.0
accY: 0.0
accZ: 0.0
---
header: 
  seq: 27541
  stamp: 
    secs: 1596613609
    nsecs: 103396768
  frame_id: "node1_radarinterface_radarscan"
range: 1.79796981812
angle: -0.126320466399
elev: 0.12511575222
doppler: -0.0795030742884
snr: 406
noise: 382
frame_num: 1885
point_id: 39
x: -0.224746212363
y: 1.76970160007
z: 0.224367901683
doppler_bin: 31
target_idx: 4
posX: -0.24644562602
posY: 1.71265351772
posZ: 0.425344198942
velX: 0.292300492525
velY: 0.0189645458013
velZ: -0.125754639506
accX: 0.0
accY: 0.0
accZ: 0.0
---
header: 
  seq: 27542
  stamp: 
    secs: 1596613609
    nsecs: 202960682
  frame_id: "node1_radarinterface_radarscan"
range: 1.95431506634
angle: -0.290364176035
elev: 0.188122078776
doppler: 0.636024594307
snr: 294
noise: 355
frame_num: 1886
point_id: 27
x: -0.549651145935
y: 1.83947050571
z: 0.365485131741
doppler_bin: 40
target_idx: 4
posX: -0.230034381151
posY: 1.71726441383
posZ: 0.406110912561
velX: 0.28994423151
velY: 0.0261823758483
velZ: -0.165689513087
accX: 0.0
accY: 0.0
accZ: 0.0
---
header: 
  seq: 27543
  stamp: 
    secs: 1596613609
    nsecs: 203052387
  frame_id: "node1_radarinterface_radarscan"
range: 1.95431506634
angle: -0.288684248924
elev: 0.155639588833
doppler: 0.715527653694
snr: 268
noise: 358
frame_num: 1886
point_id: 28
x: -0.54965108633
y: 1.8507989645
z: 0.302942276001
doppler_bin: 41
target_idx: 4
posX: -0.230034381151
posY: 1.71726441383
posZ: 0.406110912561
velX: 0.28994423151
velY: 0.0261823758483
velZ: -0.165689513087
accX: 0.0
accY: 0.0
accZ: 0.0
---
header: 
  seq: 27544
  stamp: 
    secs: 1596613609
    nsecs: 203084516
  frame_id: "node1_radarinterface_radarscan"
range: 1.79796981812
angle: -0.0330436080694
elev: 0.330463200808
doppler: -0.636024594307
snr: 328
noise: 350
frame_num: 1886
point_id: 29
x: -0.0561865605414
y: 1.69975709915
z: 0.583407402039
doppler_bin: 24
target_idx: 4
posX: -0.230034381151
posY: 1.71726441383
posZ: 0.406110912561
velX: 0.28994423151
velY: 0.0261823758483
velZ: -0.165689513087
accX: 0.0
accY: 0.0
accZ: 0.0
---
header: 
  seq: 27545
  stamp: 
    secs: 1596613609
    nsecs: 203140430
  frame_id: "node1_radarinterface_radarscan"
range: 1.87614250183
angle: -0.0329446867108
elev: 0.321599006653
doppler: -0.636024594307
snr: 344
noise: 354
frame_num: 1886
point_id: 30
x: -0.0586294494569
y: 1.77898907661
z: 0.593018591404
doppler_bin: 24
target_idx: 4
posX: -0.230034381151
posY: 1.71726441383
posZ: 0.406110912561
velX: 0.28994423151
velY: 0.0261823758483
velZ: -0.165689513087
accX: 0.0
accY: 0.0
accZ: 0.0
---
header: 
  seq: 27546
  stamp: 
    secs: 1596613609
    nsecs: 203161389
  frame_id: "node1_radarinterface_radarscan"
range: 1.95431506634
angle: -0.0652276799083
elev: 0.287830770016
doppler: -0.397515356541
snr: 359
noise: 365
frame_num: 1886
point_id: 31
x: -0.122144684196
y: 1.86993324757
z: 0.554777085781
doppler_bin: 27
target_idx: 4
posX: -0.230034381151
posY: 1.71726441383
posZ: 0.406110912561
velX: 0.28994423151
velY: 0.0261823758483
velZ: -0.165689513087
accX: 0.0
accY: 0.0
accZ: 0.0
---
header: 
  seq: 27547
  stamp: 
    secs: 1596613609
    nsecs: 203220802
  frame_id: "node1_radarinterface_radarscan"
range: 2.03248763084
angle: -0.0317965857685
elev: 0.184786081314
doppler: -0.318012297153
snr: 287
noise: 369
frame_num: 1886
point_id: 34
x: -0.0635152384639
y: 1.99687588215
z: 0.373441666365
doppler_bin: 28
target_idx: 4
posX: -0.230034381151
posY: 1.71726441383
posZ: 0.406110912561
velX: 0.28994423151
velY: 0.0261823758483
velZ: -0.165689513087
accX: 0.0
accY: 0.0
accZ: 0.0
---
header: 
  seq: 27548
  stamp: 
    secs: 1596613609
    nsecs: 203245353
  frame_id: "node1_radarinterface_radarscan"
range: 1.6416246891
angle: -0.128402218223
elev: 0.21868468821
doppler: -0.159006148577
snr: 306
noise: 364
frame_num: 1886
point_id: 35
x: -0.205203086138
y: 1.58933472633
z: 0.35614362359
doppler_bin: 30
target_idx: 4
posX: -0.230034381151
posY: 1.71726441383
posZ: 0.406110912561
velX: 0.28994423151
velY: 0.0261823758483
velZ: -0.165689513087
accX: 0.0
accY: 0.0
accZ: 0.0
---
header: 
  seq: 27549
  stamp: 
    secs: 1596613609
    nsecs: 203272654
  frame_id: "node1_radarinterface_radarscan"
range: 1.6416246891
angle: -0.129405096173
elev: 0.251018047333
doppler: -0.0795030742884
snr: 341
noise: 364
frame_num: 1886
point_id: 41
x: -0.205203071237
y: 1.57688045502
z: 0.407763540745
doppler_bin: 31
target_idx: 4
posX: -0.230034381151
posY: 1.71726441383
posZ: 0.406110912561
velX: 0.28994423151
velY: 0.0261823758483
velZ: -0.165689513087
accX: 0.0
accY: 0.0
accZ: 0.0
---
header: 
  seq: 27550
  stamp: 
    secs: 1596613609
    nsecs: 306078511
  frame_id: "node1_radarinterface_radarscan"
range: 1.71979725361
angle: -0.193099483848
elev: 0.214594751596
doppler: 0.0
snr: 374
noise: 415
frame_num: 1887
point_id: 3
x: -0.3224619627
y: 1.64911913872
z: 0.366233378649
doppler_bin: 32
target_idx: 4
posX: -0.249596655369
posY: 1.71867227554
posZ: 0.393672585487
velX: 0.132311061025
velY: 0.0410493686795
velZ: -0.168523594737
accX: 0.0
accY: 0.0
accZ: 0.0
---
header: 
  seq: 27551
  stamp: 
    secs: 1596613609
    nsecs: 306133246
  frame_id: "node1_radarinterface_radarscan"
range: 1.87614250183
angle: -0.192739963531
elev: 0.20597204566
doppler: 0.0
snr: 321
noise: 445
frame_num: 1887
point_id: 5
x: -0.351776719093
y: 1.80247986317
z: 0.383706331253
doppler_bin: 32
target_idx: 4
posX: -0.249596655369
posY: 1.71867227554
posZ: 0.393672585487
velX: 0.132311061025
velY: 0.0410493686795
velZ: -0.168523594737
accX: 0.0
accY: 0.0
accZ: 0.0
---
header: 
  seq: 27552
  stamp: 
    secs: 1596613609
    nsecs: 306185597
  frame_id: "node1_radarinterface_radarscan"
range: 1.6416246891
angle: -0.1931668818
elev: 0.216170042753
doppler: 0.0795030742884
snr: 348
noise: 391
frame_num: 1887
point_id: 11
x: -0.307804614305
y: 1.57359600067
z: 0.352112710476
doppler_bin: 33
target_idx: 4
posX: -0.249596655369
posY: 1.71867227554
posZ: 0.393672585487
velX: 0.132311061025
velY: 0.0410493686795
velZ: -0.168523594737
accX: 0.0
accY: 0.0
accZ: 0.0
---
header: 
  seq: 27553
  stamp: 
    secs: 1596613609
    nsecs: 306199178
  frame_id: "node1_radarinterface_radarscan"
range: 1.71979725361
angle: -0.192600250244
elev: 0.202514484525
doppler: 0.0795030742884
snr: 416
noise: 418
frame_num: 1887
point_id: 12
x: -0.322461992502
y: 1.65350186825
z: 0.345908075571
doppler_bin: 33
target_idx: 4
posX: -0.249596655369
posY: 1.71867227554
posZ: 0.393672585487
velX: 0.132311061025
velY: 0.0410493686795
velZ: -0.168523594737
accX: 0.0
accY: 0.0
accZ: 0.0
---
header: 
  seq: 27554
  stamp: 
    secs: 1596613609
    nsecs: 306218915
  frame_id: "node1_radarinterface_radarscan"
range: 1.6416246891
angle: -0.194331213832
elev: 0.241638034582
doppler: 0.159006148577
snr: 342
noise: 373
frame_num: 1887
point_id: 20
x: -0.307804644108
y: 1.56392860413
z: 0.392829954624
doppler_bin: 34
target_idx: 4
posX: -0.249596655369
posY: 1.71867227554
posZ: 0.393672585487
velX: 0.132311061025
velY: 0.0410493686795
velZ: -0.168523594737
accX: 0.0
accY: 0.0
accZ: 0.0
---
header: 
  seq: 27555
  stamp: 
    secs: 1596613609
    nsecs: 306264213
  frame_id: "node1_radarinterface_radarscan"
range: 1.71979725361
angle: -0.19406928122
elev: 0.236170068383
doppler: 0.159006148577
snr: 417
noise: 395
frame_num: 1887
point_id: 21
x: -0.3224619627
y: 1.64066922665
z: 0.402399420738
doppler_bin: 34
target_idx: 4
posX: -0.249596655369
posY: 1.71867227554
posZ: 0.393672585487
velX: 0.132311061025
velY: 0.0410493686795
velZ: -0.168523594737
accX: 0.0
accY: 0.0
accZ: 0.0
---
header: 
  seq: 27556
  stamp: 
    secs: 1596613609
    nsecs: 306282161
  frame_id: "node1_radarinterface_radarscan"
range: 1.79796981812
angle: -0.193818941712
elev: 0.230810910463
doppler: 0.159006148577
snr: 424
noise: 419
frame_num: 1887
point_id: 22
x: -0.337119340897
y: 1.71751713753
z: 0.411316156387
doppler_bin: 34
target_idx: 4
posX: -0.249596655369
posY: 1.71867227554
posZ: 0.393672585487
velX: 0.132311061025
velY: 0.0410493686795
velZ: -0.168523594737
accX: 0.0
accY: 0.0
accZ: 0.0
---
header: 
  seq: 27557
  stamp: 
    secs: 1596613609
    nsecs: 306326000
  frame_id: "node1_radarinterface_radarscan"
range: 1.87614250183
angle: -0.266225159168
elev: 0.31679135561
doppler: 0.238509222865
snr: 372
noise: 395
frame_num: 1887
point_id: 27
x: -0.469035625458
y: 1.71997952461
z: 0.584454417229
doppler_bin: 35
target_idx: 4
posX: -0.249596655369
posY: 1.71867227554
posZ: 0.393672585487
velX: 0.132311061025
velY: 0.0410493686795
velZ: -0.168523594737
accX: 0.0
accY: 0.0
accZ: 0.0
---
header: 
  seq: 27558
  stamp: 
    secs: 1596613609
    nsecs: 306349414
  frame_id: "node1_radarinterface_radarscan"
range: 1.87614250183
angle: -0.0655632019043
elev: 0.304616928101
doppler: -0.318012297153
snr: 342
noise: 363
frame_num: 1887
point_id: 28
x: -0.117258898914
y: 1.78592312336
z: 0.56270724535
doppler_bin: 28
target_idx: 4
posX: -0.249596655369
posY: 1.71867227554
posZ: 0.393672585487
velX: 0.132311061025
velY: 0.0410493686795
velZ: -0.168523594737
accX: 0.0
accY: 0.0
accZ: 0.0
---
header: 
  seq: 27559
  stamp: 
    secs: 1596613609
    nsecs: 306368221
  frame_id: "node1_radarinterface_radarscan"
range: 1.87614250183
angle: -0.0664983540773
elev: 0.346503555775
doppler: -0.238509222865
snr: 375
noise: 360
frame_num: 1887
point_id: 29
x: -0.117258906364
y: 1.76073551178
z: 0.637159109116
doppler_bin: 29
target_idx: 4
posX: -0.249596655369
posY: 1.71867227554
posZ: 0.393672585487
velX: 0.132311061025
velY: 0.0410493686795
velZ: -0.168523594737
accX: 0.0
accY: 0.0
accZ: 0.0
---
header: 
  seq: 27560
  stamp: 
    secs: 1596613609
    nsecs: 306428563
  frame_id: "node1_radarinterface_radarscan"
range: 1.95431506634
angle: -0.066131323576
elev: 0.330813467503
doppler: -0.238509222865
snr: 329
noise: 363
frame_num: 1887
point_id: 30
x: -0.122144699097
y: 1.84430885315
z: 0.634785950184
doppler_bin: 29
target_idx: 4
posX: -0.249596655369
posY: 1.71867227554
posZ: 0.393672585487
velX: 0.132311061025
velY: 0.0410493686795
velZ: -0.168523594737
accX: 0.0
accY: 0.0
accZ: 0.0
---
header: 
  seq: 27561
  stamp: 
    secs: 1596613609
    nsecs: 306480453
  frame_id: "node1_radarinterface_radarscan"
range: 1.71979725361
angle: -0.0942126363516
elev: 0.0829324424267
doppler: -0.159006148577
snr: 348
noise: 364
frame_num: 1887
point_id: 31
x: -0.161230996251
y: 1.70628583431
z: 0.142463549972
doppler_bin: 30
target_idx: 4
posX: -0.249596655369
posY: 1.71867227554
posZ: 0.393672585487
velX: 0.132311061025
velY: 0.0410493686795
velZ: -0.168523594737
accX: 0.0
accY: 0.0
accZ: 0.0
---
header: 
  seq: 27562
  stamp: 
    secs: 1596613609
    nsecs: 306506909
  frame_id: "node1_radarinterface_radarscan"
range: 1.71979725361
angle: -0.0956857204437
elev: 0.1938662678
doppler: -0.0795030742884
snr: 352
noise: 397
frame_num: 1887
point_id: 34
x: -0.161230996251
y: 1.67986011505
z: 0.33132609725
doppler_bin: 31
target_idx: 4
posX: -0.249596655369
posY: 1.71867227554
posZ: 0.393672585487
velX: 0.132311061025
velY: 0.0410493686795
velZ: -0.168523594737
accX: 0.0
accY: 0.0
accZ: 0.0
---
header: 
  seq: 27563
  stamp: 
    secs: 1596613609
    nsecs: 306562317
  frame_id: "node1_radarinterface_radarscan"
range: 1.79796981812
angle: -0.0961367636919
elev: 0.216398924589
doppler: -0.0795030742884
snr: 366
noise: 416
frame_num: 1887
point_id: 35
x: -0.168559655547
y: 1.74792706966
z: 0.386049181223
doppler_bin: 31
target_idx: 4
posX: -0.249596655369
posY: 1.71867227554
posZ: 0.393672585487
velX: 0.132311061025
velY: 0.0410493686795
velZ: -0.168523594737
accX: 0.0
accY: 0.0
accZ: 0.0
---
header: 
  seq: 27564
  stamp: 
    secs: 1596613609
    nsecs: 407940932
  frame_id: "node1_radarinterface_radarscan"
range: 1.6416246891
angle: -0.126504078507
elev: 0.136113405228
doppler: 0.0
snr: 232
noise: 390
frame_num: 1888
point_id: 3
x: -0.205203086138
y: 1.61344432831
z: 0.222757801414
doppler_bin: 32
target_idx: 4
posX: -0.256453841925
posY: 1.73980569839
posZ: 0.368130326271
velX: 0.0622262135148
velY: 0.0900031849742
velZ: -0.214968115091
accX: 0.0
accY: 0.0
accZ: 0.0
---
header: 
  seq: 27565
  stamp: 
    secs: 1596613609
    nsecs: 408009329
  frame_id: "node1_radarinterface_radarscan"
range: 1.79796981812
angle: -0.127171188593
elev: 0.170019373298
doppler: 0.0
snr: 326
noise: 434
frame_num: 1888
point_id: 5
x: -0.224746227264
y: 1.75773584843
z: 0.304219096899
doppler_bin: 32
target_idx: 4
posX: -0.256453841925
posY: 1.73980569839
posZ: 0.368130326271
velX: 0.0622262135148
velY: 0.0900031849742
velZ: -0.214968115091
accX: 0.0
accY: 0.0
accZ: 0.0
---
header: 
  seq: 27566
  stamp: 
    secs: 1596613609
    nsecs: 408062166
  frame_id: "node1_radarinterface_radarscan"
range: 1.71979725361
angle: -0.191923677921
elev: 0.184792652726
doppler: 0.0795030742884
snr: 330
noise: 412
frame_num: 1888
point_id: 18
x: -0.322461992502
y: 1.65947723389
z: 0.31600022316
doppler_bin: 33
target_idx: 4
posX: -0.256453841925
posY: 1.73980569839
posZ: 0.368130326271
velX: 0.0622262135148
velY: 0.0900031849742
velZ: -0.214968115091
accX: 0.0
accY: 0.0
accZ: 0.0
---
header: 
  seq: 27567
  stamp: 
    secs: 1596613609
    nsecs: 408126764
  frame_id: "node1_radarinterface_radarscan"
range: 1.87614250183
angle: -0.260518997908
elev: 0.243232727051
doppler: 0.0795030742884
snr: 281
noise: 477
frame_num: 1888
point_id: 20
x: -0.469035625458
y: 1.75947296619
z: 0.451852887869
doppler_bin: 33
target_idx: 4
posX: -0.256453841925
posY: 1.73980569839
posZ: 0.368130326271
velX: 0.0622262135148
velY: 0.0900031849742
velZ: -0.214968115091
accX: 0.0
accY: 0.0
accZ: 0.0
---
header: 
  seq: 27568
  stamp: 
    secs: 1596613609
    nsecs: 408148636
  frame_id: "node1_radarinterface_radarscan"
range: 1.95431506634
angle: -0.301795363426
elev: 0.329447299242
doppler: 0.0795030742884
snr: 209
noise: 499
frame_num: 1888
point_id: 21
x: -0.54965108633
y: 1.76563811302
z: 0.632260203362
doppler_bin: 33
target_idx: 4
posX: -0.256453841925
posY: 1.73980569839
posZ: 0.368130326271
velX: 0.0622262135148
velY: 0.0900031849742
velZ: -0.214968115091
accX: 0.0
accY: 0.0
accZ: 0.0
---
header: 
  seq: 27569
  stamp: 
    secs: 1596613609
    nsecs: 408171622
  frame_id: "node1_radarinterface_radarscan"
range: 1.6416246891
angle: -0.193776771426
elev: 0.229894682765
doppler: 0.159006148577
snr: 191
noise: 384
frame_num: 1888
point_id: 28
x: -0.307804644108
y: 1.56851780415
z: 0.374085187912
doppler_bin: 34
target_idx: 4
posX: -0.256453841925
posY: 1.73980569839
posZ: 0.368130326271
velX: 0.0622262135148
velY: 0.0900031849742
velZ: -0.214968115091
accX: 0.0
accY: 0.0
accZ: 0.0
---
header: 
  seq: 27570
  stamp: 
    secs: 1596613609
    nsecs: 408212919
  frame_id: "node1_radarinterface_radarscan"
range: 1.71979725361
angle: -0.191782847047
elev: 0.180871501565
doppler: 0.159006148577
snr: 261
noise: 408
frame_num: 1888
point_id: 29
x: -0.322461992502
y: 1.66072618961
z: 0.309369027615
doppler_bin: 34
target_idx: 4
posX: -0.256453841925
posY: 1.73980569839
posZ: 0.368130326271
velX: 0.0622262135148
velY: 0.0900031849742
velZ: -0.214968115091
accX: 0.0
accY: 0.0
accZ: 0.0
---
header: 
  seq: 27571
  stamp: 
    secs: 1596613609
    nsecs: 408224799
  frame_id: "node1_radarinterface_radarscan"
range: 1.79796981812
angle: -0.261832267046
elev: 0.262256681919
doppler: 0.159006148577
snr: 288
noise: 434
frame_num: 1888
point_id: 30
x: -0.449492484331
y: 1.67730820179
z: 0.466142982244
doppler_bin: 34
target_idx: 4
posX: -0.256453841925
posY: 1.73980569839
posZ: 0.368130326271
velX: 0.0622262135148
velY: 0.0900031849742
velZ: -0.214968115091
accX: 0.0
accY: 0.0
accZ: 0.0
---
header: 
  seq: 27572
  stamp: 
    secs: 1596613609
    nsecs: 408237629
  frame_id: "node1_radarinterface_radarscan"
range: 1.87614250183
angle: -0.272310376167
elev: 0.377700030804
doppler: 0.159006148577
snr: 302
noise: 456
frame_num: 1888
point_id: 31
x: -0.46903565526
y: 1.67964398861
z: 0.691890537739
doppler_bin: 34
target_idx: 4
posX: -0.256453841925
posY: 1.73980569839
posZ: 0.368130326271
velX: 0.0622262135148
velY: 0.0900031849742
velZ: -0.214968115091
accX: 0.0
accY: 0.0
accZ: 0.0
---
header: 
  seq: 27573
  stamp: 
    secs: 1596613609
    nsecs: 408250848
  frame_id: "node1_radarinterface_radarscan"
range: 2.11066031456
angle: -0.328082948923
elev: 0.246355041862
doppler: 0.95403689146
snr: 248
noise: 380
frame_num: 1888
point_id: 37
x: -0.659581422806
y: 1.93775498867
z: 0.514728188515
doppler_bin: 44
target_idx: 4
posX: -0.256453841925
posY: 1.73980569839
posZ: 0.368130326271
velX: 0.0622262135148
velY: 0.0900031849742
velZ: -0.214968115091
accX: 0.0
accY: 0.0
accZ: 0.0
---
header: 
  seq: 27574
  stamp: 
    secs: 1596613609
    nsecs: 408269800
  frame_id: "node1_radarinterface_radarscan"
range: 2.11066031456
angle: 0.0
elev: 0.31533613801
doppler: -0.318012297153
snr: 232
noise: 389
frame_num: 1888
point_id: 39
x: 0.0
y: 2.0065882206
z: 0.654591858387
doppler_bin: 28
target_idx: 4
posX: -0.256453841925
posY: 1.73980569839
posZ: 0.368130326271
velX: 0.0622262135148
velY: 0.0900031849742
velZ: -0.214968115091
accX: 0.0
accY: 0.0
accZ: 0.0
---
header: 
  seq: 27575
  stamp: 
    secs: 1596613609
    nsecs: 408288137
  frame_id: "node1_radarinterface_radarscan"
range: 2.18883275986
angle: 0.0
elev: 0.299962580204
doppler: -0.318012297153
snr: 200
noise: 401
frame_num: 1888
point_id: 40
x: 0.0
y: 2.09109592438
z: 0.646766066551
doppler_bin: 28
target_idx: 4
posX: -0.256453841925
posY: 1.73980569839
posZ: 0.368130326271
velX: 0.0622262135148
velY: 0.0900031849742
velZ: -0.214968115091
accX: 0.0
accY: 0.0
accZ: 0.0
---
header: 
  seq: 27576
  stamp: 
    secs: 1596613609
    nsecs: 408342586
  frame_id: "node1_radarinterface_radarscan"
range: 1.6416246891
angle: -0.126396819949
elev: 0.129805415869
doppler: -0.159006148577
snr: 256
noise: 360
frame_num: 1888
point_id: 41
x: -0.205203071237
y: 1.61482799053
z: 0.212493866682
doppler_bin: 30
target_idx: 4
posX: -0.256453841925
posY: 1.73980569839
posZ: 0.368130326271
velX: 0.0622262135148
velY: 0.0900031849742
velZ: -0.214968115091
accX: 0.0
accY: 0.0
accZ: 0.0
---
header: 
  seq: 27577
  stamp: 
    secs: 1596613609
    nsecs: 408355422
  frame_id: "node1_radarinterface_radarscan"
range: 1.87614250183
angle: -0.0951367542148
elev: 0.161969035864
doppler: -0.159006148577
snr: 339
noise: 393
frame_num: 1888
point_id: 44
x: -0.175888359547
y: 1.84321391582
z: 0.302550077438
doppler_bin: 30
target_idx: 4
posX: -0.256453841925
posY: 1.73980569839
posZ: 0.368130326271
velX: 0.0622262135148
velY: 0.0900031849742
velZ: -0.214968115091
accX: 0.0
accY: 0.0
accZ: 0.0
---
header: 
  seq: 27578
  stamp: 
    secs: 1596613609
    nsecs: 408366642
  frame_id: "node1_radarinterface_radarscan"
range: 1.95431506634
angle: -0.0951334536076
elev: 0.161757320166
doppler: -0.159006148577
snr: 248
noise: 405
frame_num: 1888
point_id: 45
x: -0.183217033744
y: 1.92008137703
z: 0.314747989178
doppler_bin: 30
target_idx: 4
posX: -0.256453841925
posY: 1.73980569839
posZ: 0.368130326271
velX: 0.0622262135148
velY: 0.0900031849742
velZ: -0.214968115091
accX: 0.0
accY: 0.0
accZ: 0.0
---
header: 
  seq: 27579
  stamp: 
    secs: 1596613609
    nsecs: 408378201
  frame_id: "node1_radarinterface_radarscan"
range: 1.56345200539
angle: -0.127083718777
elev: 0.16598495841
doppler: -0.0795030742884
snr: 161
noise: 366
frame_num: 1888
point_id: 48
x: -0.195431485772
y: 1.52952921391
z: 0.258319526911
doppler_bin: 31
target_idx: 4
posX: -0.256453841925
posY: 1.73980569839
posZ: 0.368130326271
velX: 0.0622262135148
velY: 0.0900031849742
velZ: -0.214968115091
accX: 0.0
accY: 0.0
accZ: 0.0
---
header: 
  seq: 27580
  stamp: 
    secs: 1596613609
    nsecs: 408389898
  frame_id: "node1_radarinterface_radarscan"
range: 1.87614250183
angle: -0.0947275012732
elev: 0.133045017719
doppler: -0.0795030742884
snr: 341
noise: 437
frame_num: 1888
point_id: 52
x: -0.175888344646
y: 1.85122513771
z: 0.248875662684
doppler_bin: 31
target_idx: 4
posX: -0.256453841925
posY: 1.73980569839
posZ: 0.368130326271
velX: 0.0622262135148
velY: 0.0900031849742
velZ: -0.214968115091
accX: 0.0
accY: 0.0
accZ: 0.0
---
header: 
  seq: 27581
  stamp: 
    secs: 1596613609
    nsecs: 506832626
  frame_id: "node1_radarinterface_radarscan"
range: 1.6416246891
angle: -0.133027017117
elev: 0.340954750776
doppler: 0.0
snr: 179
noise: 389
frame_num: 1889
point_id: 3
x: -0.205203071237
y: 1.53345704079
z: 0.548938035965
doppler_bin: 32
target_idx: 4
posX: -0.318755179644
posY: 1.7835547924
posZ: 0.463834345341
velX: -0.228565454483
velY: 0.28329911828
velZ: 0.149411544204
accX: 0.0
accY: 0.0
accZ: 0.0
---
header: 
  seq: 27582
  stamp: 
    secs: 1596613609
    nsecs: 506889416
  frame_id: "node1_radarinterface_radarscan"
range: 1.79796981812
angle: -0.13836504519
elev: 0.436359316111
doppler: 0.0
snr: 260
noise: 433
frame_num: 1889
point_id: 5
x: -0.224746212363
y: 1.61392009258
z: 0.759898900986
doppler_bin: 32
target_idx: 4
posX: -0.318755179644
posY: 1.7835547924
posZ: 0.463834345341
velX: -0.228565454483
velY: 0.28329911828
velZ: 0.149411544204
accX: 0.0
accY: 0.0
accZ: 0.0
---
header: 
  seq: 27583
  stamp: 
    secs: 1596613609
    nsecs: 506899471
  frame_id: "node1_radarinterface_radarscan"
range: 2.03248763084
angle: -0.212936893106
elev: 0.47948589921
doppler: 0.0795030742884
snr: 134
noise: 511
frame_num: 1889
point_id: 12
x: -0.381091415882
y: 1.76256024837
z: 0.937633514404
doppler_bin: 33
target_idx: 4
posX: -0.318755179644
posY: 1.7835547924
posZ: 0.463834345341
velX: -0.228565454483
velY: 0.28329911828
velZ: 0.149411544204
accX: 0.0
accY: 0.0
accZ: 0.0
---
header: 
  seq: 27584
  stamp: 
    secs: 1596613609
    nsecs: 506913306
  frame_id: "node1_radarinterface_radarscan"
range: 1.87614250183
angle: -0.13429351151
elev: 0.36646258831
doppler: 0.159006148577
snr: 296
noise: 426
frame_num: 1889
point_id: 18
x: -0.234517812729
y: 1.73579716682
z: 0.672250270844
doppler_bin: 34
target_idx: 4
posX: -0.318755179644
posY: 1.7835547924
posZ: 0.463834345341
velX: -0.228565454483
velY: 0.28329911828
velZ: 0.149411544204
accX: 0.0
accY: 0.0
accZ: 0.0
---
header: 
  seq: 27585
  stamp: 
    secs: 1596613609
    nsecs: 506929778
  frame_id: "node1_radarinterface_radarscan"
range: 2.03248763084
angle: -0.210851430893
elev: 0.460399210453
doppler: 0.159006148577
snr: 173
noise: 465
frame_num: 1889
point_id: 20
x: -0.381091445684
y: 1.78052890301
z: 0.903046011925
doppler_bin: 34
target_idx: 4
posX: -0.318755179644
posY: 1.7835547924
posZ: 0.463834345341
velX: -0.228565454483
velY: 0.28329911828
velZ: 0.149411544204
accX: 0.0
accY: 0.0
accZ: 0.0
---
header: 
  seq: 27586
  stamp: 
    secs: 1596613609
    nsecs: 506955175
  frame_id: "node1_radarinterface_radarscan"
range: 2.42335057259
angle: 0.0958088338375
elev: 0.200286507607
doppler: 0.318012297153
snr: 134
noise: 513
frame_num: 1889
point_id: 30
x: 0.227189108729
y: 2.36401510239
z: 0.482125878334
doppler_bin: 36
target_idx: 4
posX: -0.318755179644
posY: 1.7835547924
posZ: 0.463834345341
velX: -0.228565454483
velY: 0.28329911828
velZ: 0.149411544204
accX: 0.0
accY: 0.0
accZ: 0.0
---
header: 
  seq: 27587
  stamp: 
    secs: 1596613609
    nsecs: 506963052
  frame_id: "node1_radarinterface_radarscan"
range: 2.5015232563
angle: 0.0959107205272
elev: 0.205437868834
doppler: 0.318012297153
snr: 149
noise: 507
frame_num: 1889
point_id: 31
x: 0.234517812729
y: 2.43766570091
z: 0.510300338268
doppler_bin: 36
target_idx: 4
posX: -0.318755179644
posY: 1.7835547924
posZ: 0.463834345341
velX: -0.228565454483
velY: 0.28329911828
velZ: 0.149411544204
accX: 0.0
accY: 0.0
accZ: 0.0
---
header: 
  seq: 27588
  stamp: 
    secs: 1596613609
    nsecs: 506971078
  frame_id: "node1_radarinterface_radarscan"
range: 2.18883275986
angle: -0.361673861742
elev: 0.239387050271
doppler: 1.351552248
snr: 279
noise: 373
frame_num: 1889
point_id: 34
x: -0.7524112463
y: 1.98884820938
z: 0.518988013268
doppler_bin: 49
target_idx: 4
posX: -0.318755179644
posY: 1.7835547924
posZ: 0.463834345341
velX: -0.228565454483
velY: 0.28329911828
velZ: 0.149411544204
accX: 0.0
accY: 0.0
accZ: 0.0
---
header: 
  seq: 27589
  stamp: 
    secs: 1596613609
    nsecs: 506979677
  frame_id: "node1_radarinterface_radarscan"
range: 2.26700544357
angle: -0.363018989563
elev: 0.253492742777
doppler: 1.351552248
snr: 232
noise: 375
frame_num: 1889
point_id: 35
x: -0.779283165932
y: 2.05153608322
z: 0.568534612656
doppler_bin: 49
target_idx: 4
posX: -0.318755179644
posY: 1.7835547924
posZ: 0.463834345341
velX: -0.228565454483
velY: 0.28329911828
velZ: 0.149411544204
accX: 0.0
accY: 0.0
accZ: 0.0
---
header: 
  seq: 27590
  stamp: 
    secs: 1596613609
    nsecs: 506987314
  frame_id: "node1_radarinterface_radarscan"
range: 2.11066031456
angle: -0.362506240606
elev: 0.248220950365
doppler: 1.43105530739
snr: 271
noise: 376
frame_num: 1889
point_id: 37
x: -0.725539505482
y: 1.9130051136
z: 0.518546640873
doppler_bin: 50
target_idx: 4
posX: -0.318755179644
posY: 1.7835547924
posZ: 0.463834345341
velX: -0.228565454483
velY: 0.28329911828
velZ: 0.149411544204
accX: 0.0
accY: 0.0
accZ: 0.0
---
header: 
  seq: 27591
  stamp: 
    secs: 1596613609
    nsecs: 506998719
  frame_id: "node1_radarinterface_radarscan"
range: 2.26700544357
angle: -0.364703893661
elev: 0.27000772953
doppler: 1.43105530739
snr: 254
noise: 372
frame_num: 1889
point_id: 39
x: -0.779283165932
y: 2.04116916656
z: 0.604698479176
doppler_bin: 50
target_idx: 4
posX: -0.318755179644
posY: 1.7835547924
posZ: 0.463834345341
velX: -0.228565454483
velY: 0.28329911828
velZ: 0.149411544204
accX: 0.0
accY: 0.0
accZ: 0.0
---
header: 
  seq: 27592
  stamp: 
    secs: 1596613609
    nsecs: 507011811
  frame_id: "node1_radarinterface_radarscan"
range: 2.34517812729
angle: -0.371409893036
elev: 0.326553553343
doppler: 1.43105530739
snr: 149
noise: 373
frame_num: 1889
point_id: 40
x: -0.806154966354
y: 2.0697915554
