header: 
  seq: 72894
  stamp: 
    secs: 1596523689
    nsecs: 750754074
  frame_id: "node1_radarinterface_radarscan"
range: 1.71979725361
angle: -0.363176673651
elev: 0.25508955121
doppler: 0.0
snr: 190
noise: 423
frame_num: 8481
point_id: 0
x: -0.591180324554
y: 1.5555986166
z: 0.43395999074
doppler_bin: 32
target_idx: 19
posX: -0.632065355778
posY: 1.74898147583
posZ: 0.649579226971
velX: -0.145496398211
velY: 0.0466658473015
velZ: 0.608068287373
accX: 0.0
accY: 0.0
accZ: 0.0
---
header: 
  seq: 72895
  stamp: 
    secs: 1596523689
    nsecs: 750861182
  frame_id: "node1_radarinterface_radarscan"
range: 1.6416246891
angle: -0.363006770611
elev: 0.253368467093
doppler: 0.0795030742884
snr: 162
noise: 395
frame_num: 8481
point_id: 3
x: -0.564308524132
y: 1.48564982414
z: 0.411499977112
doppler_bin: 33
target_idx: 19
posX: -0.632065355778
posY: 1.74898147583
posZ: 0.649579226971
velX: -0.145496398211
velY: 0.0466658473015
velZ: 0.608068287373
accX: 0.0
accY: 0.0
accZ: 0.0
---
header: 
  seq: 72896
  stamp: 
    secs: 1596523689
    nsecs: 750877180
  frame_id: "node1_radarinterface_radarscan"
range: 2.57969594002
angle: -0.0652895644307
elev: 0.291010528803
doppler: 0.715527653694
snr: 169
noise: 438
frame_num: 8481
point_id: 9
x: -0.161231011152
y: 2.46596598625
z: 0.740167438984
doppler_bin: 41
target_idx: 19
posX: -0.632065355778
posY: 1.74898147583
posZ: 0.649579226971
velX: -0.145496398211
velY: 0.0466658473015
velZ: 0.608068287373
accX: 0.0
accY: 0.0
accZ: 0.0
---
header: 
  seq: 72897
  stamp: 
    secs: 1596523689
    nsecs: 750891597
  frame_id: "node1_radarinterface_radarscan"
range: 2.57969594002
angle: -0.0325547046959
elev: 0.283464223146
doppler: 0.795030713081
snr: 151
noise: 427
frame_num: 8481
point_id: 11
x: -0.0806155055761
y: 2.47543406487
z: 0.721497833729
doppler_bin: 42
target_idx: 19
posX: -0.632065355778
posY: 1.74898147583
posZ: 0.649579226971
velX: -0.145496398211
velY: 0.0466658473015
velZ: 0.608068287373
accX: 0.0
accY: 0.0
accZ: 0.0
---
header: 
  seq: 72898
  stamp: 
    secs: 1596523689
    nsecs: 750908129
  frame_id: "node1_radarinterface_radarscan"
range: 2.03248763084
angle: -0.291559308767
elev: 0.516144692898
doppler: -0.238509222865
snr: 236
noise: 392
frame_num: 8481
point_id: 14
x: -0.508121907711
y: 1.69310903549
z: 1.00309514999
doppler_bin: 29
target_idx: 19
posX: -0.632065355778
posY: 1.74898147583
posZ: 0.649579226971
velX: -0.145496398211
velY: 0.0466658473015
velZ: 0.608068287373
accX: 0.0
accY: 0.0
accZ: 0.0
---
header: 
  seq: 72899
  stamp: 
    secs: 1596523689
    nsecs: 750961643
  frame_id: "node1_radarinterface_radarscan"
range: 1.6416246891
angle: -0.326906591654
elev: 0.232160329819
doppler: -0.159006148577
snr: 155
noise: 395
frame_num: 8481
point_id: 17
x: -0.513007700443
y: 1.51297497749
z: 0.377705723047
doppler_bin: 30
target_idx: 19
posX: -0.632065355778
posY: 1.74898147583
posZ: 0.649579226971
velX: -0.145496398211
velY: 0.0466658473015
velZ: 0.608068287373
accX: 0.0
accY: 0.0
accZ: 0.0
---
header: 
  seq: 72900
  stamp: 
    secs: 1596523689
    nsecs: 750975820
  frame_id: "node1_radarinterface_radarscan"
range: 1.79796981812
angle: -0.330642640591
elev: 0.274457573891
doppler: -0.159006148577
snr: 281
noise: 420
frame_num: 8481
point_id: 19
x: -0.561865568161
y: 1.63693213463
z: 0.487294495106
doppler_bin: 30
target_idx: 19
posX: -0.632065355778
posY: 1.74898147583
posZ: 0.649579226971
velX: -0.145496398211
velY: 0.0466658473015
velZ: 0.608068287373
accX: 0.0
accY: 0.0
accZ: 0.0
---
header: 
  seq: 72901
  stamp: 
    secs: 1596523689
    nsecs: 750988839
  frame_id: "node1_radarinterface_radarscan"
range: 2.03248763084
angle: -0.328285336494
elev: 0.510892748833
doppler: -0.159006148577
snr: 191
noise: 443
frame_num: 8481
point_id: 20
x: -0.571637153625
y: 1.67827403545
z: 0.993797421455
doppler_bin: 30
target_idx: 19
posX: -0.632065355778
posY: 1.74898147583
posZ: 0.649579226971
velX: -0.145496398211
velY: 0.0466658473015
velZ: 0.608068287373
accX: 0.0
accY: 0.0
accZ: 0.0
---
header: 
  seq: 72902
  stamp: 
    secs: 1596523689
    nsecs: 751001422
  frame_id: "node1_radarinterface_radarscan"
range: 2.11066031456
angle: -0.331306189299
elev: 0.52635550499
doppler: -0.159006148577
snr: 168
noise: 471
frame_num: 8481
point_id: 21
x: -0.593623220921
y: 1.72572433949
z: 1.06036508083
doppler_bin: 30
target_idx: 19
posX: -0.632065355778
posY: 1.74898147583
posZ: 0.649579226971
velX: -0.145496398211
velY: 0.0466658473015
velZ: 0.608068287373
accX: 0.0
accY: 0.0
accZ: 0.0
---
header: 
  seq: 72903
  stamp: 
    secs: 1596523689
    nsecs: 751015739
  frame_id: "node1_radarinterface_radarscan"
range: 1.6416246891
angle: -0.32776632905
elev: 0.242624923587
doppler: -0.0795030742884
snr: 159
noise: 434
frame_num: 8481
point_id: 30
x: -0.513007700443
y: 1.50870835781
z: 0.394402772188
doppler_bin: 31
target_idx: 19
posX: -0.632065355778
posY: 1.74898147583
posZ: 0.649579226971
velX: -0.145496398211
velY: 0.0466658473015
velZ: 0.608068287373
accX: 0.0
accY: 0.0
accZ: 0.0
---
header: 
  seq: 72904
  stamp: 
    secs: 1596523689
    nsecs: 751029050
  frame_id: "node1_radarinterface_radarscan"
range: 1.71979725361
angle: -0.331526964903
elev: 0.283439874649
doppler: -0.0795030742884
snr: 240
noise: 452
frame_num: 8481
point_id: 31
x: -0.537436664104
y: 1.56126344204
z: 0.480958372355
doppler_bin: 31
target_idx: 19
posX: -0.632065355778
posY: 1.74898147583
posZ: 0.649579226971
velX: -0.145496398211
velY: 0.0466658473015
velZ: 0.608068287373
accX: 0.0
accY: 0.0
accZ: 0.0
---
header: 
  seq: 72905
  stamp: 
    secs: 1596523689
    nsecs: 751044735
  frame_id: "node1_radarinterface_radarscan"
range: 1.79796981812
angle: -0.34105861187
elev: 0.364583581686
doppler: -0.0795030742884
snr: 260
noise: 463
frame_num: 8481
point_id: 32
x: -0.561865568161
y: 1.58303928375
z: 0.641084611416
doppler_bin: 31
target_idx: 19
posX: -0.632065355778
posY: 1.74898147583
posZ: 0.649579226971
velX: -0.145496398211
velY: 0.0466658473015
velZ: 0.608068287373
accX: 0.0
accY: 0.0
accZ: 0.0
---
header: 
  seq: 72906
  stamp: 
    secs: 1596523689
    nsecs: 852920190
  frame_id: "node1_radarinterface_radarscan"
range: 1.87614250183
angle: -0.26341816783
elev: 0.283341646194
doppler: 0.0795030742884
snr: 304
noise: 407
frame_num: 8482
point_id: 6
x: -0.469035595655
y: 1.73919832706
z: 0.524504899979
doppler_bin: 33
target_idx: 19
posX: -0.630262315273
posY: 1.75696754456
posZ: 0.685815453529
velX: -0.0955366939306
velY: 0.0657875984907
velZ: 0.57154661417
accX: 0.0
accY: 0.0
accZ: 0.0
---
header: 
  seq: 72907
  stamp: 
    secs: 1596523689
    nsecs: 853013349
  frame_id: "node1_radarinterface_radarscan"
range: 1.95431506634
angle: -0.329516917467
elev: 0.262515455484
doppler: 0.159006148577
snr: 295
noise: 369
frame_num: 8482
point_id: 11
x: -0.610723435879
y: 1.78581833839
z: 0.507165551186
doppler_bin: 34
target_idx: 19
posX: -0.630262315273
posY: 1.75696754456
posZ: 0.685815453529
velX: -0.0955366939306
velY: 0.0657875984907
velZ: 0.57154661417
accX: 0.0
accY: 0.0
accZ: 0.0
---
header: 
  seq: 72908
  stamp: 
    secs: 1596523689
    nsecs: 950610309
  frame_id: "node1_radarinterface_radarscan"
range: 1.79796981812
angle: -0.369076490402
elev: 0.308254092932
doppler: 0.0
snr: 255
noise: 436
frame_num: 8483
point_id: 3
x: -0.618052124977
y: 1.5978552103
z: 0.545495927334
doppler_bin: 32
target_idx: 19
posX: -0.65070015192
posY: 1.73661732674
posZ: 0.673097610474
velX: -0.113053157926
velY: -0.0634223669767
velZ: 0.360387474298
accX: 0.0
accY: 0.0
accZ: 0.0
---
header: 
  seq: 72909
  stamp: 
    secs: 1596523689
    nsecs: 950709697
  frame_id: "node1_radarinterface_radarscan"
range: 2.03248763084
angle: -0.342576146126
elev: 0.375577777624
doppler: 0.0
snr: 155
noise: 455
frame_num: 8483
point_id: 6
x: -0.63515239954
y: 1.78094410896
z: 0.745536983013
doppler_bin: 32
target_idx: 19
posX: -0.65070015192
posY: 1.73661732674
posZ: 0.673097610474
velX: -0.113053157926
velY: -0.0634223669767
velZ: 0.360387474298
accX: 0.0
accY: 0.0
accZ: 0.0
---
header: 
  seq: 72910
  stamp: 
    secs: 1596523689
    nsecs: 950733890
  frame_id: "node1_radarinterface_radarscan"
range: 1.79796981812
angle: -0.30573913455
elev: 0.364249914885
doppler: 0.0795030742884
snr: 303
noise: 424
frame_num: 8483
point_id: 9
x: -0.505679011345
y: 1.60209643841
z: 0.640524089336
doppler_bin: 33
target_idx: 19
posX: -0.65070015192
posY: 1.73661732674
posZ: 0.673097610474
velX: -0.113053157926
velY: -0.0634223669767
velZ: 0.360387474298
accX: 0.0
accY: 0.0
accZ: 0.0
---
header: 
  seq: 72911
  stamp: 
    secs: 1596523689
    nsecs: 950758215
  frame_id: "node1_radarinterface_radarscan"
range: 1.95431506634
angle: -0.362506330013
elev: 0.248221948743
doppler: 0.0795030742884
snr: 269
noise: 435
frame_num: 8483
point_id: 11
x: -0.671795785427
y: 1.77130055428
z: 0.480137676001
doppler_bin: 33
target_idx: 19
posX: -0.65070015192
posY: 1.73661732674
posZ: 0.673097610474
velX: -0.113053157926
velY: -0.0634223669767
velZ: 0.360387474298
accX: 0.0
accY: 0.0
accZ: 0.0
---
header: 
  seq: 72912
  stamp: 
    secs: 1596523689
    nsecs: 950785029
  frame_id: "node1_radarinterface_radarscan"
range: 1.79796981812
angle: -0.315004885197
elev: 0.432831168175
doppler: 0.159006148577
snr: 269
noise: 385
frame_num: 8483
point_id: 14
x: -0.505679011345
y: 1.55185353756
z: 0.754145085812
doppler_bin: 34
target_idx: 19
posX: -0.65070015192
posY: 1.73661732674
posZ: 0.673097610474
velX: -0.113053157926
velY: -0.0634223669767
velZ: 0.360387474298
accX: 0.0
accY: 0.0
accZ: 0.0
---
header: 
  seq: 72913
  stamp: 
    secs: 1596523689
    nsecs: 950810843
  frame_id: "node1_radarinterface_radarscan"
range: 2.03248763084
angle: -0.415977954865
elev: 0.381725281477
doppler: 0.159006148577
snr: 251
noise: 397
frame_num: 8483
point_id: 17
x: -0.762182891369
y: 1.72534406185
z: 0.757146596909
doppler_bin: 34
target_idx: 19
posX: -0.65070015192
posY: 1.73661732674
posZ: 0.673097610474
velX: -0.113053157926
velY: -0.0634223669767
velZ: 0.360387474298
accX: 0.0
accY: 0.0
accZ: 0.0
---
header: 
  seq: 72914
  stamp: 
    secs: 1596523689
    nsecs: 950846615
  frame_id: "node1_radarinterface_radarscan"
range: 2.18883275986
angle: -0.438488632441
elev: 0.627258300781
doppler: -0.795030713081
snr: 157
noise: 381
frame_num: 8483
point_id: 20
x: -0.752411305904
y: 1.60450911522
z: 1.28468549252
doppler_bin: 22
target_idx: 19
posX: -0.65070015192
posY: 1.73661732674
posZ: 0.673097610474
velX: -0.113053157926
velY: -0.0634223669767
velZ: 0.360387474298
accX: 0.0
accY: 0.0
accZ: 0.0
---
header: 
  seq: 72915
  stamp: 
    secs: 1596523689
    nsecs: 950915913
  frame_id: "node1_radarinterface_radarscan"
range: 2.26700544357
angle: -0.436815261841
elev: 0.622299253941
doppler: -0.795030713081
snr: 167
noise: 382
frame_num: 8483
point_id: 21
x: -0.779283106327
y: 1.66907298565
z: 1.32144868374
doppler_bin: 22
target_idx: 19
posX: -0.65070015192
posY: 1.73661732674
posZ: 0.673097610474
velX: -0.113053157926
velY: -0.0634223669767
velZ: 0.360387474298
accX: 0.0
accY: 0.0
accZ: 0.0
---
header: 
  seq: 72916
  stamp: 
    secs: 1596523689
    nsecs: 950938446
  frame_id: "node1_radarinterface_radarscan"
range: 2.26700544357
angle: -0.446936994791
elev: 0.651229023933
doppler: -0.715527653694
snr: 178
noise: 371
frame_num: 8483
point_id: 22
x: -0.779283106327
y: 1.6259355545
z: 1.37417793274
doppler_bin: 23
target_idx: 19
posX: -0.65070015192
posY: 1.73661732674
posZ: 0.673097610474
velX: -0.113053157926
velY: -0.0634223669767
velZ: 0.360387474298
accX: 0.0
accY: 0.0
accZ: 0.0
---
header: 
  seq: 72917
  stamp: 
    secs: 1596523689
    nsecs: 950954017
  frame_id: "node1_radarinterface_radarscan"
range: 1.87614250183
angle: -0.352928757668
elev: 0.104831382632
doppler: -0.0795030742884
snr: 232
noise: 479
frame_num: 8483
point_id: 37
x: -0.644923985004
y: 1.75084066391
z: 0.196318566799
doppler_bin: 31
target_idx: 19
posX: -0.65070015192
posY: 1.73661732674
posZ: 0.673097610474
velX: -0.113053157926
velY: -0.0634223669767
velZ: 0.360387474298
accX: 0.0
accY: 0.0
accZ: 0.0
---
header: 
  seq: 72918
  stamp: 
    secs: 1596523689
    nsecs: 950966991
  frame_id: "node1_radarinterface_radarscan"
range: 1.95431506634
angle: -0.387987792492
elev: 0.132708013058
doppler: -0.0795030742884
snr: 193
noise: 483
frame_num: 8483
point_id: 38
x: -0.732868134975
y: 1.79314851761
z: 0.258592665195
doppler_bin: 31
target_idx: 19
posX: -0.65070015192
posY: 1.73661732674
posZ: 0.673097610474
velX: -0.113053157926
velY: -0.0634223669767
velZ: 0.360387474298
accX: 0.0
accY: 0.0
accZ: 0.0
---
header: 
  seq: 72919
  stamp: 
    secs: 1596523690
    nsecs:  52236927
  frame_id: "node1_radarinterface_radarscan"
range: 1.71979725361
angle: -0.351533830166
elev: 0.0584605000913
doppler: 0.0
snr: 150
noise: 424
frame_num: 8484
point_id: 0
x: -0.59118026495
y: 1.61186587811
z: 0.100482948124
doppler_bin: 32
target_idx: 19
posX: -0.658416569233
posY: 1.77853226662
posZ: 0.516027808189
velX: -0.0910034403205
velY: 0.0866277590394
velZ: -0.199321448803
accX: 0.0
accY: 0.0
accZ: 0.0
---
header: 
  seq: 72920
  stamp: 
    secs: 1596523690
    nsecs:  52322720
  frame_id: "node1_radarinterface_radarscan"
range: 1.95431506634
angle: -0.35468685627
elev: 0.143037140369
doppler: 0.0
snr: 228
noise: 426
frame_num: 8484
point_id: 3
x: -0.671795785427
y: 1.81395328045
z: 0.278587400913
doppler_bin: 32
target_idx: 19
posX: -0.658416569233
posY: 1.77853226662
posZ: 0.516027808189
velX: -0.0910034403205
velY: 0.0866277590394
velZ: -0.199321448803
accX: 0.0
accY: 0.0
accZ: 0.0
---
header: 
  seq: 72921
  stamp: 
    secs: 1596523690
    nsecs:  52344572
  frame_id: "node1_radarinterface_radarscan"
range: 1.71979725361
angle: -0.32206094265
elev: 0.159589961171
doppler: 0.0795030742884
snr: 261
noise: 412
frame_num: 8484
point_id: 6
x: -0.537436664104
y: 1.61064338684
z: 0.273298799992
doppler_bin: 33
target_idx: 19
posX: -0.658416569233
posY: 1.77853226662
posZ: 0.516027808189
velX: -0.0910034403205
velY: 0.0866277590394
velZ: -0.199321448803
accX: 0.0
accY: 0.0
accZ: 0.0
---
header: 
  seq: 72922
  stamp: 
    secs: 1596523690
    nsecs:  52364281
  frame_id: "node1_radarinterface_radarscan"
range: 1.95431506634
angle: -0.351995706558
elev: 0.0770101249218
doppler: 0.0795030742884
snr: 258
noise: 428
frame_num: 8484
point_id: 9
x: -0.671795785427
y: 1.82905209064
z: 0.150353327394
doppler_bin: 33
target_idx: 19
posX: -0.658416569233
posY: 1.77853226662
posZ: 0.516027808189
velX: -0.0910034403205
velY: 0.0866277590394
velZ: -0.199321448803
accX: 0.0
accY: 0.0
accZ: 0.0
---
header: 
  seq: 72923
  stamp: 
    secs: 1596523690
    nsecs:  52383516
  frame_id: "node1_radarinterface_radarscan"
range: 2.11066031456
angle: -0.400571107864
elev: 0.491690248251
doppler: 0.0795030742884
snr: 170
noise: 473
frame_num: 8484
point_id: 11
x: -0.725539505482
y: 1.71333348751
z: 0.996477723122
doppler_bin: 33
target_idx: 19
posX: -0.658416569233
posY: 1.77853226662
posZ: 0.516027808189
velX: -0.0910034403205
velY: 0.0866277590394
velZ: -0.199321448803
accX: 0.0
accY: 0.0
accZ: 0.0
---
header: 
  seq: 72924
  stamp: 
    secs: 1596523690
    nsecs:  52403248
  frame_id: "node1_radarinterface_radarscan"
range: 1.95431506634
angle: -0.365696310997
elev: 0.279220551252
doppler: 0.159006148577
snr: 237
noise: 382
frame_num: 8484
point_id: 14
x: -0.671795845032
y: 1.75440132618
z: 0.538621902466
doppler_bin: 34
target_idx: 19
posX: -0.658416569233
posY: 1.77853226662
posZ: 0.516027808189
velX: -0.0910034403205
velY: 0.0866277590394
velZ: -0.199321448803
accX: 0.0
accY: 0.0
accZ: 0.0
---
header: 
  seq: 72925
  stamp: 
    secs: 1596523690
    nsecs:  52423376
  frame_id: "node1_radarinterface_radarscan"
range: 1.87614250183
angle: -0.351096004248
elev: 0.0320976525545
doppler: -0.159006148577
snr: 286
noise: 406
frame_num: 8484
point_id: 25
x: -0.644923985004
y: 1.76078343391
z: 0.0602094307542
doppler_bin: 30
target_idx: 19
posX: -0.658416569233
posY: 1.77853226662
posZ: 0.516027808189
velX: -0.0910034403205
velY: 0.0866277590394
velZ: -0.199321448803
accX: 0.0
accY: 0.0
accZ: 0.0
---
header: 
  seq: 72926
  stamp: 
    secs: 1596523690
    nsecs:  52442520
  frame_id: "node1_radarinterface_radarscan"
range: 1.6416246891
angle: -0.335783332586
elev: 0.322704464197
doppler: -0.0795030742884
snr: 120
noise: 436
frame_num: 8484
point_id: 30
x: -0.513007700443
y: 1.46993780136
z: 0.52061265707
doppler_bin: 31
target_idx: 19
posX: -0.658416569233
posY: 1.77853226662
posZ: 0.516027808189
velX: -0.0910034403205
velY: 0.0866277590394
velZ: -0.199321448803
accX: 0.0
accY: 0.0
accZ: 0.0
---
header: 
  seq: 72927
  stamp: 
    secs: 1596523690
    nsecs:  52461629
  frame_id: "node1_radarinterface_radarscan"
range: 1.95431506634
angle: -0.351548731327
elev: 0.0591505020857
doppler: -0.0795030742884
snr: 265
noise: 465
frame_num: 8484
point_id: 34
x: -0.671795785427
y: 1.83158135414
z: 0.11553131789
doppler_bin: 31
target_idx: 19
posX: -0.658416569233
posY: 1.77853226662
posZ: 0.516027808189
velX: -0.0910034403205
velY: 0.0866277590394
velZ: -0.199321448803
accX: 0.0
accY: 0.0
accZ: 0.0
---
header: 
  seq: 72928
  stamp: 
    secs: 1596523690
    nsecs:  52480137
  frame_id: "node1_radarinterface_radarscan"
range: 2.03248763084
angle: -0.386078834534
elev: 0.0910210832953
doppler: -0.0795030742884
snr: 131
noise: 482
frame_num: 8484
point_id: 35
x: -0.762182891369
y: 1.87508749962
z: 0.184743881226
doppler_bin: 31
target_idx: 19
posX: -0.658416569233
posY: 1.77853226662
posZ: 0.516027808189
velX: -0.0910034403205
velY: 0.0866277590394
velZ: -0.199321448803
accX: 0.0
accY: 0.0
accZ: 0.0
---
header: 
  seq: 72929
  stamp: 
    secs: 1596523690
    nsecs: 153503610
  frame_id: "node1_radarinterface_radarscan"
range: 1.71979725361
angle: -0.320685774088
elev: 0.131402149796
doppler: 0.0
snr: 190
noise: 428
frame_num: 8485
point_id: 0
x: -0.537436664104
y: 1.61805081367
z: 0.225335285068
doppler_bin: 32
target_idx: 19
posX: -0.643797516823
posY: 1.77106046677
posZ: 0.490601480007
velX: -0.0130325108767
velY: 0.0559010244906
velZ: -0.289482682943
accX: 0.0
accY: 0.0
accZ: 0.0
---
header: 
  seq: 72930
  stamp: 
    secs: 1596523690
    nsecs: 153598824
  frame_id: "node1_radarinterface_radarscan"
range: 1.95431506634
angle: -0.353611052036
elev: 0.121138125658
doppler: 0.0
snr: 230
noise: 427
frame_num: 8485
point_id: 3
x: -0.671795845032
y: 1.81996285915
z: 0.23616348207
doppler_bin: 32
target_idx: 19
posX: -0.643797516823
posY: 1.77106046677
posZ: 0.490601480007
velX: -0.0130325108767
velY: 0.0559010244906
velZ: -0.289482682943
accX: 0.0
accY: 0.0
accZ: 0.0
---
header: 
  seq: 72931
  stamp: 
    secs: 1596523690
    nsecs: 153660082
  frame_id: "node1_radarinterface_radarscan"
range: 1.79796981812
angle: -0.364230573177
elev: 0.265485435724
doppler: 0.0795030742884
snr: 313
noise: 400
frame_num: 8485
point_id: 6
x: -0.618052124977
y: 1.62116062641
z: 0.471747249365
doppler_bin: 33
target_idx: 19
posX: -0.643797516823
posY: 1.77106046677
posZ: 0.490601480007
velX: -0.0130325108767
velY: 0.0559010244906
velZ: -0.289482682943
accX: 0.0
accY: 0.0
accZ: 0.0
---
header: 
  seq: 72932
  stamp: 
    secs: 1596523690
    nsecs: 153680982
  frame_id: "node1_radarinterface_radarscan"
range: 2.03248763084
angle: -0.359786242247
elev: 0.478694438934
doppler: 0.0795030742884
snr: 223
noise: 412
frame_num: 8485
point_id: 9
x: -0.63515239954
y: 1.68852186203
z: 0.936205983162
doppler_bin: 33
target_idx: 19
posX: -0.643797516823
posY: 1.77106046677
posZ: 0.490601480007
velX: -0.0130325108767
velY: 0.0559010244906
velZ: -0.289482682943
accX: 0.0
accY: 0.0
accZ: 0.0
---
header: 
  seq: 72933
  stamp: 
    secs: 1596523690
    nsecs: 153706115
  frame_id: "node1_radarinterface_radarscan"
range: 1.79796981812
angle: -0.372581928968
elev: 0.335297197104
doppler: 0.159006148577
snr: 255
noise: 376
frame_num: 8485
point_id: 11
x: -0.618052124977
y: 1.58135724068
z: 0.591621637344
doppler_bin: 34
target_idx: 19
posX: -0.643797516823
posY: 1.77106046677
posZ: 0.490601480007
velX: -0.0130325108767
velY: 0.0559010244906
velZ: -0.289482682943
accX: 0.0
accY: 0.0
accZ: 0.0
---
header: 
  seq: 72934
  stamp: 
    secs: 1596523690
    nsecs: 153735369
  frame_id: "node1_radarinterface_radarscan"
range: 1.87614250183
angle: -0.323158979416
elev: 0.178816869855
doppler: -0.159006148577
snr: 307
noise: 407
frame_num: 8485
point_id: 25
x: -0.586294531822
y: 1.75066077709
z: 0.333700895309
doppler_bin: 30
target_idx: 19
posX: -0.643797516823
posY: 1.77106046677
posZ: 0.490601480007
velX: -0.0130325108767
velY: 0.0559010244906
velZ: -0.289482682943
accX: 0.0
accY: 0.0
accZ: 0.0
---
header: 
  seq: 72935
  stamp: 
    secs: 1596523690
    nsecs: 153808482
  frame_id: "node1_radarinterface_radarscan"
range: 1.79796981812
angle: -0.323283612728
elev: 0.180863216519
doppler: -0.0795030742884
snr: 335
noise: 436
frame_num: 8485
point_id: 30
x: -0.561865568161
y: 1.67702245712
z: 0.323416620493
doppler_bin: 31
target_idx: 19
posX: -0.643797516823
posY: 1.77106046677
posZ: 0.490601480007
velX: -0.0130325108767
velY: 0.0559010244906
velZ: -0.289482682943
accX: 0.0
accY: 0.0
accZ: 0.0
---
header: 
  seq: 72936
  stamp: 
    secs: 1596523690
    nsecs: 253109795
  frame_id: "node1_radarinterface_radarscan"
range: 1.6416246891
angle: -0.292272567749
elev: 0.218955844641
doppler: 0.0
snr: 127
noise: 381
frame_num: 8486
point_id: 0
x: -0.461706966162
y: 1.53447401524
z: 0.356578141451
doppler_bin: 32
target_idx: 19
posX: -0.642154276371
posY: 1.76241147518
posZ: 0.480583012104
velX: -0.00500748492777
velY: 0.0457400791347
velZ: -0.304849296808
accX: 0.0
accY: 0.0
accZ: 0.0
---
header: 
  seq: 72937
  stamp: 
    secs: 1596523690
    nsecs: 253218344
  frame_id: "node1_radarinterface_radarscan"
range: 2.11066031456
angle: -0.329982817173
elev: 0.519668579102
doppler: 0.0
snr: 155
noise: 424
frame_num: 8486
point_id: 3
x: -0.593623220921
y: 1.73317778111
z: 1.04813802242
doppler_bin: 32
target_idx: 19
posX: -0.642154276371
posY: 1.76241147518
posZ: 0.480583012104
velX: -0.00500748492777
velY: 0.0457400791347
velZ: -0.304849296808
accX: 0.0
accY: 0.0
accZ: 0.0
---
header: 
  seq: 72938
  stamp: 
    secs: 1596523690
    nsecs: 253279404
  frame_id: "node1_radarinterface_radarscan"
range: 1.87614250183
angle: -0.355039000511
elev: 0.149488061666
doppler: 0.0795030742884
snr: 347
noise: 393
frame_num: 8486
point_id: 6
x: -0.644923985004
y: 1.73951423168
z: 0.279417514801
doppler_bin: 33
target_idx: 19
posX: -0.642154276371
posY: 1.76241147518
posZ: 0.480583012104
velX: -0.00500748492777
velY: 0.0457400791347
velZ: -0.304849296808
accX: 0.0
accY: 0.0
accZ: 0.0
---
header: 
  seq: 72939
  stamp: 
    secs: 1596523690
    nsecs: 253304768
  frame_id: "node1_radarinterface_radarscan"
range: 2.11066031456
angle: -0.329168945551
elev: 0.515489399433
doppler: 0.0795030742884
snr: 190
noise: 447
frame_num: 8486
point_id: 9
x: -0.593623220921
y: 1.73779034615
z: 1.04047262669
doppler_bin: 33
target_idx: 19
posX: -0.642154276371
posY: 1.76241147518
posZ: 0.480583012104
velX: -0.00500748492777
velY: 0.0457400791347
velZ: -0.304849296808
accX: 0.0
accY: 0.0
accZ: 0.0
---
header: 
  seq: 72940
  stamp: 
    secs: 1596523690
    nsecs: 253332605
  frame_id: "node1_radarinterface_radarscan"
range: 1.79796981812
angle: -0.354517966509
elev: 0.139833554626
doppler: 0.159006148577
snr: 275
noise: 371
frame_num: 8486
point_id: 11
x: -0.618052124977
y: 1.66970288754
z: 0.250597983599
doppler_bin: 34
target_idx: 19
posX: -0.642154276371
posY: 1.76241147518
posZ: 0.480583012104
velX: -0.00500748492777
velY: 0.0457400791347
velZ: -0.304849296808
accX: 0.0
accY: 0.0
accZ: 0.0
---
header: 
  seq: 72941
  stamp: 
    secs: 1596523690
    nsecs: 253367783
  frame_id: "node1_radarinterface_radarscan"
range: 2.11066031456
angle: -0.371009856462
elev: 0.531724452972
doppler: 0.159006148577
snr: 187
noise: 409
frame_num: 8486
point_id: 14
x: -0.659581363201
y: 1.69547128677
z: 1.07014799118
doppler_bin: 34
target_idx: 19
posX: -0.642154276371
posY: 1.76241147518
posZ: 0.480583012104
velX: -0.00500748492777
velY: 0.0457400791347
velZ: -0.304849296808
accX: 0.0
accY: 0.0
accZ: 0.0
---
header: 
  seq: 72942
  stamp: 
    secs: 1596523690
    nsecs: 253436866
  frame_id: "node1_radarinterface_radarscan"
range: 2.26700544357
angle: -0.472479254007
elev: 0.602355718613
doppler: 0.238509222865
snr: 159
noise: 438
frame_num: 8486
point_id: 19
x: -0.85012704134
y: 1.66336452961
z: 1.28445160389
doppler_bin: 35
target_idx: 19
posX: -0.642154276371
posY: 1.76241147518
posZ: 0.480583012104
velX: -0.00500748492777
velY: 0.0457400791347
velZ: -0.304849296808
accX: 0.0
accY: 0.0
accZ: 0.0
---
header: 
  seq: 72943
  stamp: 
    secs: 1596523690
    nsecs: 253453218
  frame_id: "node1_radarinterface_radarscan"
range: 1.71979725361
angle: -0.362451344728
elev: 0.247649148107
doppler: -0.159006148577
snr: 284
noise: 363
frame_num: 8486
point_id: 44
x: -0.591180324554
y: 1.55900299549
z: 0.421566188335
doppler_bin: 30
target_idx: 19
posX: -0.642154276371
posY: 1.76241147518
posZ: 0.480583012104
velX: -0.00500748492777
velY: 0.0457400791347
velZ: -0.304849296808
accX: 0.0
accY: 0.0
accZ: 0.0
---
header: 
  seq: 72944
  stamp: 
    secs: 1596523690
    nsecs: 253467432
  frame_id: "node1_radarinterface_radarscan"
range: 1.87614250183
angle: -0.318564206362
elev: 0.0670291185379
doppler: -0.0795030742884
snr: 337
noise: 385
frame_num: 8486
point_id: 49
x: -0.586294531822
y: 1.7777453661
z: 0.12566202879
doppler_bin: 31
target_idx: 19
posX: -0.642154276371
posY: 1.76241147518
posZ: 0.480583012104
velX: -0.00500748492777
velY: 0.0457400791347
velZ: -0.304849296808
accX: 0.0
accY: 0.0
accZ: 0.0
---
header: 
  seq: 72945
  stamp: 
    secs: 1596523690
    nsecs: 253479808
  frame_id: "node1_radarinterface_radarscan"
range: 1.95431506634
angle: -0.285272240639
elev: 0.0346279889345
doppler: -0.0795030742884
snr: 275
noise: 393
frame_num: 8486
point_id: 50
x: -0.54965108633
y: 1.87420737743
z: 0.0676604732871
doppler_bin: 31
target_idx: 19
posX: -0.642154276371
posY: 1.76241147518
posZ: 0.480583012104
velX: -0.00500748492777
velY: 0.0457400791347
velZ: -0.304849296808
accX: 0.0
accY: 0.0
accZ: 0.0
---
header: 
  seq: 72946
  stamp: 
    secs: 1596523690
    nsecs: 354114108
  frame_id: "node1_radarinterface_radarscan"
range: 1.71979725361
angle: -0.327461838722
elev: 0.238976284862
doppler: 0.0
snr: 215
noise: 383
frame_num: 8487
point_id: 0
x: -0.537436664104
y: 1.58213222027
z: 0.407089978456
doppler_bin: 32
target_idx: 19
posX: -0.619506418705
posY: 1.75327241421
posZ: 0.479605466127
velX: 0.0713542625308
velY: 0.0406741201878
velZ: -0.27892935276
accX: 0.0
accY: 0.0
accZ: 0.0
---
header: 
  seq: 72947
  stamp: 
    secs: 1596523690
    nsecs: 354280373
  frame_id: "node1_radarinterface_radarscan"
range: 1.71979725361
angle: -0.330350279808
elev: 0.271413207054
doppler: 0.0795030742884
snr: 300
noise: 393
frame_num: 8487
point_id: 6
x: -0.537436664104
y: 1.56725311279
z: 0.461065918207
doppler_bin: 33
target_idx: 19
posX: -0.619506418705
posY: 1.75327241421
posZ: 0.479605466127
velX: 0.0713542625308
velY: 0.0406741201878
velZ: -0.27892935276
accX: 0.0
accY: 0.0
accZ: 0.0
---
header: 
  seq: 72948
  stamp: 
    secs: 1596523690
    nsecs: 354315286
  frame_id: "node1_radarinterface_radarscan"
range: 1.95431506634
angle: -0.355564504862
elev: 0.158608704805
doppler: 0.0795030742884
snr: 254
noise: 421
frame_num: 8487
point_id: 9
x: -0.671795845032
y: 1.80907678604
z: 0.308673381805
doppler_bin: 33
target_idx: 19
posX: -0.619506418705
posY: 1.75327241421
posZ: 0.479605466127
velX: 0.0713542625308
velY: 0.0406741201878
velZ: -0.27892935276
accX: 0.0
accY: 0.0
accZ: 0.0
---
header: 
  seq: 72949
  stamp: 
    secs: 1596523690
    nsecs: 354347473
  frame_id: "node1_radarinterface_radarscan"
range: 2.11066031456
angle: -0.294027537107
elev: 0.530337572098
doppler: 0.0795030742884
snr: 138
noise: 475
frame_num: 8487
point_id: 11
x: -0.52766507864
y: 1.74259459972
z: 1.06762385368
doppler_bin: 33
target_idx: 19
posX: -0.619506418705
posY: 1.75327241421
posZ: 0.479605466127
velX: 0.0713542625308
velY: 0.0406741201878
velZ: -0.27892935276
accX: 0.0
accY: 0.0
accZ: 0.0
---
header: 
  seq: 72950
  stamp: 
    secs: 1596523690
    nsecs: 354376322
  frame_id: "node1_radarinterface_radarscan"
range: 2.11066031456
angle: -0.300943434238
elev: 0.567227244377
doppler: 0.159006148577
snr: 147
noise: 410
frame_num: 8487
point_id: 14
x: -0.52766507864
y: 1.70011484623
z: 1.13404846191
doppler_bin: 34
target_idx: 19
posX: -0.619506418705
posY: 1.75327241421
posZ: 0.479605466127
velX: 0.0713542625308
velY: 0.0406741201878
velZ: -0.27892935276
accX: 0.0
accY: 0.0
accZ: 0.0
---
header: 
  seq: 72951
  stamp: 
    secs: 1596523690
    nsecs: 354405825
  frame_id: "node1_radarinterface_radarscan"
range: 1.71979725361
angle: -0.295376628637
elev: 0.260884702206
doppler: -0.159006148577
snr: 238
noise: 371
frame_num: 8487
point_id: 22
x: -0.48369294405
y: 1.58964323997
z: 0.443596631289
doppler_bin: 30
target_idx: 19
posX: -0.619506418705
posY: 1.75327241421
posZ: 0.479605466127
velX: 0.0713542625308
velY: 0.0406741201878
velZ: -0.27892935276
accX: 0.0
accY: 0.0
accZ: 0.0
---
header: 
  seq: 72952
  stamp: 
    secs: 1596523690
    nsecs: 354484652
  frame_id: "node1_radarinterface_radarscan"
range: 1.6416246891
angle: -0.336462259293
elev: 0.328460663557
doppler: -0.0795030742884
snr: 175
noise: 366
frame_num: 8487
point_id: 25
x: -0.513007700443
y: 1.46673619747
z: 0.529565751553
doppler_bin: 31
target_idx: 19
posX: -0.619506418705
posY: 1.75327241421
posZ: 0.479605466127
velX: 0.0713542625308
velY: 0.0406741201878
velZ: -0.27892935276
accX: 0.0
accY: 0.0
accZ: 0.0
---
header: 
  seq: 72953
  stamp: 
    secs: 1596523690
    nsecs: 450754016
  frame_id: "node1_radarinterface_radarscan"
range: 1.79796981812
angle: -0.327567875385
elev: 0.240253940225
doppler: 0.0795030742884
snr: 351
noise: 439
frame_num: 8488
point_id: 3
x: -0.561865568161
y: 1.65347146988
z: 0.427825629711
doppler_bin: 33
target_idx: 19
posX: -0.628266572952
posY: 1.72616672516
posZ: 0.474419116974
velX: 0.0306713357568
velY: -0.0595776438713
velZ: -0.262035936117
accX: 0.0
accY: 0.0
accZ: 0.0
---
header: 
  seq: 72954
  stamp: 
    secs: 1596523690
    nsecs: 450846407
  frame_id: "node1_radarinterface_radarscan"
range: 1.87614250183
angle: -0.366310745478
elev: 0.284754306078
doppler: 0.159006148577
snr: 327
noise: 394
frame_num: 8488
point_id: 9
x: -0.644923985004
y: 1.68113148212
z: 0.527049064636
doppler_bin: 34
target_idx: 19
posX: -0.628266572952
posY: 1.72616672516
posZ: 0.474419116974
velX: 0.0306713357568
velY: -0.0595776438713
velZ: -0.262035936117
accX: 0.0
accY: 0.0
accZ: 0.0
---
header: 
  seq: 72955
  stamp: 
    secs: 1596523690
    nsecs: 450860983
  frame_id: "node1_radarinterface_radarscan"
range: 1.79796981812
angle: -0.519234240055
elev: 0.334269672632
doppler: -1.03354001045
snr: 281
noise: 359
frame_num: 8488
point_id: 11
x: -0.842798352242
y: 1.47459542751
z: 0.589876770973
doppler_bin: 19
target_idx: 19
posX: -0.628266572952
posY: 1.72616672516
posZ: 0.474419116974
velX: 0.0306713357568
velY: -0.0595776438713
velZ: -0.262035936117
accX: 0.0
accY: 0.0
accZ: 0.0
---
header: 
  seq: 72956
  stamp: 
    secs: 1596523690
    nsecs: 450881408
  frame_id: "node1_radarinterface_radarscan"
range: 2.5015232563
angle: -0.0643341392279
elev: 0.236513152719
doppler: -0.55652153492
snr: 152
noise: 434
frame_num: 8488
point_id: 14
x: -0.156345203519
y: 2.42685222626
z: 0.586142599583
doppler_bin: 25
target_idx: 19
posX: -0.628266572952
posY: 1.72616672516
posZ: 0.474419116974
velX: 0.0306713357568
velY: -0.0595776438713
velZ: -0.262035936117
accX: 0.0
accY: 0.0
accZ: 0.0
---
header: 
  seq: 72957
  stamp: 
    secs: 1596523690
    nsecs: 450901927
  frame_id: "node1_radarinterface_radarscan"
range: 1.71979725361
angle: -0.330274105072
elev: 0.270613878965
doppler: -0.0795030742884
snr: 313
noise: 401
frame_num: 8488
point_id: 36
x: -0.537436664104
y: 1.56764233112
z: 0.459741413593
doppler_bin: 31
target_idx: 19
posX: -0.628266572952
posY: 1.72616672516
posZ: 0.474419116974
velX: 0.0306713357568
velY: -0.0595776438713
velZ: -0.262035936117
accX: 0.0
accY: 0.0
accZ: 0.0
---
header: 
  seq: 72958
  stamp: 
    secs: 1596523690
    nsecs: 552435130
  frame_id: "node1_radarinterface_radarscan"
range: 1.71979725361
angle: -0.323313415051
elev: 0.18134893477
doppler: 0.0
snr: 217
noise: 436
frame_num: 8489
point_id: 0
x: -0.537436664104
y: 1.60394978523
z: 0.310176700354
doppler_bin: 32
target_idx: 19
posX: -0.630535781384
posY: 1.73141729832
posZ: 0.449061095715
velX: 0.0129369478673
velY: -0.00770825147629
velZ: -0.296276062727
accX: 0.0
accY: 0.0
accZ: 0.0
---
header: 
  seq: 72959
  stamp: 
    secs: 1596523690
    nsecs: 552523237
  frame_id: "node1_radarinterface_radarscan"
range: 1.95431506634
angle: -0.356037139893
elev: 0.166367247701
doppler: 0.0
snr: 269
noise: 443
frame_num: 8489
point_id: 3
x: -0.671795785427
y: 1.80645990372
z: 0.323636233807
doppler_bin: 32
target_idx: 19
posX: -0.630535781384
posY: 1.73141729832
posZ: 0.449061095715
velX: 0.0129369478673
velY: -0.00770825147629
velZ: -0.296276062727
accX: 0.0
accY: 0.0
accZ: 0.0
---
header: 
  seq: 72960
  stamp: 
    secs: 1596523690
    nsecs: 552559638
  frame_id: "node1_radarinterface_radarscan"
range: 1.79796981812
angle: -0.322470992804
elev: 0.167042687535
doppler: 0.0795030742884
snr: 316
noise: 474
frame_num: 8489
point_id: 11
x: -0.561865568161
y: 1.68155753613
z: 0.298942923546
doppler_bin: 33
target_idx: 19
posX: -0.630535781384
posY: 1.73141729832
posZ: 0.449061095715
velX: 0.0129369478673
velY: -0.00770825147629
velZ: -0.296276062727
accX: 0.0
accY: 0.0
accZ: 0.0
---
header: 
  seq: 72961
  stamp: 
    secs: 1596523690
    nsecs: 552646244
  frame_id: "node1_radarinterface_radarscan"
range: 2.03248763084
angle: -0.352378994226
elev: 0.0895075201988
doppler: 0.0795030742884
snr: 140
noise: 489
frame_num: 8489
point_id: 14
x: -0.698667645454
y: 1.89996373653
z: 0.181680113077
doppler_bin: 33
target_idx: 19
posX: -0.630535781384
posY: 1.73141729832
posZ: 0.449061095715
velX: 0.0129369478673
velY: -0.00770825147629
velZ: -0.296276062727
accX: 0.0
accY: 0.0
accZ: 0.0
---
header: 
  seq: 72962
  stamp: 
    secs: 1596523690
    nsecs: 552671291
  frame_id: "node1_radarinterface_radarscan"
range: 1.71979725361
angle: -0.325693964958
elev: 0.216453835368
doppler: 0.159006148577
snr: 230
noise: 408
frame_num: 8489
point_id: 20
x: -0.537436664104
y: 1.59136426449
z: 0.369356662035
doppler_bin: 34
target_idx: 19
posX: -0.630535781384
posY: 1.73141729832
posZ: 0.449061095715
velX: 0.0129369478673
velY: -0.00770825147629
velZ: -0.296276062727
accX: 0.0
accY: 0.0
accZ: 0.0
---
header: 
  seq: 72963
  stamp: 
    secs: 1596523690
    nsecs: 552691144
  frame_id: "node1_radarinterface_radarscan"
range: 1.79796981812
angle: -0.324965506792
elev: 0.206391826272
doppler: 0.159006148577
snr: 311
noise: 416
frame_num: 8489
point_id: 21
x: -0.561865568161
y: 1.66770553589
z: 0.368457317352
doppler_bin: 34
target_idx: 19
posX: -0.630535781384
posY: 1.73141729832
posZ: 0.449061095715
velX: 0.0129369478673
velY: -0.00770825147629
velZ: -0.296276062727
accX: 0.0
accY: 0.0
accZ: 0.0
---
header: 
  seq: 72964
  stamp: 
    secs: 1596523690
    nsecs: 552712085
  frame_id: "node1_radarinterface_radarscan"
range: 1.87614250183
angle: -0.324411392212
elev: 0.198369219899
doppler: 0.159006148577
snr: 321
noise: 423
frame_num: 8489
point_id: 22
x: -0.586294531822
y: 1.74340677261
z: 0.369732886553
doppler_bin: 34
target_idx: 19
posX: -0.630535781384
posY: 1.73141729832
posZ: 0.449061095715
velX: 0.0129369478673
velY: -0.00770825147629
velZ: -0.296276062727
accX: 0.0
accY: 0.0
accZ: 0.0
---
header: 
  seq: 72965
  stamp: 
    secs: 1596523690
    nsecs: 552737859
  frame_id: "node1_radarinterface_radarscan"
range: 1.87614250183
angle: -0.456207603216
elev: 0.397195219994
doppler: -0.159006148577
snr: 337
noise: 385
frame_num: 8489
point_id: 33
x: -0.762182891369
y: 1.55314779282
z: 0.725754678249
doppler_bin: 30
target_idx: 19
posX: -0.630535781384
posY: 1.73141729832
posZ: 0.449061095715
velX: 0.0129369478673
velY: -0.00770825147629
velZ: -0.296276062727
accX: 0.0
accY: 0.0
accZ: 0.0
---
header: 
  seq: 72966
  stamp: 
    secs: 1596523690
    nsecs: 552781336
  frame_id: "node1_radarinterface_radarscan"
range: 1.95431506634
angle: -0.457360059023
elev: 0.402742087841
doppler: -0.159006148577
snr: 300
noise: 384
frame_num: 8489
point_id: 34
x: -0.793940544128
y: 1.61315894127
z: 0.765979170799
doppler_bin: 30
target_idx: 19
posX: -0.630535781384
posY: 1.73141729832
posZ: 0.449061095715
velX: 0.0129369478673
velY: -0.00770825147629
velZ: -0.296276062727
accX: 0.0
accY: 0.0
accZ: 0.0
---
header: 
  seq: 72967
  stamp: 
    secs: 1596523690
    nsecs: 552902083
  frame_id: "node1_radarinterface_radarscan"
range: 1.79796981812
angle: -0.408836632967
elev: 0.338372141123
doppler: -0.0795030742884
snr: 288
noise: 426
frame_num: 8489
point_id: 40
x: -0.674238681793
y: 1.5562390089
z: 0.596839666367
doppler_bin: 31
target_idx: 19
posX: -0.630535781384
posY: 1.73141729832
posZ: 0.449061095715
velX: 0.0129369478673
velY: -0.00770825147629
velZ: -0.296276062727
accX: 0.0
accY: 0.0
accZ: 0.0
---
header: 
  seq: 72968
  stamp: 
    secs: 1596523690
    nsecs: 552937182
  frame_id: "node1_radarinterface_radarscan"
range: 2.03248763084
angle: -0.378629237413
elev: 0.37654414773
doppler: -0.0795030742884
snr: 164
noise: 436
frame_num: 8489
point_id: 43
x: -0.698667645454
y: 1.75622224808
z: 0.747363865376
doppler_bin: 31
target_idx: 19
posX: -0.630535781384
posY: 1.73141729832
posZ: 0.449061095715
velX: 0.0129369478673
velY: -0.00770825147629
velZ: -0.296276062727
accX: 0.0
accY: 0.0
accZ: 0.0
---
header: 
  seq: 72969
  stamp: 
    secs: 1596523690
    nsecs: 651974313
  frame_id: "node1_radarinterface_radarscan"
range: 1.71979725361
angle: -0.327901691198
elev: 0.244227513671
doppler: 0.0
snr: 240
noise: 437
frame_num: 8490
point_id: 3
x: -0.5374366045
y: 1.57984995842
z: 0.415858715773
doppler_bin: 32
target_idx: 19
posX: -0.606999456882
posY: 1.72131943703
posZ: 0.470767259598
velX: 0.0671929121017
velY: 0.0329613611102
velZ: -0.171529576182
accX: 0.0
accY: 0.0
accZ: 0.0
---
header: 
  seq: 72970
  stamp: 
    secs: 1596523690
    nsecs: 652067068
  frame_id: "node1_radarinterface_radarscan"
range: 1.6416246891
angle: -0.330643475056
elev: 0.274466305971
doppler: 0.0795030742884
snr: 117
noise: 442
frame_num: 8490
point_id: 11
x: -0.513007700443
y: 1.49458611012
z: 0.444934874773
doppler_bin: 33
target_idx: 19
posX: -0.606999456882
posY: 1.72131943703
posZ: 0.470767259598
velX: 0.0671929121017
velY: 0.0329613611102
velZ: -0.171529576182
accX: 0.0
accY: 0.0
accZ: 0.0
---
header: 
  seq: 72971
  stamp: 
    secs: 1596523690
    nsecs: 652163518
  frame_id: "node1_radarinterface_radarscan"
range: 1.87614250183
angle: -0.340042859316
elev: 0.356986224651
doppler: 0.0795030742884
snr: 264
noise: 484
frame_num: 8490
point_id: 14
x: -0.586294531822
y: 1.65720534325
z: 0.655621826649
doppler_bin: 33
target_idx: 19
posX: -0.606999456882
posY: 1.72131943703
posZ: 0.470767259598
velX: 0.0671929121017
velY: 0.0329613611102
velZ: -0.171529576182
accX: 0.0
accY: 0.0
accZ: 0.0
---
header: 
  seq: 72972
  stamp: 
    secs: 1596523690
    nsecs: 652190411
  frame_id: "node1_radarinterface_radarscan"
range: 1.71979725361
angle: -0.304350346327
elev: 0.352473825216
doppler: 0.159006148577
snr: 225
noise: 413
frame_num: 8490
point_id: 21
x: -0.483692973852
y: 1.53988730907
z: 0.593709468842
doppler_bin: 34
target_idx: 19
posX: -0.606999456882
posY: 1.72131943703
posZ: 0.470767259598
velX: 0.0671929121017
velY: 0.0329613611102
velZ: -0.171529576182
accX: 0.0
accY: 0.0
accZ: 0.0
---
header: 
  seq: 72973
  stamp: 
    secs: 1596523690
    nsecs: 652207926
  frame_id: "node1_radarinterface_radarscan"
range: 1.79796981812
angle: -0.341777861118
elev: 0.369845658541
doppler: 0.159006148577
snr: 300
noise: 421
frame_num: 8490
point_id: 22
x: -0.561865568161
y: 1.57943439484
z: 0.64991492033
doppler_bin: 34
target_idx: 19
posX: -0.606999456882
posY: 1.72131943703
posZ: 0.470767259598
velX: 0.0671929121017
velY: 0.0329613611102
velZ: -0.171529576182
accX: 0.0
accY: 0.0
accZ: 0.0
---
header: 
  seq: 72974
  stamp: 
    secs: 1596523690
    nsecs: 652233542
  frame_id: "node1_radarinterface_radarscan"
range: 1.95431506634
angle: -0.462770134211
elev: 0.427512377501
doppler: 0.238509222865
snr: 285
noise: 390
frame_num: 8490
point_id: 25
x: -0.793940484524
y: 1.59137046337
z: 0.810275375843
doppler_bin: 35
target_idx: 19
posX: -0.606999456882
posY: 1.72131943703
posZ: 0.470767259598
velX: 0.0671929121017
velY: 0.0329613611102
velZ: -0.171529576182
accX: 0.0
accY: 0.0
accZ: 0.0
---
header: 
  seq: 72975
  stamp: 
    secs: 1596523690
    nsecs: 652252850
  frame_id: "node1_radarinterface_radarscan"
range: 1.6416246891
angle: -0.292546540499
elev: 0.223007112741
doppler: -0.0795030742884
snr: 157
noise: 405
frame_num: 8490
point_id: 33
x: -0.461706936359
y: 1.5329515934
z: 0.363067090511
doppler_bin: 31
target_idx: 19
posX: -0.606999456882
posY: 1.72131943703
posZ: 0.470767259598
velX: 0.0671929121017
velY: 0.0329613611102
velZ: -0.171529576182
accX: 0.0
accY: 0.0
accZ: 0.0
---
header: 
  seq: 72976
  stamp: 
    secs: 1596523690
    nsecs: 652293824
  frame_id: "node1_radarinterface_radarscan"
range: 1.71979725361
angle: -0.324269801378
elev: 0.196262478828
doppler: -0.0795030742884
snr: 279
noise: 419
frame_num: 8490
point_id: 34
x: -0.537436664104
y: 1.59887218475
z: 0.335368961096
doppler_bin: 31
target_idx: 19
posX: -0.606999456882
posY: 1.72131943703
posZ: 0.470767259598
velX: 0.0671929121017
velY: 0.0329613611102
velZ: -0.171529576182
accX: 0.0
accY: 0.0
accZ: 0.0
---
header: 
  seq: 72977
  stamp: 
    secs: 1596523690
    nsecs: 753057688
  frame_id: "node1_radarinterface_radarscan"
range: 1.87614250183
angle: -0.320128679276
elev: 0.118010364473
doppler: 0.0
snr: 272
noise: 475
frame_num: 8491
point_id: 6
x: -0.586294531822
y: 1.76843905449
z: 0.220890715718
doppler_bin: 32
target_idx: 19
posX: -0.629006445408
posY: 1.73435854912
posZ: 0.368887871504
velX: -0.0292433574796
velY: 0.103585101664
velZ: -0.436988025904
accX: 0.0
accY: 0.0
accZ: 0.0
---
header: 
  seq: 72978
  stamp: 
    secs: 1596523690
    nsecs: 753128082
  frame_id: "node1_radarinterface_radarscan"
range: 1.71979725361
angle: -0.261365443468
elev: 0.255675047636
doppler: 0.0795030742884
snr: 185
noise: 487
frame_num: 8491
point_id: 11
x: -0.429949313402
y: 1.60738241673
z: 0.434934258461
doppler_bin: 33
target_idx: 19
posX: -0.629006445408
posY: 1.73435854912
posZ: 0.368887871504
velX: -0.0292433574796
velY: 0.103585101664
velZ: -0.436988025904
accX: 0.0
accY: 0.0
accZ: 0.0
---
header: 
  seq: 72979
  stamp: 
    secs: 1596523690
    nsecs: 753142120
  frame_id: "node1_radarinterface_radarscan"
range: 1.87614250183
angle: -0.424771845341
elev: 0.168880447745
doppler: 0.55652153492
snr: 332
noise: 369
frame_num: 8491
point_id: 17
x: -0.762182891369
y: 1.68509602547
z: 0.315339833498
doppler_bin: 39
target_idx: 19
posX: -0.629006445408
posY: 1.73435854912
posZ: 0.368887871504
velX: -0.0292433574796
velY: 0.103585101664
velZ: -0.436988025904
accX: 0.0
accY: 0.0
accZ: 0.0
---
header: 
  seq: 72980
  stamp: 
    secs: 1596523690
    nsecs: 753157045
  frame_id: "node1_radarinterface_radarscan"
range: 2.03248763084
angle: -0.459757119417
elev: 0.167774230242
doppler: 0.55652153492
snr: 308
noise: 370
frame_num: 8491
point_id: 19
x: -0.889213263988
y: 1.79585969448
z: 0.33940154314
doppler_bin: 39
target_idx: 19
posX: -0.629006445408
posY: 1.73435854912
posZ: 0.368887871504
velX: -0.0292433574796
velY: 0.103585101664
velZ: -0.436988025904
accX: 0.0
accY: 0.0
accZ: 0.0
---
header: 
  seq: 72981
  stamp: 
    secs: 1596523690
    nsecs: 753171787
  frame_id: "node1_radarinterface_radarscan"
range: 2.03248763084
angle: -0.461384028196
elev: 0.186111226678
doppler: 0.636024594307
snr: 287
noise: 368
frame_num: 8491
point_id: 20
x: -0.889213323593
y: 1.78853654861
z: 0.376088827848
doppler_bin: 40
target_idx: 19
posX: -0.629006445408
posY: 1.73435854912
posZ: 0.368887871504
velX: -0.0292433574796
velY: 0.103585101664
velZ: -0.436988025904
accX: 0.0
accY: 0.0
accZ: 0.0
---
header: 
  seq: 72982
  stamp: 
    secs: 1596523690
    nsecs: 753186547
  frame_id: "node1_radarinterface_radarscan"
range: 1.87614250183
angle: -0.353304594755
elev: 0.114108912647
doppler: -0.159006148577
snr: 385
noise: 370
frame_num: 8491
point_id: 25
x: -0.644924044609
y: 1.74881398678
z: 0.21362029016
doppler_bin: 30
target_idx: 19
posX: -0.629006445408
posY: 1.73435854912
posZ: 0.368887871504
velX: -0.0292433574796
velY: 0.103585101664
velZ: -0.436988025904
accX: 0.0
accY: 0.0
accZ: 0.0
---
header: 
  seq: 72983
  stamp: 
    secs: 1596523690
    nsecs: 753201270
  frame_id: "node1_radarinterface_radarscan"
range: 1.71979725361
angle: -0.352908372879
elev: 0.104303687811
doppler: -0.0795030742884
snr: 343
noise: 387
frame_num: 8491
point_id: 30
x: -0.591180324554
y: 1.60503804684
z: 0.179056122899
doppler_bin: 31
target_idx: 19
posX: -0.629006445408
posY: 1.73435854912
posZ: 0.368887871504
velX: -0.0292433574796
velY: 0.103585101664
velZ: -0.436988025904
accX: 0.0
accY: 0.0
accZ: 0.0
---
header: 
  seq: 72984
  stamp: 
    secs: 1596523690
    nsecs: 753215725
  frame_id: "node1_radarinterface_radarscan"
range: 1.95431506634
angle: -0.353442639112
elev: 0.11732879281
doppler: -0.0795030742884
snr: 337
noise: 409
frame_num: 8491
point_id: 33
x: -0.671795785427
y: 1.8209066391
z: 0.228771701455
doppler_bin: 31
target_idx: 19
posX: -0.629006445408
posY: 1.73435854912
posZ: 0.368887871504
velX: -0.0292433574796
velY: 0.103585101664
velZ: -0.436988025904
accX: 0.0
accY: 0.0
accZ: 0.0
---
header: 
  seq: 72985
  stamp: 
    secs: 1596523690
    nsecs: 853527720
  frame_id: "node1_radarinterface_radarscan"
range: 1.87614250183
angle: -0.334001690149
elev: 0.306984901428
doppler: 0.0
snr: 273
noise: 474
frame_num: 8492
point_id: 6
x: -0.586294531822
y: 1.68959891796
z: 0.566943764687
doppler_bin: 32
target_idx: 19
posX: -0.589501857758
posY: 1.73368251324
posZ: 0.381800085306
velX: 0.101453579962
velY: 0.110700815916
velZ: -0.308304905891
accX: 0.0
accY: 0.0
accZ: 0.0
---
header: 
  seq: 72986
  stamp: 
    secs: 1596523690
    nsecs: 853602021
  frame_id: "node1_radarinterface_radarscan"
range: 1.71979725361
angle: -0.327863126993
elev: 0.243771880865
doppler: 0.0795030742884
snr: 199
noise: 482
frame_num: 8492
point_id: 17
x: -0.537436664104
y: 1.58004999161
z: 0.415098339319
doppler_bin: 33
target_idx: 19
posX: -0.589501857758
posY: 1.73368251324
posZ: 0.381800085306
velX: 0.101453579962
velY: 0.110700815916
velZ: -0.308304905891
accX: 0.0
accY: 0.0
accZ: 0.0
---
header: 
  seq: 72987
  stamp: 
    secs: 1596523690
    nsecs: 853614170
  frame_id: "node1_radarinterface_radarscan"
range: 1.95431506634
angle: -0.494602680206
elev: 0.398433953524
doppler: 0.0795030742884
snr: 186
noise: 510
frame_num: 8492
point_id: 19
x: -0.855012893677
y: 1.58536851406
z: 0.758226275444
doppler_bin: 33
target_idx: 19
posX: -0.589501857758
posY: 1.73368251324
posZ: 0.381800085306
velX: 0.101453579962
velY: 0.110700815916
velZ: -0.308304905891
accX: 0.0
accY: 0.0
accZ: 0.0
---
header: 
  seq: 72988
  stamp: 
    secs: 1596523690
    nsecs: 853626818
  frame_id: "node1_radarinterface_radarscan"
range: 1.71979725361
angle: -0.291613936424
elev: 0.208867758512
doppler: -0.159006148577
snr: 281
noise: 376
frame_num: 8492
point_id: 25
x: -0.483692973852
y: 1.61138987541
z: 0.356604099274
doppler_bin: 30
target_idx: 19
posX: -0.589501857758
posY: 1.73368251324
posZ: 0.381800085306
velX: 0.101453579962
velY: 0.110700815916
velZ: -0.308304905891
accX: 0.0
accY: 0.0
accZ: 0.0
---
header: 
  seq: 72989
  stamp: 
    secs: 1596523690
    nsecs: 853716074
  frame_id: "node1_radarinterface_radarscan"
range: 1.71979725361
angle: -0.292860865593
elev: 0.2275583148
doppler: -0.0795030742884
snr: 328
noise: 405
frame_num: 8492
point_id: 36
x: -0.483693003654
y: 1.60412323475
z: 0.387985318899
doppler_bin: 31
target_idx: 19
posX: -0.589501857758
posY: 1.73368251324
posZ: 0.381800085306
velX: 0.101453579962
velY: 0.110700815916
velZ: -0.308304905891
accX: 0.0
accY: 0.0
accZ: 0.0
---
header: 
  seq: 72990
  stamp: 
    secs: 1596523690
    nsecs: 853793389
  frame_id: "node1_radarinterface_radarscan"
range: 1.95431506634
angle: -0.293581068516
elev: 0.237628236413
doppler: -0.0795030742884
snr: 283
noise: 417
frame_num: 8492
point_id: 39
x: -0.549651145935
y: 1.81812882423
z: 0.460042208433
doppler_bin: 31
target_idx: 19
posX: -0.589501857758
posY: 1.73368251324
posZ: 0.381800085306
velX: 0.101453579962
velY: 0.110700815916
velZ: -0.308304905891
accX: 0.0
accY: 0.0
accZ: 0.0
---
header: 
  seq: 72991
  stamp: 
    secs: 1596523690
    nsecs: 953255769
  frame_id: "node1_radarinterface_radarscan"
range: 1.6416246891
angle: -0.292582124472
elev: 0.223527476192
doppler: 0.0795030742884
snr: 149
noise: 415
frame_num: 8493
point_id: 6
x: -0.461706966162
y: 1.53275406361
z: 0.363900125027
doppler_bin: 33
target_idx: 19
posX: -0.587710559368
posY: 1.72211623192
posZ: 0.441831469536
velX: 0.067963629961
velY: 0.0953701287508
velZ: -0.0536080598831
accX: 0.0
accY: 0.0
accZ: 0.0
---
header: 
  seq: 72992
  stamp: 
    secs: 1596523690
    nsecs: 953316559
  frame_id: "node1_radarinterface_radarscan"
range: 1.87614250183
angle: -0.229834914207
elev: 0.283073753119
doppler: 0.0795030742884
snr: 330
noise: 453
frame_num: 8493
point_id: 9
x: -0.410406202078
y: 1.75410330296
z: 0.524022340775
doppler_bin: 33
target_idx: 19
posX: -0.587710559368
posY: 1.72211623192
posZ: 0.441831469536
velX: 0.067963629961
velY: 0.0953701287508
velZ: -0.0536080598831
accX: 0.0
accY: 0.0
accZ: 0.0
---
header: 
  seq: 72993
  stamp: 
    secs: 1596523690
    nsecs: 953336013
  frame_id: "node1_radarinterface_radarscan"
range: 1.79796981812
angle: -0.231106415391
elev: 0.301095455885
doppler: 0.159006148577
snr: 361
noise: 401
frame_num: 8493
point_id: 17
x: -0.393305897713
y: 1.67143201828
z: 0.533217728138
doppler_bin: 34
target_idx: 19
posX: -0.587710559368
posY: 1.72211623192
posZ: 0.441831469536
velX: 0.067963629961
velY: 0.0953701287508
velZ: -0.0536080598831
accX: 0.0
accY: 0.0
accZ: 0.0
---
header: 
  seq: 72994
  stamp: 
    secs: 1596523690
    nsecs: 953352435
  frame_id: "node1_radarinterface_radarscan"
range: 1.71979725361
angle: -0.329190522432
elev: 0.258936196566
doppler: -0.159006148577
snr: 273
noise: 368
frame_num: 8493
point_id: 30
x: -0.537436664104
y: 1.57319712639
z: 0.440358132124
doppler_bin: 30
target_idx: 19
posX: -0.587710559368
posY: 1.72211623192
posZ: 0.441831469536
velX: 0.067963629961
velY: 0.0953701287508
velZ: -0.0536080598831
accX: 0.0
accY: 0.0
accZ: 0.0
---
header: 
  seq: 72995
  stamp: 
    secs: 1596523690
    nsecs: 953366204
  frame_id: "node1_radarinterface_radarscan"
range: 1.95431506634
angle: -0.360936582088
elev: 0.231249958277
doppler: -0.159006148577
snr: 269
noise: 380
frame_num: 8493
point_id: 33
x: -0.671795785427
y: 1.77972114086
z: 0.447918057442
doppler_bin: 30
target_idx: 19
posX: -0.587710559368
posY: 1.72211623192
posZ: 0.441831469536
velX: 0.067963629961
velY: 0.0953701287508
velZ: -0.0536080598831
accX: 0.0
accY: 0.0
accZ: 0.0
---
header: 
  seq: 72996
  stamp: 
    secs: 1596523690
    nsecs: 953415380
  frame_id: "node1_radarinterface_radarscan"
range: 1.71979725361
angle: -0.329698085785
elev: 0.264478743076
doppler: -0.0795030742884
snr: 319
noise: 399
frame_num: 8493
point_id: 36
x: -0.5374366045
y: 1.57059061527
z: 0.44956561923
doppler_bin: 31
target_idx: 19
posX: -0.587710559368
posY: 1.72211623192
posZ: 0.441831469536
velX: 0.067963629961
velY: 0.0953701287508
velZ: -0.0536080598831
accX: 0.0
accY: 0.0
accZ: 0.0
---
header: 
  seq: 72997
  stamp: 
    secs: 1596523690
    nsecs: 953426247
  frame_id: "node1_radarinterface_radarscan"
range: 1.95431506634
angle: -0.331598579884
elev: 0.284153074026
doppler: -0.0795030742884
snr: 289
noise: 422
frame_num: 8493
point_id: 39
x: -0.610723435879
y: 1.77375030518
z: 0.547881662846
doppler_bin: 31
target_idx: 19
posX: -0.587710559368
posY: 1.72211623192
posZ: 0.441831469536
velX: 0.067963629961
velY: 0.0953701287508
velZ: -0.0536080598831
accX: 0.0
accY: 0.0
accZ: 0.0
---
header: 
  seq: 72998
  stamp: 
    secs: 1596523691
    nsecs:  52477875
  frame_id: "node1_radarinterface_radarscan"
range: 1.71979725361
angle: -0.366272479296
elev: 0.284413278103
doppler: 0.0
snr: 265
noise: 417
frame_num: 8494
point_id: 0
x: -0.591180324554
y: 1.54121351242
z: 0.482565402985
doppler_bin: 32
target_idx: 19
posX: -0.601495087147
posY: 1.70272433758
posZ: 0.472264766693
velX: -0.00140387564898
velY: 0.0148025602102
velZ: 0.0669236779213
accX: 0.0
accY: 0.0
accZ: 0.0
---
header: 
  seq: 72999
  stamp: 
    secs: 1596523691
    nsecs:  52561305
  frame_id: "node1_radarinterface_radarscan"
range: 1.95431506634
angle: -0.369671344757
elev: 0.313040316105
doppler: 0.0
snr: 251
noise: 436
frame_num: 8494
point_id: 3
x: -0.671795785427
y: 1.73373317719
z: 0.601836442947
doppler_bin: 32
target_idx: 19
posX: -0.601495087147
posY: 1.70272433758
posZ: 0.472264766693
velX: -0.00140387564898
velY: 0.0148025602102
velZ: 0.0669236779213
accX: 0.0
accY: 0.0
accZ: 0.0
---
header: 
  seq: 73000
  stamp: 
    secs: 1596523691
    nsecs:  52573550
  frame_id: "node1_radarinterface_radarscan"
range: 1.71979725361
angle: -0.370424002409
elev: 0.31897431612
doppler: 0.0795030742884
snr: 245
noise: 432
frame_num: 8494
point_id: 9
x: -0.591180324554
y: 1.52228343487
z: 0.539315998554
doppler_bin: 33
target_idx: 19
posX: -0.601495087147
posY: 1.70272433758
posZ: 0.472264766693
velX: -0.00140387564898
velY: 0.0148025602102
velZ: 0.0669236779213
accX: 0.0
accY: 0.0
accZ: 0.0
---
header: 
  seq: 73001
  stamp: 
    secs: 1596523691
    nsecs:  52588971
  frame_id: "node1_radarinterface_radarscan"
range: 1.71979725361
angle: -0.363536953926
elev: 0.258696466684
doppler: -0.159006148577
snr: 298
noise: 375
frame_num: 8494
point_id: 30
x: -0.59118026495
y: 1.55391252041
z: 0.439959585667
doppler_bin: 30
target_idx: 19
posX: -0.601495087147
posY: 1.70272433758
posZ: 0.472264766693
velX: -0.00140387564898
velY: 0.0148025602102
velZ: 0.0669236779213
accX: 0.0
accY: 0.0
accZ: 0.0
---
header: 
  seq: 73002
  stamp: 
    secs: 1596523691
    nsecs:  52627584
  frame_id: "node1_radarinterface_radarscan"
range: 1.95431506634
angle: -0.368067085743
elev: 0.299926251173
doppler: -0.159006148577
snr: 285
noise: 388
frame_num: 8494
point_id: 33
x: -0.671795785427
y: 1.74202311039
z: 0.57740187645
doppler_bin: 30
target_idx: 19
posX: -0.601495087147
posY: 1.70272433758
posZ: 0.472264766693
velX: -0.00140387564898
velY: 0.0148025602102
velZ: 0.0669236779213
accX: 0.0
accY: 0.0
accZ: 0.0
---
header: 
  seq: 73003
  stamp: 
    secs: 1596523691
    nsecs:  52637494
  frame_id: "node1_radarinterface_radarscan"
range: 1.6416246891
angle: -0.327813774347
elev: 0.243187844753
doppler: -0.0795030742884
snr: 187
noise: 388
frame_num: 8494
point_id: 36
x: -0.513007700443
y: 1.50847363472
z: 0.395299762487
doppler_bin: 31
target_idx: 19
posX: -0.601495087147
posY: 1.70272433758
posZ: 0.472264766693
velX: -0.00140387564898
velY: 0.0148025602102
velZ: 0.0669236779213
accX: 0.0
accY: 0.0
accZ: 0.0
---
header: 
  seq: 73004
  stamp: 
    secs: 1596523691
    nsecs:  52647140
  frame_id: "node1_radarinterface_radarscan"
range: 1.87614250183
angle: -0.367626786232
elev: 0.296207427979
doppler: -0.0795030742884
snr: 376
noise: 435
frame_num: 8494
point_id: 39
x: -0.644923985004
y: 1.67453825474
z: 0.547636449337
doppler_bin: 31
target_idx: 19
posX: -0.601495087147
posY: 1.70272433758
posZ: 0.472264766693
velX: -0.00140387564898
velY: 0.0148025602102
velZ: 0.0669236779213
accX: 0.0
accY: 0.0
accZ: 0.0
---
header: 
  seq: 73005
  stamp: 
    secs: 1596523691
    nsecs: 152090410
  frame_id: "node1_radarinterface_radarscan"
range: 1.79796981812
angle: -0.365046650171
elev: 0.273229897022
doppler: 0.0
snr: 272
noise: 436
frame_num: 8495
point_id: 3
x: -0.618052124977
y: 1.61719441414
z: 0.485169440508
doppler_bin: 32
target_idx: 19
posX: -0.579908967018
posY: 1.70287632942
posZ: 0.515948534012
velX: 0.0623106248677
velY: 0.0227016340941
velZ: 0.206590354443
accX: 0.0
accY: 0.0
accZ: 0.0
---
header: 
  seq: 73006
  stamp: 
    secs: 1596523691
    nsecs: 152185745
  frame_id: "node1_radarinterface_radarscan"
range: 1.79796981812
angle: -0.37307241559
elev: 0.33887553215
doppler: 0.0795030742884
snr: 270
noise: 463
frame_num: 8495
point_id: 14
x: -0.618052124977
y: 1.57907235622
z: 0.597693324089
doppler_bin: 33
target_idx: 19
posX: -0.579908967018
posY: 1.70287632942
posZ: 0.515948534012
velX: 0.0623106248677
velY: 0.0227016340941
velZ: 0.206590354443
accX: 0.0
accY: 0.0
accZ: 0.0
---
header: 
  seq: 73007
  stamp: 
    secs: 1596523691
    nsecs: 152212492
  frame_id: "node1_radarinterface_radarscan"
range: 1.79796981812
angle: -0.268557071686
elev: 0.341702312231
doppler: 0.159006148577
snr: 253
noise: 437
frame_num: 8495
point_id: 19
x: -0.449492454529
y: 1.63329863548
z: 0.602484345436
doppler_bin: 34
target_idx: 19
posX: -0.579908967018
posY: 1.70287632942
posZ: 0.515948534012
velX: 0.0623106248677
velY: 0.0227016340941
velZ: 0.206590354443
accX: 0.0
accY: 0.0
accZ: 0.0
---
header: 
  seq: 73008
  stamp: 
    secs: 1596523691
    nsecs: 152251006
  frame_id: "node1_radarinterface_radarscan"
range: 2.5015232563
angle: -0.0673546791077
elev: 0.38010507822
doppler: 0.795030713081
snr: 154
noise: 407
frame_num: 8495
point_id: 21
x: -0.156345203519
y: 2.3177113533
z: 0.928110301495
doppler_bin: 42
target_idx: 19
posX: -0.579908967018
posY: 1.70287632942
posZ: 0.515948534012
velX: 0.0623106248677
velY: 0.0227016340941
velZ: 0.206590354443
accX: 0.0
accY: 0.0
accZ: 0.0
---
header: 
  seq: 73009
  stamp: 
    secs: 1596523691
    nsecs: 152286009
  frame_id: "node1_radarinterface_radarscan"
range: 2.57969594002
angle: -0.0336198173463
elev: 0.377235561609
doppler: 0.795030713081
snr: 161
noise: 412
frame_num: 8495
point_id: 22
x: -0.0806155055761
y: 2.39695334435
z: 0.950235664845
doppler_bin: 42
target_idx: 19
posX: -0.579908967018
posY: 1.70287632942
posZ: 0.515948534012
velX: 0.0623106248677
velY: 0.0227016340941
velZ: 0.206590354443
accX: 0.0
accY: 0.0
accZ: 0.0
---
header: 
  seq: 73010
  stamp: 
    secs: 1596523691
    nsecs: 152307719
  frame_id: "node1_radarinterface_radarscan"
range: 1.79796981812
angle: -0.362570375204
elev: 0.248887389898
doppler: -0.159006148577
snr: 309
noise: 375
frame_num: 8495
point_id: 25
x: -0.618052065372
y: 1.62928164005
z: 0.442886322737
doppler_bin: 30
target_idx: 19
posX: -0.579908967018
posY: 1.70287632942
posZ: 0.515948534012
velX: 0.0623106248677
velY: 0.0227016340941
velZ: 0.206590354443
accX: 0.0
accY: 0.0
accZ: 0.0
---
header: 
  seq: 73011
  stamp: 
    secs: 1596523691
    nsecs: 152327374
  frame_id: "node1_radarinterface_radarscan"
range: 1.79796981812
angle: -0.365078747272
elev: 0.27352938056
doppler: -0.0795030742884
snr: 374
noise: 408
frame_num: 8495
point_id: 30
x: -0.618052124977
y: 1.61703872681
z: 0.485687881708
doppler_bin: 31
target_idx: 19
posX: -0.579908967018
posY: 1.70287632942
posZ: 0.515948534012
velX: 0.0623106248677
velY: 0.0227016340941
velZ: 0.206590354443
accX: 0.0
accY: 0.0
accZ: 0.0
---
header: 
  seq: 73012
  stamp: 
    secs: 1596523691
    nsecs: 251774007
  frame_id: "node1_radarinterface_radarscan"
range: 1.71979725361
angle: -0.331088274717
elev: 0.279025375843
doppler: 0.0795030742884
snr: 228
noise: 456
frame_num: 8496
point_id: 9
x: -0.5374366045
y: 1.56349170208
z: 0.473664581776
doppler_bin: 33
target_idx: 19
posX: -0.577160358429
posY: 1.70854210854
posZ: 0.544594824314
velX: 0.042380861938
velY: 0.0732344016433
velZ: 0.285838723183
accX: 0.0
accY: 0.0
accZ: 0.0
---
header: 
  seq: 73013
  stamp: 
    secs: 1596523691
