header: 
  seq: 45526
  stamp: 
    secs: 1596523467
    nsecs: 244235448
  frame_id: "node1_radarinterface_radarscan"
range: 2.11066031456
angle: -0.221199393272
elev: 0.0769920349121
doppler: 0.0
snr: 204
noise: 407
frame_num: 6260
point_id: 6
x: -0.461706906557
y: 2.05313372612
z: 0.162343531847
doppler_bin: 32
target_idx: 10
posX: -0.615075230598
posY: 1.91827893257
posZ: 0.353620141745
velX: -0.0843417420983
velY: 0.0870296806097
velZ: -0.0492388010025
accX: 0.0
accY: 0.0
accZ: 0.0
---
header: 
  seq: 45527
  stamp: 
    secs: 1596523467
    nsecs: 244288444
  frame_id: "node1_radarinterface_radarscan"
range: 2.18883275986
angle: -0.222610637546
elev: 0.135598227382
doppler: 0.0
snr: 129
noise: 403
frame_num: 6260
point_id: 7
x: -0.47880718112
y: 2.11522579193
z: 0.295893132687
doppler_bin: 32
target_idx: 10
posX: -0.615075230598
posY: 1.91827893257
posZ: 0.353620141745
velX: -0.0843417420983
velY: 0.0870296806097
velZ: -0.0492388010025
accX: 0.0
accY: 0.0
accZ: 0.0
---
header: 
  seq: 45528
  stamp: 
    secs: 1596523467
    nsecs: 244442125
  frame_id: "node1_radarinterface_radarscan"
range: 1.87614250183
angle: -0.357631385326
elev: 0.190104722977
doppler: 0.0795030742884
snr: 121
noise: 502
frame_num: 6260
point_id: 14
x: -0.644923985004
y: 1.72577512264
z: 0.354519128799
doppler_bin: 33
target_idx: 10
posX: -0.615075230598
posY: 1.91827893257
posZ: 0.353620141745
velX: -0.0843417420983
velY: 0.0870296806097
velZ: -0.0492388010025
accX: 0.0
accY: 0.0
accZ: 0.0
---
header: 
  seq: 45529
  stamp: 
    secs: 1596523467
    nsecs: 244478065
  frame_id: "node1_radarinterface_radarscan"
range: 2.18883275986
angle: -0.356985419989
elev: 0.180884331465
doppler: 0.0795030742884
snr: 142
noise: 440
frame_num: 6260
point_id: 18
x: -0.7524112463
y: 2.01737737656
z: 0.393770009279
doppler_bin: 33
target_idx: 10
posX: -0.615075230598
posY: 1.91827893257
posZ: 0.353620141745
velX: -0.0843417420983
velY: 0.0870296806097
velZ: -0.0492388010025
accX: 0.0
accY: 0.0
accZ: 0.0
---
header: 
  seq: 45530
  stamp: 
    secs: 1596523467
    nsecs: 244510088
  frame_id: "node1_radarinterface_radarscan"
range: 1.87614250183
angle: -0.388531655073
elev: 0.142315998673
doppler: 0.159006148577
snr: 151
noise: 446
frame_num: 6260
point_id: 23
x: -0.703553438187
y: 1.71875286102
z: 0.266104698181
doppler_bin: 34
target_idx: 10
posX: -0.615075230598
posY: 1.91827893257
posZ: 0.353620141745
velX: -0.0843417420983
velY: 0.0870296806097
velZ: -0.0492388010025
accX: 0.0
accY: 0.0
accZ: 0.0
---
header: 
  seq: 45531
  stamp: 
    secs: 1596523467
    nsecs: 244523081
  frame_id: "node1_radarinterface_radarscan"
range: 2.03248763084
angle: -0.388153672218
elev: 0.135713100433
doppler: 0.159006148577
snr: 239
noise: 404
frame_num: 6260
point_id: 25
x: -0.762182891369
y: 1.86399149895
z: 0.274989247322
doppler_bin: 34
target_idx: 10
posX: -0.615075230598
posY: 1.91827893257
posZ: 0.353620141745
velX: -0.0843417420983
velY: 0.0870296806097
velZ: -0.0492388010025
accX: 0.0
accY: 0.0
accZ: 0.0
---
header: 
  seq: 45532
  stamp: 
    secs: 1596523467
    nsecs: 244577784
  frame_id: "node1_radarinterface_radarscan"
range: 2.18883275986
angle: -0.425281435251
elev: 0.17535713315
doppler: 0.159006148577
snr: 142
noise: 397
frame_num: 6260
point_id: 27
x: -0.889213383198
y: 1.96328020096
z: 0.381863325834
doppler_bin: 34
target_idx: 10
posX: -0.615075230598
posY: 1.91827893257
posZ: 0.353620141745
velX: -0.0843417420983
velY: 0.0870296806097
velZ: -0.0492388010025
accX: 0.0
accY: 0.0
accZ: 0.0
---
header: 
  seq: 45533
  stamp: 
    secs: 1596523467
    nsecs: 244594481
  frame_id: "node1_radarinterface_radarscan"
range: 2.03248763084
angle: -0.266539543867
elev: 0.320285052061
doppler: -0.0795030742884
snr: 186
noise: 449
frame_num: 6260
point_id: 32
x: -0.508121907711
y: 1.86100590229
z: 0.639902591705
doppler_bin: 31
target_idx: 10
posX: -0.615075230598
posY: 1.91827893257
posZ: 0.353620141745
velX: -0.0843417420983
velY: 0.0870296806097
velZ: -0.0492388010025
accX: 0.0
accY: 0.0
accZ: 0.0
---
header: 
  seq: 45534
  stamp: 
    secs: 1596523467
    nsecs: 345176680
  frame_id: "node1_radarinterface_radarscan"
range: 2.11066031456
angle: -0.329404711723
elev: 0.261291116476
doppler: 0.0
snr: 296
noise: 458
frame_num: 6261
point_id: 6
x: -0.659581363201
y: 1.92939090729
z: 0.545242786407
doppler_bin: 32
target_idx: 10
posX: -0.559778869152
posY: 1.91685402393
posZ: 0.413996040821
velX: 0.158850669861
velY: -0.0252428948879
velZ: 0.134686976671
accX: 0.0
accY: 0.0
accZ: 0.0
---
header: 
  seq: 45535
  stamp: 
    secs: 1596523467
    nsecs: 345247723
  frame_id: "node1_radarinterface_radarscan"
range: 2.18883275986
angle: -0.366951525211
elev: 0.290396034718
doppler: 0.0
snr: 241
noise: 450
frame_num: 6261
point_id: 7
x: -0.752411305904
y: 1.95756804943
z: 0.626732230186
doppler_bin: 32
target_idx: 10
posX: -0.559778869152
posY: 1.91685402393
posZ: 0.413996040821
velX: 0.158850669861
velY: -0.0252428948879
velZ: 0.134686976671
accX: 0.0
accY: 0.0
accZ: 0.0
---
header: 
  seq: 45536
  stamp: 
    secs: 1596523467
    nsecs: 345261897
  frame_id: "node1_radarinterface_radarscan"
range: 1.87614250183
angle: -0.328101694584
elev: 0.246574118733
doppler: 0.0795030742884
snr: 167
noise: 509
frame_num: 6261
point_id: 14
x: -0.586294531822
y: 1.72234296799
z: 0.457934737206
doppler_bin: 33
target_idx: 10
posX: -0.559778869152
posY: 1.91685402393
posZ: 0.413996040821
velX: 0.158850669861
velY: -0.0252428948879
velZ: 0.134686976671
accX: 0.0
accY: 0.0
accZ: 0.0
---
header: 
  seq: 45537
  stamp: 
    secs: 1596523467
    nsecs: 345273518
  frame_id: "node1_radarinterface_radarscan"
range: 2.18883275986
angle: -0.370194941759
elev: 0.317182481289
doppler: 0.0795030742884
snr: 254
noise: 475
frame_num: 6261
point_id: 18
x: -0.752411186695
y: 1.93876719475
z: 0.682676851749
doppler_bin: 33
target_idx: 10
posX: -0.559778869152
posY: 1.91685402393
posZ: 0.413996040821
velX: 0.158850669861
velY: -0.0252428948879
velZ: 0.134686976671
accX: 0.0
accY: 0.0
accZ: 0.0
---
header: 
  seq: 45538
  stamp: 
    secs: 1596523467
    nsecs: 345290839
  frame_id: "node1_radarinterface_radarscan"
range: 2.03248763084
angle: -0.262017399073
elev: 0.264816373587
doppler: 0.159006148577
snr: 336
noise: 427
frame_num: 6261
point_id: 21
x: -0.508121907711
y: 1.89468443394
z: 0.531967163086
doppler_bin: 34
target_idx: 10
posX: -0.559778869152
posY: 1.91685402393
posZ: 0.413996040821
velX: 0.158850669861
velY: -0.0252428948879
velZ: 0.134686976671
accX: 0.0
accY: 0.0
accZ: 0.0
---
header: 
  seq: 45539
  stamp: 
    secs: 1596523467
    nsecs: 345345446
  frame_id: "node1_radarinterface_radarscan"
range: 2.18883275986
angle: -0.342116326094
elev: 0.372289747
doppler: 0.159006148577
snr: 253
noise: 427
frame_num: 6261
point_id: 23
x: -0.684010207653
y: 1.92073059082
z: 0.796186327934
doppler_bin: 34
target_idx: 10
posX: -0.559778869152
posY: 1.91685402393
posZ: 0.413996040821
velX: 0.158850669861
velY: -0.0252428948879
velZ: 0.134686976671
accX: 0.0
accY: 0.0
accZ: 0.0
---
header: 
  seq: 45540
  stamp: 
    secs: 1596523467
    nsecs: 345357841
  frame_id: "node1_radarinterface_radarscan"
range: 2.11066031456
angle: -0.263849407434
elev: 0.288773566484
doppler: 0.238509222865
snr: 302
noise: 401
frame_num: 6261
point_id: 25
x: -0.52766507864
y: 1.95324730873
z: 0.601067066193
doppler_bin: 35
target_idx: 10
posX: -0.559778869152
posY: 1.91685402393
posZ: 0.413996040821
velX: 0.158850669861
velY: -0.0252428948879
velZ: 0.134686976671
accX: 0.0
accY: 0.0
accZ: 0.0
---
header: 
  seq: 45541
  stamp: 
    secs: 1596523467
    nsecs: 345375620
  frame_id: "node1_radarinterface_radarscan"
range: 1.79796981812
angle: -0.190768718719
elev: 0.149454280734
doppler: -0.715527653694
snr: 196
noise: 368
frame_num: 6261
point_id: 27
x: -0.337119340897
y: 1.74567317963
z: 0.267715036869
doppler_bin: 23
target_idx: 10
posX: -0.559778869152
posY: 1.91685402393
posZ: 0.413996040821
velX: 0.158850669861
velY: -0.0252428948879
velZ: 0.134686976671
accX: 0.0
accY: 0.0
accZ: 0.0
---
header: 
  seq: 45542
  stamp: 
    secs: 1596523467
    nsecs: 345393901
  frame_id: "node1_radarinterface_radarscan"
range: 1.95431506634
angle: -0.222062110901
elev: 0.116448000073
doppler: -0.715527653694
snr: 302
noise: 377
frame_num: 6261
point_id: 29
x: -0.427506417036
y: 1.89341711998
z: 0.227062106133
doppler_bin: 23
target_idx: 10
posX: -0.559778869152
posY: 1.91685402393
posZ: 0.413996040821
velX: 0.158850669861
velY: -0.0252428948879
velZ: 0.134686976671
accX: 0.0
accY: 0.0
accZ: 0.0
---
header: 
  seq: 45543
  stamp: 
    secs: 1596523467
    nsecs: 345412293
  frame_id: "node1_radarinterface_radarscan"
range: 2.03248763084
angle: -0.189699739218
elev: 0.106283485889
doppler: -0.715527653694
snr: 259
noise: 376
frame_num: 6261
point_id: 30
x: -0.381091445684
y: 1.98476350307
z: 0.215613394976
doppler_bin: 23
target_idx: 10
posX: -0.559778869152
posY: 1.91685402393
posZ: 0.413996040821
velX: 0.158850669861
velY: -0.0252428948879
velZ: 0.134686976671
accX: 0.0
accY: 0.0
accZ: 0.0
---
header: 
  seq: 45544
  stamp: 
    secs: 1596523467
    nsecs: 345430589
  frame_id: "node1_radarinterface_radarscan"
range: 1.87614250183
angle: -0.222686201334
elev: 0.138022497296
doppler: -0.636024594307
snr: 314
noise: 372
frame_num: 6261
point_id: 35
x: -0.410406202078
y: 1.81241476536
z: 0.258128494024
doppler_bin: 24
target_idx: 10
posX: -0.559778869152
posY: 1.91685402393
posZ: 0.413996040821
velX: 0.158850669861
velY: -0.0252428948879
velZ: 0.134686976671
accX: 0.0
accY: 0.0
accZ: 0.0
---
header: 
  seq: 45545
  stamp: 
    secs: 1596523467
    nsecs: 345493903
  frame_id: "node1_radarinterface_radarscan"
range: 2.03248763084
angle: -0.189998954535
elev: 0.119987629354
doppler: -0.636024594307
snr: 291
noise: 376
frame_num: 6261
point_id: 37
x: -0.381091415882
y: 1.98156142235
z: 0.243288621306
doppler_bin: 24
target_idx: 10
posX: -0.559778869152
posY: 1.91685402393
posZ: 0.413996040821
velX: 0.158850669861
velY: -0.0252428948879
velZ: 0.134686976671
accX: 0.0
accY: 0.0
accZ: 0.0
---
header: 
  seq: 45546
  stamp: 
    secs: 1596523467
    nsecs: 445225755
  frame_id: "node1_radarinterface_radarscan"
range: 1.95431506634
angle: -0.288666069508
elev: 0.155248686671
doppler: 0.0
snr: 163
noise: 513
frame_num: 6262
point_id: 6
x: -0.54965108633
y: 1.85092234612
z: 0.302187532187
doppler_bin: 32
target_idx: 10
posX: -0.500730752945
posY: 1.904692173
posZ: 0.419921189547
velX: 0.355833619833
velY: -0.162794485688
velZ: 0.0999491810799
accX: 0.0
accY: 0.0
accZ: 0.0
---
header: 
  seq: 45547
  stamp: 
    secs: 1596523467
    nsecs: 445284262
  frame_id: "node1_radarinterface_radarscan"
range: 2.11066031456
angle: -0.308124274015
elev: 0.383432418108
doppler: 0.0
snr: 210
noise: 470
frame_num: 6262
point_id: 7
x: -0.593623220921
y: 1.86521148682
z: 0.789610385895
doppler_bin: 32
target_idx: 10
posX: -0.500730752945
posY: 1.904692173
posZ: 0.419921189547
velX: 0.355833619833
velY: -0.162794485688
velZ: 0.0999491810799
accX: 0.0
accY: 0.0
accZ: 0.0
---
header: 
  seq: 45548
  stamp: 
    secs: 1596523467
    nsecs: 445304629
  frame_id: "node1_radarinterface_radarscan"
range: 1.79796981812
angle: -0.291091322899
elev: 0.200472190976
doppler: 0.0795030742884
snr: 127
noise: 565
frame_num: 6262
point_id: 12
x: -0.505679011345
y: 1.68783771992
z: 0.35803347826
doppler_bin: 33
target_idx: 10
posX: -0.500730752945
posY: 1.904692173
posZ: 0.419921189547
velX: 0.355833619833
velY: -0.162794485688
velZ: 0.0999491810799
accX: 0.0
accY: 0.0
accZ: 0.0
---
header: 
  seq: 45549
  stamp: 
    secs: 1596523467
    nsecs: 445320692
  frame_id: "node1_radarinterface_radarscan"
range: 1.95431506634
angle: -0.289001107216
elev: 0.162290751934
doppler: 0.0795030742884
snr: 209
noise: 517
frame_num: 6262
point_id: 14
x: -0.54965108633
y: 1.84865248203
z: 0.315776824951
doppler_bin: 33
target_idx: 10
posX: -0.500730752945
posY: 1.904692173
posZ: 0.419921189547
velX: 0.355833619833
velY: -0.162794485688
velZ: 0.0999491810799
accX: 0.0
accY: 0.0
accZ: 0.0
---
header: 
  seq: 45550
  stamp: 
    secs: 1596523467
    nsecs: 445372111
  frame_id: "node1_radarinterface_radarscan"
range: 1.87614250183
angle: -0.292368561029
elev: 0.220384612679
doppler: 0.159006148577
snr: 172
noise: 500
frame_num: 6262
point_id: 18
x: -0.52766507864
y: 1.75307452679
z: 0.41013404727
doppler_bin: 34
target_idx: 10
posX: -0.500730752945
posY: 1.904692173
posZ: 0.419921189547
velX: 0.355833619833
velY: -0.162794485688
velZ: 0.0999491810799
accX: 0.0
accY: 0.0
accZ: 0.0
---
header: 
  seq: 45551
  stamp: 
    secs: 1596523467
    nsecs: 445391641
  frame_id: "node1_radarinterface_radarscan"
range: 2.11066031456
angle: -0.298439741135
elev: 0.295909315348
doppler: 0.159006148577
snr: 294
noise: 448
frame_num: 6262
point_id: 21
x: -0.593623161316
y: 1.92968165874
z: 0.615489184856
doppler_bin: 34
target_idx: 10
posX: -0.500730752945
posY: 1.904692173
posZ: 0.419921189547
velX: 0.355833619833
velY: -0.162794485688
velZ: 0.0999491810799
accX: 0.0
accY: 0.0
accZ: 0.0
---
header: 
  seq: 45552
  stamp: 
    secs: 1596523467
    nsecs: 445405015
  frame_id: "node1_radarinterface_radarscan"
range: 1.71979725361
angle: -0.190763130784
elev: 0.149262219667
doppler: -1.98757684231
snr: 205
noise: 363
frame_num: 6262
point_id: 23
x: -0.3224619627
y: 1.6698243618
z: 0.25574862957
doppler_bin: 7
target_idx: 10
posX: -0.500730752945
posY: 1.904692173
posZ: 0.419921189547
velX: 0.355833619833
velY: -0.162794485688
velZ: 0.0999491810799
accX: 0.0
accY: 0.0
accZ: 0.0
---
header: 
  seq: 45553
  stamp: 
    secs: 1596523467
    nsecs: 445418722
  frame_id: "node1_radarinterface_radarscan"
range: 1.87614250183
angle: -0.19063013792
elev: 0.144607245922
doppler: -1.98757684231
snr: 232
noise: 367
frame_num: 6262
point_id: 25
x: -0.351776719093
y: 1.82292890549
z: 0.270359247923
doppler_bin: 7
target_idx: 10
posX: -0.500730752945
posY: 1.904692173
posZ: 0.419921189547
velX: 0.355833619833
velY: -0.162794485688
velZ: 0.0999491810799
accX: 0.0
accY: 0.0
accZ: 0.0
---
header: 
  seq: 45554
  stamp: 
    secs: 1596523467
    nsecs: 445446676
  frame_id: "node1_radarinterface_radarscan"
range: 1.79796981812
angle: -0.190983012319
elev: 0.156643748283
doppler: -1.90807378292
snr: 284
noise: 364
frame_num: 6262
point_id: 27
x: -0.337119340897
y: 1.74366605282
z: 0.280490368605
doppler_bin: 8
target_idx: 10
posX: -0.500730752945
posY: 1.904692173
posZ: 0.419921189547
velX: 0.355833619833
velY: -0.162794485688
velZ: 0.0999491810799
accX: 0.0
accY: 0.0
accZ: 0.0
---
header: 
  seq: 45555
  stamp: 
    secs: 1596523467
    nsecs: 445498757
  frame_id: "node1_radarinterface_radarscan"
range: 1.95431506634
angle: -0.194136038423
elev: 0.237576708198
doppler: -0.159006148577
snr: 190
noise: 489
frame_num: 6262
point_id: 35
x: -0.36643409729
y: 1.86373949051
z: 0.459944337606
doppler_bin: 30
target_idx: 10
posX: -0.500730752945
posY: 1.904692173
posZ: 0.419921189547
velX: 0.355833619833
velY: -0.162794485688
velZ: 0.0999491810799
accX: 0.0
accY: 0.0
accZ: 0.0
---
header: 
  seq: 45556
  stamp: 
    secs: 1596523467
    nsecs: 445512145
  frame_id: "node1_radarinterface_radarscan"
range: 2.11066031456
angle: -0.162648618221
elev: 0.265701234341
doppler: -0.159006148577
snr: 267
noise: 437
frame_num: 6262
point_id: 37
x: -0.329790681601
y: 2.00971508026
z: 0.554229736328
doppler_bin: 30
target_idx: 10
posX: -0.500730752945
posY: 1.904692173
posZ: 0.419921189547
velX: 0.355833619833
velY: -0.162794485688
velZ: 0.0999491810799
accX: 0.0
accY: 0.0
accZ: 0.0
---
header: 
  seq: 45557
  stamp: 
    secs: 1596523467
    nsecs: 445524064
  frame_id: "node1_radarinterface_radarscan"
range: 2.11066031456
angle: -0.162200465798
elev: 0.255444377661
doppler: -0.0795030742884
snr: 219
noise: 477
frame_num: 6262
point_id: 48
x: -0.329790681601
y: 2.01536679268
z: 0.533311903477
doppler_bin: 31
target_idx: 10
posX: -0.500730752945
posY: 1.904692173
posZ: 0.419921189547
velX: 0.355833619833
velY: -0.162794485688
velZ: 0.0999491810799
accX: 0.0
accY: 0.0
accZ: 0.0
---
header: 
  seq: 45558
  stamp: 
    secs: 1596523467
    nsecs: 543548238
  frame_id: "node1_radarinterface_radarscan"
range: 1.95431506634
angle: -0.291309535503
elev: 0.204022809863
doppler: 0.0
snr: 207
noise: 500
frame_num: 6263
point_id: 6
x: -0.549651145935
y: 1.83315122128
z: 0.395964413881
doppler_bin: 32
target_idx: 10
posX: -0.467917859554
posY: 1.86240291595
posZ: 0.482482969761
velX: 0.403608620167
velY: -0.340326577425
velZ: 0.25997376442
accX: 0.0
accY: 0.0
accZ: 0.0
---
header: 
  seq: 45559
  stamp: 
    secs: 1596523467
    nsecs: 543599213
  frame_id: "node1_radarinterface_radarscan"
range: 2.03248763084
angle: -0.298613607883
elev: 0.297756582499
doppler: 0.0
snr: 203
noise: 479
frame_num: 6263
point_id: 7
x: -0.571637094021
y: 1.85706293583
z: 0.596283614635
doppler_bin: 32
target_idx: 10
posX: -0.467917859554
posY: 1.86240291595
posZ: 0.482482969761
velX: 0.403608620167
velY: -0.340326577425
velZ: 0.25997376442
accX: 0.0
accY: 0.0
accZ: 0.0
---
header: 
  seq: 45560
  stamp: 
    secs: 1596523467
    nsecs: 543608436
  frame_id: "node1_radarinterface_radarscan"
range: 1.79796981812
angle: -0.290595531464
elev: 0.192143753171
doppler: 0.0795030742884
snr: 135
noise: 558
frame_num: 6263
point_id: 14
x: -0.505679011345
y: 1.6908864975
z: 0.343346863985
doppler_bin: 33
target_idx: 10
posX: -0.467917859554
posY: 1.86240291595
posZ: 0.482482969761
velX: 0.403608620167
velY: -0.340326577425
velZ: 0.25997376442
accX: 0.0
accY: 0.0
accZ: 0.0
---
header: 
  seq: 45561
  stamp: 
    secs: 1596523467
    nsecs: 543616173
  frame_id: "node1_radarinterface_radarscan"
range: 2.11066031456
angle: -0.34376937151
elev: 0.383944451809
doppler: 0.0795030742884
snr: 265
noise: 465
frame_num: 6263
point_id: 18
x: -0.659581363201
y: 1.84249043465
z: 0.790612518787
doppler_bin: 33
target_idx: 10
posX: -0.467917859554
posY: 1.86240291595
posZ: 0.482482969761
velX: 0.403608620167
velY: -0.340326577425
velZ: 0.25997376442
accX: 0.0
accY: 0.0
accZ: 0.0
---
header: 
  seq: 45562
  stamp: 
    secs: 1596523467
    nsecs: 543625132
  frame_id: "node1_radarinterface_radarscan"
range: 1.95431506634
angle: -0.296756774187
elev: 0.277290940285
doppler: 0.159006148577
snr: 231
noise: 472
frame_num: 6263
point_id: 27
x: -0.54965108633
y: 1.79750108719
z: 0.534995853901
doppler_bin: 34
target_idx: 10
posX: -0.467917859554
posY: 1.86240291595
posZ: 0.482482969761
velX: 0.403608620167
velY: -0.340326577425
velZ: 0.25997376442
accX: 0.0
accY: 0.0
accZ: 0.0
---
header: 
  seq: 45563
  stamp: 
    secs: 1596523467
    nsecs: 543653554
  frame_id: "node1_radarinterface_radarscan"
range: 2.11066031456
angle: -0.3477627635
elev: 0.410371601582
doppler: 0.159006148577
snr: 281
noise: 432
frame_num: 6263
point_id: 29
x: -0.659581363201
y: 1.81955885887
z: 0.842048168182
doppler_bin: 34
target_idx: 10
posX: -0.467917859554
posY: 1.86240291595
posZ: 0.482482969761
velX: 0.403608620167
velY: -0.340326577425
velZ: 0.25997376442
accX: 0.0
accY: 0.0
accZ: 0.0
---
header: 
  seq: 45564
  stamp: 
    secs: 1596523467
    nsecs: 543664086
  frame_id: "node1_radarinterface_radarscan"
range: 2.18883275986
angle: -0.372196227312
elev: 0.332450389862
doppler: 0.159006148577
snr: 229
noise: 446
frame_num: 6263
point_id: 30
x: -0.752411305904
y: 1.92732274532
z: 0.714347958565
doppler_bin: 34
target_idx: 10
posX: -0.467917859554
posY: 1.86240291595
posZ: 0.482482969761
velX: 0.403608620167
velY: -0.340326577425
velZ: 0.25997376442
accX: 0.0
accY: 0.0
accZ: 0.0
---
header: 
  seq: 45565
  stamp: 
    secs: 1596523467
    nsecs: 543676004
  frame_id: "node1_radarinterface_radarscan"
range: 1.71979725361
angle: -0.129491791129
elev: 0.253601193428
doppler: -1.27204918861
snr: 217
noise: 365
frame_num: 6263
point_id: 45
x: -0.214974656701
y: 1.65085172653
z: 0.431482672691
doppler_bin: 16
target_idx: 10
posX: -0.467917859554
posY: 1.86240291595
posZ: 0.482482969761
velX: 0.403608620167
velY: -0.340326577425
velZ: 0.25997376442
accX: 0.0
accY: 0.0
accZ: 0.0
---
header: 
  seq: 45566
  stamp: 
    secs: 1596523467
    nsecs: 543687096
  frame_id: "node1_radarinterface_radarscan"
range: 1.71979725361
angle: -0.129900470376
elev: 0.265403389931
doppler: -1.19254612923
snr: 254
noise: 359
frame_num: 6263
point_id: 48
x: -0.2149746418
y: 1.64559924603
z: 0.451100349426
doppler_bin: 17
target_idx: 10
posX: -0.467917859554
posY: 1.86240291595
posZ: 0.482482969761
velX: 0.403608620167
velY: -0.340326577425
velZ: 0.25997376442
accX: 0.0
accY: 0.0
accZ: 0.0
---
header: 
  seq: 45567
  stamp: 
    secs: 1596523467
    nsecs: 543704234
  frame_id: "node1_radarinterface_radarscan"
range: 1.6416246891
angle: -0.13064853847
elev: 0.285600334406
doppler: -1.11304306984
snr: 262
noise: 358
frame_num: 6263
point_id: 50
x: -0.205203086138
y: 1.5617030859
z: 0.462500691414
doppler_bin: 18
target_idx: 10
posX: -0.467917859554
posY: 1.86240291595
posZ: 0.482482969761
velX: 0.403608620167
velY: -0.340326577425
velZ: 0.25997376442
accX: 0.0
accY: 0.0
accZ: 0.0
---
header: 
  seq: 45568
  stamp: 
    secs: 1596523467
    nsecs: 543721973
  frame_id: "node1_radarinterface_radarscan"
range: 1.87614250183
angle: -0.321945905685
elev: 0.157433092594
doppler: -0.0795030742884
snr: 116
noise: 558
frame_num: 6263
point_id: 73
x: -0.586294531822
y: 1.75773894787
z: 0.294148296118
doppler_bin: 31
target_idx: 10
posX: -0.467917859554
posY: 1.86240291595
posZ: 0.482482969761
velX: 0.403608620167
velY: -0.340326577425
velZ: 0.25997376442
accX: 0.0
accY: 0.0
accZ: 0.0
---
header: 
  seq: 45569
  stamp: 
    secs: 1596523467
    nsecs: 643290653
  frame_id: "node1_radarinterface_radarscan"
range: 2.11066031456
angle: -0.317327708006
elev: 0.447898715734
doppler: 0.0
snr: 265
noise: 450
frame_num: 6264
point_id: 6
x: -0.593623220921
y: 1.80747795105
z: 0.914068877697
doppler_bin: 32
target_idx: 10
posX: -0.445513665676
posY: 1.82086908817
posZ: 0.702644705772
velX: 0.366584569216
velY: -0.341574668884
velZ: 0.943705677986
accX: 0.0
accY: 0.0
accZ: 0.0
---
header: 
  seq: 45570
  stamp: 
    secs: 1596523467
    nsecs: 643332941
  frame_id: "node1_radarinterface_radarscan"
range: 2.18883275986
angle: -0.345386594534
elev: 0.394924432039
doppler: 0.0
snr: 234
noise: 443
frame_num: 6264
point_id: 7
x: -0.684010207653
y: 1.90103638172
z: 0.842128098011
doppler_bin: 32
target_idx: 10
posX: -0.445513665676
posY: 1.82086908817
posZ: 0.702644705772
velX: 0.366584569216
velY: -0.341574668884
velZ: 0.943705677986
accX: 0.0
accY: 0.0
accZ: 0.0
---
header: 
  seq: 45571
  stamp: 
    secs: 1596523467
    nsecs: 643343077
  frame_id: "node1_radarinterface_radarscan"
range: 1.95431506634
angle: -0.290543735027
elev: 0.51012814045
doppler: 0.0795030742884
snr: 173
noise: 494
frame_num: 6264
point_id: 14
x: -0.488578766584
y: 1.63401520252
z: 0.954270720482
doppler_bin: 33
target_idx: 10
posX: -0.445513665676
posY: 1.82086908817
posZ: 0.702644705772
velX: 0.366584569216
velY: -0.341574668884
velZ: 0.943705677986
accX: 0.0
accY: 0.0
accZ: 0.0
---
header: 
  seq: 45572
  stamp: 
    secs: 1596523467
    nsecs: 643364138
  frame_id: "node1_radarinterface_radarscan"
range: 2.11066031456
angle: -0.360280960798
elev: 0.481219023466
doppler: 0.159006148577
snr: 290
noise: 425
frame_num: 6264
point_id: 25
x: -0.659581363201
y: 1.75083601475
z: 0.976940453053
doppler_bin: 34
target_idx: 10
posX: -0.445513665676
posY: 1.82086908817
posZ: 0.702644705772
velX: 0.366584569216
velY: -0.341574668884
velZ: 0.943705677986
accX: 0.0
accY: 0.0
accZ: 0.0
---
header: 
  seq: 45573
  stamp: 
    secs: 1596523467
    nsecs: 643372054
  frame_id: "node1_radarinterface_radarscan"
range: 1.87614250183
angle: -0.626720845699
elev: 0.437509864569
doppler: 0.715527653694
snr: 220
noise: 375
frame_num: 6264
point_id: 27
x: -0.996700704098
y: 1.37646007538
z: 0.794893801212
doppler_bin: 41
target_idx: 10
posX: -0.445513665676
posY: 1.82086908817
posZ: 0.702644705772
velX: 0.366584569216
velY: -0.341574668884
velZ: 0.943705677986
accX: 0.0
accY: 0.0
accZ: 0.0
---
header: 
  seq: 45574
  stamp: 
    secs: 1596523467
    nsecs: 643378869
  frame_id: "node1_radarinterface_radarscan"
range: 1.71979725361
angle: -0.106740139425
elev: 0.494994550943
doppler: 1.19254612923
snr: 267
noise: 362
frame_num: 6264
point_id: 29
x: -0.16123098135
y: 1.50475907326
z: 0.816949903965
doppler_bin: 47
target_idx: 10
posX: -0.445513665676
posY: 1.82086908817
posZ: 0.702644705772
velX: 0.366584569216
velY: -0.341574668884
velZ: 0.943705677986
accX: 0.0
accY: 0.0
accZ: 0.0
---
header: 
  seq: 45575
  stamp: 
    secs: 1596523467
    nsecs: 643385020
  frame_id: "node1_radarinterface_radarscan"
range: 1.79796981812
angle: -0.106194339693
elev: 0.485424667597
doppler: 1.19254612923
snr: 288
noise: 364
frame_num: 6264
point_id: 30
x: -0.168559670448
y: 1.58130431175
z: 0.838903963566
doppler_bin: 47
target_idx: 10
posX: -0.445513665676
posY: 1.82086908817
posZ: 0.702644705772
velX: 0.366584569216
velY: -0.341574668884
velZ: 0.943705677986
accX: 0.0
accY: 0.0
accZ: 0.0
---
header: 
  seq: 45576
  stamp: 
    secs: 1596523467
    nsecs: 643397227
  frame_id: "node1_radarinterface_radarscan"
range: 1.79796981812
angle: -0.106993108988
elev: 0.499340265989
doppler: 1.27204918861
snr: 274
noise: 366
frame_num: 6264
point_id: 32
x: -0.168559670448
y: 1.56940937042
z: 0.86095148325
doppler_bin: 48
target_idx: 10
posX: -0.445513665676
posY: 1.82086908817
posZ: 0.702644705772
velX: 0.366584569216
velY: -0.341574668884
velZ: 0.943705677986
accX: 0.0
accY: 0.0
accZ: 0.0
---
header: 
  seq: 45577
  stamp: 
    secs: 1596523467
    nsecs: 743647532
  frame_id: "node1_radarinterface_radarscan"
range: 1.95431506634
angle: -0.0993478745222
elev: 0.332565546036
doppler: 0.0795030742884
snr: 167
noise: 489
frame_num: 6265
point_id: 12
x: -0.183217033744
y: 1.83812534809
z: 0.638023436069
doppler_bin: 33
target_idx: 10
posX: -0.359809577465
posY: 1.78294634819
posZ: 0.903479039669
velX: 0.569114208221
velY: -0.345382511616
velZ: 1.46252524853
accX: 0.0
accY: 0.0
accZ: 0.0
---
header: 
  seq: 45578
  stamp: 
    secs: 1596523467
    nsecs: 743715087
  frame_id: "node1_radarinterface_radarscan"
range: 1.95431506634
angle: -0.106823034585
elev: 0.496424734592
doppler: 0.636024594307
snr: 322
noise: 366
frame_num: 6265
point_id: 18
x: -0.183217033744
y: 1.70861649513
z: 0.930810749531
doppler_bin: 40
target_idx: 10
posX: -0.359809577465
posY: 1.78294634819
posZ: 0.903479039669
velX: 0.569114208221
velY: -0.345382511616
velZ: 1.46252524853
accX: 0.0
accY: 0.0
accZ: 0.0
---
header: 
  seq: 45579
  stamp: 
    secs: 1596523467
    nsecs: 743744908
  frame_id: "node1_radarinterface_radarscan"
range: 1.87614250183
angle: -0.146711930633
elev: 0.545102775097
doppler: 0.715527653694
snr: 350
noise: 358
frame_num: 6265
point_id: 21
x: -0.234517812729
y: 1.5870064497
z: 0.972791075706
doppler_bin: 41
target_idx: 10
posX: -0.359809577465
posY: 1.78294634819
posZ: 0.903479039669
velX: 0.569114208221
velY: -0.345382511616
velZ: 1.46252524853
accX: 0.0
accY: 0.0
accZ: 0.0
---
header: 
  seq: 45580
  stamp: 
    secs: 1596523467
    nsecs: 743754154
  frame_id: "node1_radarinterface_radarscan"
range: 1.79796981812
angle: -0.151374846697
elev: 0.593610048294
doppler: 0.795030713081
snr: 273
noise: 365
frame_num: 6265
point_id: 23
x: -0.224746227264
y: 1.47334229946
z: 1.00570726395
doppler_bin: 42
target_idx: 10
posX: -0.359809577465
posY: 1.78294634819
posZ: 0.903479039669
velX: 0.569114208221
velY: -0.345382511616
velZ: 1.46252524853
accX: 0.0
accY: 0.0
accZ: 0.0
---
header: 
  seq: 45581
  stamp: 
    secs: 1596523467
    nsecs: 743764902
  frame_id: "node1_radarinterface_radarscan"
range: 1.95431506634
angle: -0.151654884219
elev: 0.596320092678
doppler: 0.795030713081
snr: 310
noise: 369
frame_num: 6265
point_id: 25
x: -0.244289383292
y: 1.59845614433
z: 1.09754621983
doppler_bin: 42
target_idx: 10
posX: -0.359809577465
posY: 1.78294634819
posZ: 0.903479039669
velX: 0.569114208221
velY: -0.345382511616
velZ: 1.46252524853
accX: 0.0
accY: 0.0
accZ: 0.0
---
header: 
  seq: 45582
  stamp: 
    secs: 1596523467
    nsecs: 743775821
  frame_id: "node1_radarinterface_radarscan"
range: 2.26700544357
angle: -0.28065007925
elev: 0.445045381784
doppler: -0.159006148577
snr: 128
noise: 493
frame_num: 6265
point_id: 37
x: -0.566751420498
y: 1.96612346172
z: 0.975943207741
doppler_bin: 30
target_idx: 10
posX: -0.359809577465
posY: 1.78294634819
posZ: 0.903479039669
velX: 0.569114208221
velY: -0.345382511616
velZ: 1.46252524853
accX: 0.0
accY: 0.0
accZ: 0.0
---
header: 
  seq: 45583
  stamp: 
    secs: 1596523467
    nsecs: 743809300
  frame_id: "node1_radarinterface_radarscan"
range: 2.11066031456
angle: -0.300433129072
elev: 0.316338032484
doppler: -0.0795030742884
snr: 184
noise: 499
frame_num: 6265
point_id: 45
x: -0.593623220921
y: 1.91608250141
z: 0.656601905823
doppler_bin: 31
target_idx: 10
posX: -0.359809577465
posY: 1.78294634819
posZ: 0.903479039669
velX: 0.569114208221
velY: -0.345382511616
velZ: 1.46252524853
accX: 0.0
accY: 0.0
accZ: 0.0
---
header: 
  seq: 45584
  stamp: 
    secs: 1596523467
    nsecs: 837960807
  frame_id: "node1_radarinterface_radarscan"
range: 2.03248763084
angle: -0.354395955801
elev: 0.449845582247
doppler: 0.0795030742884
snr: 245
noise: 431
frame_num: 6266
point_id: 12
x: -0.63515239954
y: 1.71654343605
z: 0.883779466152
doppler_bin: 33
target_idx: 10
posX: -0.413350820541
posY: 1.7351719141
posZ: 0.979958534241
velX: 0.239765912294
velY: -0.417732149363
velZ: 1.42828345299
accX: 0.0
accY: 0.0
accZ: 0.0
---
header: 
  seq: 45585
  stamp: 
    secs: 1596523467
    nsecs: 838005515
  frame_id: "node1_radarinterface_radarscan"
range: 2.18883275986
angle: -0.351382255554
elev: 0.614395916462
doppler: 0.0795030742884
snr: 213
noise: 416
frame_num: 6266
point_id: 14
x: -0.615609228611
y: 1.67925918102
z: 1.2617855072
doppler_bin: 33
target_idx: 10
posX: -0.413350820541
posY: 1.7351719141
posZ: 0.979958534241
velX: 0.239765912294
velY: -0.417732149363
velZ: 1.42828345299
accX: 0.0
accY: 0.0
accZ: 0.0
---
header: 
  seq: 45586
  stamp: 
    secs: 1596523467
    nsecs: 838095448
  frame_id: "node1_radarinterface_radarscan"
range: 2.03248763084
angle: -0.497481018305
elev: 0.552345335484
doppler: 0.159006148577
snr: 293
noise: 413
frame_num: 6266
point_id: 21
x: -0.825698077679
y: 1.52052128315
z: 1.06641626358
doppler_bin: 34
target_idx: 10
posX: -0.413350820541
posY: 1.7351719141
posZ: 0.979958534241
velX: 0.239765912294
velY: -0.417732149363
velZ: 1.42828345299
accX: 0.0
accY: 0.0
accZ: 0.0
---
header: 
  seq: 45587
  stamp: 
    secs: 1596523467
    nsecs: 838134795
  frame_id: "node1_radarinterface_radarscan"
range: 1.79796981812
angle: -0.140931919217
elev: 0.473679214716
doppler: 0.238509222865
snr: 158
noise: 418
frame_num: 6266
point_id: 23
x: -0.224746227264
y: 1.58414292336
z: 0.820168197155
doppler_bin: 35
target_idx: 10
posX: -0.413350820541
posY: 1.7351719141
posZ: 0.979958534241
velX: 0.239765912294
velY: -0.417732149363
velZ: 1.42828345299
accX: 0.0
accY: 0.0
accZ: 0.0
---
header: 
  seq: 45588
  stamp: 
    secs: 1596523467
    nsecs: 838152318
  frame_id: "node1_radarinterface_radarscan"
range: 2.03248763084
angle: -0.615160107613
elev: 0.71037876606
doppler: 0.238509222865
snr: 325
noise: 375
frame_num: 6266
point_id: 27
x: -0.889213323593
y: 1.25839054585
z: 1.32542777061
doppler_bin: 35
target_idx: 10
posX: -0.413350820541
posY: 1.7351719141
posZ: 0.979958534241
velX: 0.239765912294
velY: -0.417732149363
velZ: 1.42828345299
accX: 0.0
accY: 0.0
accZ: 0.0
---
header: 
  seq: 45589
  stamp: 
    secs: 1596523467
    nsecs: 838167975
  frame_id: "node1_radarinterface_radarscan"
range: 1.87614250183
angle: -0.143537595868
elev: 0.507731854916
doppler: 0.318012297153
snr: 321
noise: 359
frame_num: 6266
point_id: 29
x: -0.234517797828
y: 1.62260615826
z: 0.912173867226
doppler_bin: 36
target_idx: 10
posX: -0.413350820541
posY: 1.7351719141
posZ: 0.979958534241
velX: 0.239765912294
velY: -0.417732149363
velZ: 1.42828345299
accX: 0.0
accY: 0.0
accZ: 0.0
---
header: 
  seq: 45590
  stamp: 
    secs: 1596523467
    nsecs: 838183155
  frame_id: "node1_radarinterface_radarscan"
range: 1.95431506634
angle: -0.140578344464
elev: 0.468781769276
doppler: 0.318012297153
snr: 346
noise: 357
frame_num: 6266
point_id: 30
x: -0.244289368391
y: 1.72628295422
z: 0.882959187031
doppler_bin: 36
target_idx: 10
posX: -0.413350820541
posY: 1.7351719141
posZ: 0.979958534241
velX: 0.239765912294
velY: -0.417732149363
velZ: 1.42828345299
accX: 0.0
accY: 0.0
accZ: 0.0
---
header: 
  seq: 45591
  stamp: 
    secs: 1596523467
    nsecs: 938258483
  frame_id: "node1_radarinterface_radarscan"
range: 2.11066031456
angle: -0.236095443368
elev: 0.36198413372
doppler: 0.0
snr: 149
noise: 447
frame_num: 6267
point_id: 6
x: -0.461706936359
y: 1.91912305355
z: 0.747449159622
doppler_bin: 32
target_idx: 10
posX: -0.499613791704
posY: 1.7103549242
posZ: 1.00134158134
velX: -0.121461421251
velY: -0.414107441902
velZ: 1.18180394173
accX: 0.0
accY: 0.0
accZ: 0.0
---
header: 
  seq: 45592
  stamp: 
    secs: 1596523467
    nsecs: 938334723
  frame_id: "node1_radarinterface_radarscan"
range: 1.87614250183
angle: -0.337730228901
elev: 0.338897556067
doppler: 0.0795030742884
snr: 202
noise: 465
frame_num: 6267
point_id: 9
x: -0.586294531822
y: 1.66947412491
z: 0.623718976974
doppler_bin: 33
target_idx: 10
posX: -0.499613791704
posY: 1.7103549242
posZ: 1.00134158134
velX: -0.121461421251
velY: -0.414107441902
velZ: 1.18180394173
accX: 0.0
accY: 0.0
accZ: 0.0
---
header: 
  seq: 45593
  stamp: 
    secs: 1596523467
    nsecs: 938359298
  frame_id: "node1_radarinterface_radarscan"
range: 2.11066031456
angle: -0.279120773077
elev: 0.433725833893
doppler: 0.0795030742884
snr: 260
noise: 406
frame_num: 6267
point_id: 12
x: -0.52766507864
y: 1.84110331535
z: 0.887014627457
doppler_bin: 33
target_idx: 10
posX: -0.499613791704
posY: 1.7103549242
posZ: 1.00134158134
velX: -0.121461421251
velY: -0.414107441902
velZ: 1.18180394173
accX: 0.0
accY: 0.0
accZ: 0.0
---
header: 
  seq: 45594
  stamp: 
    secs: 1596523467
    nsecs: 938407200
  frame_id: "node1_radarinterface_radarscan"
range: 1.87614250183
angle: -0.39454677701
elev: 0.62155020237
doppler: 0.159006148577
snr: 169
noise: 436
frame_num: 6267
point_id: 14
x: -0.586294531822
y: 1.40807580948
z: 1.0924705267
doppler_bin: 34
target_idx: 10
posX: -0.499613791704
posY: 1.7103549242
posZ: 1.00134158134
velX: -0.121461421251
velY: -0.414107441902
velZ: 1.18180394173
accX: 0.0
accY: 0.0
accZ: 0.0
---
header: 
  seq: 45595
  stamp: 
    secs: 1596523467
    nsecs: 938426310
  frame_id: "node1_radarinterface_radarscan"
range: 1.95431506634
angle: -0.28944337368
elev: 0.171123087406
doppler: -0.159006148577
snr: 124
noise: 485
frame_num: 6267
point_id: 29
x: -0.549651145935
y: 1.84566414356
z: 0.332798629999
doppler_bin: 30
target_idx: 10
posX: -0.499613791704
posY: 1.7103549242
posZ: 1.00134158134
velX: -0.121461421251
velY: -0.414107441902
velZ: 1.18180394173
accX: 0.0
accY: 0.0
accZ: 0.0
---
header: 
  seq: 45596
  stamp: 
    secs: 1596523467
    nsecs: 938443018
  frame_id: "node1_radarinterface_radarscan"
range: 2.18883275986
angle: -0.384318381548
elev: 0.585393249989
doppler: -0.159006148577
snr: 125
noise: 449
frame_num: 6267
point_id: 30
x: -0.684010267258
y: 1.69129991531
z: 1.20938968658
doppler_bin: 30
target_idx: 10
posX: -0.499613791704
posY: 1.7103549242
posZ: 1.00134158134
velX: -0.121461421251
velY: -0.414107441902
velZ: 1.18180394173
accX: 0.0
accY: 0.0
accZ: 0.0
---
header: 
  seq: 45597
  stamp: 
    secs: 1596523467
    nsecs: 938462100
  frame_id: "node1_radarinterface_radarscan"
range: 1.95431506634
angle: -0.288242459297
elev: 0.145837858319
doppler: -0.0795030742884
snr: 157
noise: 525
frame_num: 6267
point_id: 37
x: -0.54965108633
y: 1.85379958153
z: 0.2840038836
doppler_bin: 31
target_idx: 10
posX: -0.499613791704
posY: 1.7103549242
posZ: 1.00134158134
velX: -0.121461421251
velY: -0.414107441902
velZ: 1.18180394173
accX: 0.0
accY: 0.0
accZ: 0.0
---
header: 
  seq: 45598
  stamp: 
    secs: 1596523467
    nsecs: 938544750
  frame_id: "node1_radarinterface_radarscan"
range: 2.11066031456
angle: -0.481543600559
elev: 0.734443664551
doppler: -0.0795030742884
snr: 115
noise: 491
frame_num: 6267
point_id: 39
x: -0.725539505482
y: 1.38839459419
z: 1.4145103693
doppler_bin: 31
target_idx: 10
posX: -0.499613791704
posY: 1.7103549242
posZ: 1.00134158134
velX: -0.121461421251
velY: -0.414107441902
velZ: 1.18180394173
accX: 0.0
accY: 0.0
accZ: 0.0
---
header: 
  seq: 45599
  stamp: 
    secs: 1596523468
    nsecs:  38614406
  frame_id: "node1_radarinterface_radarscan"
range: 2.03248763084
angle: -0.497169315815
elev: 0.551412701607
doppler: 0.0
snr: 171
noise: 468
frame_num: 6268
point_id: 6
x: -0.825698137283
y: 1.52165210247
z: 1.0648021698
doppler_bin: 32
target_idx: 10
posX: -0.5865624547
posY: 1.71235585213
posZ: 0.980080068111
velX: -0.398216545582
velY: -0.324255645275
velZ: 0.851602196693
accX: 0.0
accY: 0.0
accZ: 0.0
---
header: 
  seq: 45600
  stamp: 
    secs: 1596523468
    nsecs:  38697346
  frame_id: "node1_radarinterface_radarscan"
range: 2.18883275986
angle: -0.229812443256
elev: 0.282743453979
doppler: 0.0
snr: 114
noise: 447
frame_num: 6268
point_id: 7
x: -0.47880718112
y: 2.04666090012
z: 0.610665142536
doppler_bin: 32
target_idx: 10
posX: -0.5865624547
posY: 1.71235585213
posZ: 0.980080068111
velX: -0.398216545582
velY: -0.324255645275
velZ: 0.851602196693
accX: 0.0
accY: 0.0
accZ: 0.0
---
header: 
  seq: 45601
  stamp: 
    secs: 1596523468
    nsecs:  38720388
  frame_id: "node1_radarinterface_radarscan"
range: 1.87614250183
angle: -0.289340943098
elev: 0.169120490551
doppler: 0.0795030742884
snr: 222
noise: 467
frame_num: 6268
point_id: 12
x: -0.52766507864
y: 1.77250134945
z: 0.315783768892
doppler_bin: 33
target_idx: 10
posX: -0.5865624547
posY: 1.71235585213
posZ: 0.980080068111
velX: -0.398216545582
velY: -0.324255645275
velZ: 0.851602196693
accX: 0.0
accY: 0.0
accZ: 0.0
---
header: 
  seq: 45602
  stamp: 
    secs: 1596523468
    nsecs:  38750031
  frame_id: "node1_radarinterface_radarscan"
range: 2.03248763084
angle: -0.55494338274
elev: 0.591086030006
doppler: 0.0795030742884
snr: 264
noise: 414
frame_num: 6268
point_id: 14
x: -0.889213383198
y: 1.43438279629
z: 1.13263034821
doppler_bin: 33
target_idx: 10
posX: -0.5865624547
posY: 1.71235585213
posZ: 0.980080068111
velX: -0.398216545582
velY: -0.324255645275
velZ: 0.851602196693
accX: 0.0
accY: 0.0
accZ: 0.0
---
header: 
  seq: 45603
  stamp: 
    secs: 1596523468
    nsecs:  38797822
  frame_id: "node1_radarinterface_radarscan"
range: 1.95431506634
angle: -0.498997926712
elev: 0.556846678257
doppler: 0.159006148577
snr: 265
noise: 408
frame_num: 6268
point_id: 18
x: -0.793940544128
y: 1.45676612854
z: 1.03287875652
doppler_bin: 34
target_idx: 10
posX: -0.5865624547
posY: 1.71235585213
posZ: 0.980080068111
velX: -0.398216545582
velY: -0.324255645275
velZ: 0.851602196693
accX: 0.0
accY: 0.0
accZ: 0.0
---
header: 
  seq: 45604
  stamp: 
    secs: 1596523468
    nsecs:  38816238
  frame_id: "node1_radarinterface_radarscan"
range: 1.95431506634
angle: -0.481435775757
elev: 0.626910448074
doppler: 0.238509222865
snr: 235
noise: 398
frame_num: 6268
point_id: 21
x: -0.732868134975
y: 1.40278720856
z: 1.14649009705
doppler_bin: 35
target_idx: 10
posX: -0.5865624547
posY: 1.71235585213
posZ: 0.980080068111
velX: -0.398216545582
velY: -0.324255645275
velZ: 0.851602196693
accX: 0.0
accY: 0.0
accZ: 0.0
---
header: 
  seq: 45605
  stamp: 
    secs: 1596523468
    nsecs:  38835382
  frame_id: "node1_radarinterface_radarscan"
range: 1.95431506634
angle: -0.322588801384
elev: 0.169120237231
doppler: -0.0795030742884
snr: 136
noise: 531
frame_num: 6268
point_id: 45
x: -0.610723435879
y: 1.8270637989
z: 0.328940927982
doppler_bin: 31
target_idx: 10
posX: -0.5865624547
posY: 1.71235585213
posZ: 0.980080068111
velX: -0.398216545582
velY: -0.324255645275
velZ: 0.851602196693
accX: 0.0
accY: 0.0
accZ: 0.0
---
header: 
  seq: 45606
  stamp: 
    secs: 1596523468
    nsecs: 138325419
  frame_id: "node1_radarinterface_radarscan"
range: 2.03248763084
angle: -0.511453211308
elev: 0.464893013239
doppler: 0.0
snr: 193
noise: 455
frame_num: 6269
point_id: 6
x: -0.889213323593
y: 1.58429312706
z: 0.911219418049
doppler_bin: 32
target_idx: 10
posX: -0.660744547844
posY: 1.70352876186
posZ: 0.977366328239
velX: -0.563416481018
velY: -0.302680313587
velZ: 0.595795869827
accX: 0.0
accY: 0.0
accZ: 0.0
---
header: 
  seq: 45607
  stamp: 
    secs: 1596523468
    nsecs: 138413190
  frame_id: "node1_radarinterface_radarscan"
range: 2.11066031456
angle: -0.534765183926
elev: 0.53855496645
doppler: 0.0
snr: 169
noise: 434
frame_num: 6269
point_id: 7
x: -0.923413872719
y: 1.55893576145
z: 1.08254933357
doppler_bin: 32
target_idx: 10
posX: -0.660744547844
posY: 1.70352876186
posZ: 0.977366328239
velX: -0.563416481018
velY: -0.302680313587
velZ: 0.595795869827
accX: 0.0
accY: 0.0
accZ: 0.0
---
header: 
  seq: 45608
  stamp: 
    secs: 1596523468
    nsecs: 138458945
  frame_id: "node1_radarinterface_radarscan"
range: 1.95431506634
angle: -0.398251354694
elev: 0.257712572813
doppler: 0.0795030742884
snr: 206
noise: 474
frame_num: 6269
point_id: 14
x: -0.732868134975
y: 1.7418820858
z: 0.498094975948
doppler_bin: 33
target_idx: 10
posX: -0.660744547844
posY: 1.70352876186
posZ: 0.977366328239
velX: -0.563416481018
velY: -0.302680313587
velZ: 0.595795869827
accX: 0.0
accY: 0.0
accZ: 0.0
---
header: 
  seq: 45609
  stamp: 
    secs: 1596523468
    nsecs: 138491566
  frame_id: "node1_radarinterface_radarscan"
range: 2.18883275986
angle: -0.267136901617
elev: 0.326801925898
doppler: 0.0795030742884
snr: 157
noise: 442
frame_num: 6269
point_id: 18
x: -0.547208189964
y: 1.99945855141
z: 0.702650010586
doppler_bin: 33
target_idx: 10
posX: -0.660744547844
posY: 1.70352876186
posZ: 0.977366328239
velX: -0.563416481018
velY: -0.302680313587
velZ: 0.595795869827
accX: 0.0
accY: 0.0
accZ: 0.0
---
header: 
  seq: 45610
  stamp: 
    secs: 1596523468
    nsecs: 138542184
  frame_id: "node1_radarinterface_radarscan"
range: 2.03248763084
angle: -0.458757847548
elev: 0.560824155807
doppler: 0.159006148577
snr: 271
noise: 402
frame_num: 6269
point_id: 21
x: -0.762182831764
y: 1.5431843996
z: 1.0810482502
doppler_bin: 34
target_idx: 10
posX: -0.660744547844
posY: 1.70352876186
posZ: 0.977366328239
velX: -0.563416481018
velY: -0.302680313587
velZ: 0.595795869827
accX: 0.0
accY: 0.0
accZ: 0.0
---
header: 
  seq: 45611
  stamp: 
    secs: 1596523468
    nsecs: 138562358
  frame_id: "node1_radarinterface_radarscan"
range: 2.26700544357
angle: -0.21216121316
elev: 0.472513973713
doppler: 0.159006148577
snr: 116
noise: 422
frame_num: 6269
point_id: 23
x: -0.425063490868
y: 1.97334170341
z: 1.03177368641
doppler_bin: 34
target_idx: 10
posX: -0.660744547844
posY: 1.70352876186
posZ: 0.977366328239
velX: -0.563416481018
velY: -0.302680313587
velZ: 0.595795869827
accX: 0.0
accY: 0.0
accZ: 0.0
---
header: 
  seq: 45612
  stamp: 
    secs: 1596523468
    nsecs: 138581185
  frame_id: "node1_radarinterface_radarscan"
range: 1.87614250183
angle: -0.322791218758
elev: 0.17262814939
doppler: -0.0795030742884
snr: 131
noise: 513
frame_num: 6269
point_id: 39
x: -0.586294531822
y: 1.75280117989
z: 0.322268784046
doppler_bin: 31
target_idx: 10
posX: -0.660744547844
posY: 1.70352876186
posZ: 0.977366328239
velX: -0.563416481018
velY: -0.302680313587
velZ: 0.595795869827
accX: 0.0
accY: 0.0
accZ: 0.0
---
header: 
  seq: 45613
  stamp: 
    secs: 1596523468
    nsecs: 138634278
  frame_id: "node1_radarinterface_radarscan"
range: 2.11066031456
angle: -0.282367318869
elev: 0.457301408052
doppler: -0.0795030742884
snr: 157
noise: 468
frame_num: 6269
point_id: 42
x: -0.52766507864
y: 1.81878757477
z: 0.931916475296
doppler_bin: 31
target_idx: 10
posX: -0.660744547844
posY: 1.70352876186
posZ: 0.977366328239
velX: -0.563416481018
velY: -0.302680313587
velZ: 0.595795869827
accX: 0.0
accY: 0.0
accZ: 0.0
---
header: 
  seq: 45614
  stamp: 
    secs: 1596523468
    nsecs: 238513847
  frame_id: "node1_radarinterface_radarscan"
range: 1.79796981812
angle: -0.290144920349
elev: 0.18422524631
doppler: 0.0795030742884
snr: 130
noise: 526
frame_num: 6270
point_id: 12
x: -0.505679011345
y: 1.69366633892
z: 0.329360991716
doppler_bin: 33
target_idx: 10
posX: -0.633765399456
posY: 1.77012455463
posZ: 0.911823272705
velX: -0.339469045401
velY: -0.0107556283474
velZ: 0.218143612146
accX: 0.0
accY: 0.0
accZ: 0.0
---
header: 
  seq: 45615
  stamp: 
    secs: 1596523468
    nsecs: 238596051
  frame_id: "node1_radarinterface_radarscan"
range: 1.95431506634
angle: -0.289591997862
elev: 0.173985868692
doppler: 0.0795030742884
snr: 243
noise: 476
frame_num: 6270
point_id: 14
x: -0.54965108633
y: 1.84466171265
z: 0.338310331106
doppler_bin: 33
target_idx: 10
posX: -0.633765399456
posY: 1.77012455463
posZ: 0.911823272705
velX: -0.339469045401
velY: -0.0107556283474
velZ: 0.218143612146
accX: 0.0
accY: 0.0
accZ: 0.0
---
header: 
  seq: 45616
  stamp: 
    secs: 1596523468
    nsecs: 238613935
  frame_id: "node1_radarinterface_radarscan"
range: 1.87614250183
angle: -0.289225578308
elev: 0.166835173965
doppler: 0.159006148577
snr: 224
noise: 441
frame_num: 6270
point_id: 21
x: -0.52766507864
y: 1.77324926853
z: 0.31155654788
doppler_bin: 34
target_idx: 10
posX: -0.633765399456
posY: 1.77012455463
posZ: 0.911823272705
velX: -0.339469045401
velY: -0.0107556283474
velZ: 0.218143612146
accX: 0.0
accY: 0.0
accZ: 0.0
---
header: 
  seq: 45617
  stamp: 
    secs: 1596523468
    nsecs: 238690760
  frame_id: "node1_radarinterface_radarscan"
range: 2.03248763084
angle: -0.268328100443
elev: 0.339353173971
doppler: 0.159006148577
snr: 209
noise: 411
frame_num: 6270
point_id: 23
x: -0.508121907711
y: 1.84799146652
z: 0.676568865776
doppler_bin: 34
target_idx: 10
posX: -0.633765399456
posY: 1.77012455463
posZ: 0.911823272705
velX: -0.339469045401
velY: -0.0107556283474
velZ: 0.218143612146
accX: 0.0
accY: 0.0
accZ: 0.0
---
header: 
  seq: 45618
  stamp: 
    secs: 1596523468
    nsecs: 238732532
  frame_id: "node1_radarinterface_radarscan"
range: 2.18883275986
angle: -0.251059532166
elev: 0.493820697069
doppler: 0.159006148577
snr: 235
noise: 416
frame_num: 6270
point_id: 25
x: -0.47880718112
y: 1.86690688133
z: 1.03749263287
doppler_bin: 34
target_idx: 10
posX: -0.633765399456
posY: 1.77012455463
posZ: 0.911823272705
velX: -0.339469045401
velY: -0.0107556283474
velZ: 0.218143612146
accX: 0.0
accY: 0.0
accZ: 0.0
---
header: 
  seq: 45619
  stamp: 
    secs: 1596523468
    nsecs: 238803679
  frame_id: "node1_radarinterface_radarscan"
range: 2.11066031456
angle: -0.248954504728
elev: 0.478216379881
doppler: 0.238509222865
snr: 231
noise: 379
frame_num: 6270
point_id: 27
x: -0.461706936359
y: 1.81610965729
z: 0.971318244934
doppler_bin: 35
target_idx: 10
posX: -0.633765399456
posY: 1.77012455463
posZ: 0.911823272705
velX: -0.339469045401
velY: -0.0107556283474
velZ: 0.218143612146
accX: 0.0
accY: 0.0
accZ: 0.0
---
header: 
  seq: 45620
  stamp: 
    secs: 1596523468
    nsecs: 238833960
  frame_id: "node1_radarinterface_radarscan"
range: 1.87614250183
angle: -0.328532576561
elev: 0.251547455788
doppler: -0.0795030742884
snr: 143
noise: 538
frame_num: 6270
point_id: 46
x: -0.586294531822
y: 1.71991324425
z: 0.466977506876
doppler_bin: 31
target_idx: 10
posX: -0.633765399456
posY: 1.77012455463
posZ: 0.911823272705
velX: -0.339469045401
velY: -0.0107556283474
velZ: 0.218143612146
accX: 0.0
accY: 0.0
accZ: 0.0
---
header: 
  seq: 45621
  stamp: 
    secs: 1596523468
    nsecs: 238850113
  frame_id: "node1_radarinterface_radarscan"
range: 2.03248763084
angle: -0.397437095642
elev: 0.250248730183
doppler: -0.0795030742884
snr: 137
noise: 485
frame_num: 6270
point_id: 48
x: -0.762182831764
y: 1.81569182873
z: 0.503335297108
doppler_bin: 31
target_idx: 10
posX: -0.633765399456
posY: 1.77012455463
posZ: 0.911823272705
velX: -0.339469045401
velY: -0.0107556283474
velZ: 0.218143612146
accX: 0.0
accY: 0.0
accZ: 0.0
---
header: 
  seq: 45622
  stamp: 
    secs: 1596523468
    nsecs: 343502915
  frame_id: "node1_radarinterface_radarscan"
range: 1.87614250183
angle: -0.195879384875
elev: 0.271497279406
doppler: 0.0795030742884
snr: 178
noise: 481
frame_num: 6271
point_id: 6
x: -0.351776719093
y: 1.77285671234
z: 0.503132939339
doppler_bin: 33
target_idx: 10
posX: -0.628587067127
posY: 1.77778100967
posZ: 0.920969307423
velX: -0.235671430826
velY: 0.0333990715444
velZ: 0.10367628932
accX: 0.0
accY: 0.0
accZ: 0.0
---
header: 
  seq: 45623
  stamp: 
    secs: 1596523468
    nsecs: 343576457
  frame_id: "node1_radarinterface_radarscan"
range: 1.95431506634
angle: -0.198017433286
elev: 0.307468444109
doppler: 0.0795030742884
snr: 228
noise: 457
frame_num: 6271
point_id: 7
x: -0.366434067488
y: 1.82626402378
z: 0.591467142105
doppler_bin: 33
target_idx: 10
posX: -0.628587067127
posY: 1.77778100967
posZ: 0.920969307423
velX: -0.235671430826
velY: 0.0333990715444
velZ: 0.10367628932
accX: 0.0
accY: 0.0
accZ: 0.0
---
header: 
  seq: 45624
  stamp: 
    secs: 1596523468
    nsecs: 343604003
  frame_id: "node1_radarinterface_radarscan"
range: 2.03248763084
angle: -0.313080906868
elev: 0.419788002968
doppler: -0.0795030742884
snr: 233
noise: 468
frame_num: 6271
point_id: 25
x: -0.571637153625
y: 1.76579511166
z: 0.828374624252
doppler_bin: 31
target_idx: 10
posX: -0.628587067127
posY: 1.77778100967
posZ: 0.920969307423
velX: -0.235671430826
velY: 0.0333990715444
velZ: 0.10367628932
accX: 0.0
accY: 0.0
accZ: 0.0
---
header: 
  seq: 45625
  stamp: 
    secs: 1596523468
    nsecs: 343628233
  frame_id: "node1_radarinterface_radarscan"
range: 2.18883275986
angle: -0.316174447536
elev: 0.440506160259
doppler: -0.0795030742884
snr: 206
noise: 450
frame_num: 6271
point_id: 27
x: -0.615609228611
y: 1.88173913956
z: 0.933312535286
doppler_bin: 31
target_idx: 10
posX: -0.628587067127
posY: 1.77778100967
posZ: 0.920969307423
velX: -0.235671430826
velY: 0.0333990715444
velZ: 0.10367628932
accX: 0.0
accY: 0.0
accZ: 0.0
---
header: 
  seq: 45626
  stamp: 
    secs: 1596523468
    nsecs: 443768637
  frame_id: "node1_radarinterface_radarscan"
range: 1.87614250183
angle: -0.256079018116
elev: 0.161337435246
doppler: 0.0
snr: 157
noise: 436
frame_num: 6272
point_id: 1
x: -0.469035625458
y: 1.79139220715
z: 0.301380574703
doppler_bin: 32
target_idx: 10
posX: -0.699145317078
posY: 1.77939426899
posZ: 0.808549702168
velX: -0.353522568941
velY: -0.0220191329718
velZ: -0.354786068201
accX: 0.0
accY: 0.0
accZ: 0.0
---
header: 
  seq: 45627
  stamp: 
    secs: 1596523468
    nsecs: 443867165
  frame_id: "node1_radarinterface_radarscan"
range: 1.87614250183
angle: -0.290059834719
elev: 0.182688713074
doppler: 0.0795030742884
snr: 195
noise: 446
frame_num: 6272
point_id: 7
x: -0.527665138245
y: 1.76785290241
z: 0.340846687555
doppler_bin: 33
target_idx: 10
posX: -0.699145317078
posY: 1.77939426899
posZ: 0.808549702168
velX: -0.353522568941
velY: -0.0220191329718
velZ: -0.354786068201
accX: 0.0
accY: 0.0
accZ: 0.0
---
header: 
  seq: 45628
  stamp: 
    secs: 1596523468
    nsecs: 443886704
  frame_id: "node1_radarinterface_radarscan"
range: 2.11066031456
angle: -0.195792019367
elev: 0.269910335541
doppler: 0.55652153492
snr: 231
noise: 372
frame_num: 6272
point_id: 12
x: -0.395748794079
y: 1.99537682533
z: 0.56279706955
doppler_bin: 39
target_idx: 10
posX: -0.699145317078
posY: 1.77939426899
posZ: 0.808549702168
velX: -0.353522568941
velY: -0.0220191329718
velZ: -0.354786068201
accX: 0.0
accY: 0.0
accZ: 0.0
---
header: 
  seq: 45629
  stamp: 
    secs: 1596523468
    nsecs: 443906654
  frame_id: "node1_radarinterface_radarscan"
range: 2.11066031456
angle: -0.196823209524
elev: 0.28801292181
doppler: 0.636024594307
snr: 236
noise: 372
frame_num: 6272
point_id: 14
x: -0.395748823881
y: 1.98465013504
z: 0.599527895451
doppler_bin: 40
target_idx: 10
posX: -0.699145317078
posY: 1.77939426899
posZ: 0.808549702168
velX: -0.353522568941
velY: -0.0220191329718
velZ: -0.354786068201
accX: 0.0
accY: 0.0
accZ: 0.0
---
header: 
  seq: 45630
  stamp: 
    secs: 1596523468
    nsecs: 443930058
  frame_id: "node1_radarinterface_radarscan"
range: 1.87614250183
angle: -0.591820001602
elev: 0.459527164698
doppler: -0.874533832073
snr: 270
noise: 370
frame_num: 6272
point_id: 18
x: -0.93807131052
y: 1.39553487301
z: 0.832114934921
doppler_bin: 21
target_idx: 10
posX: -0.699145317078
posY: 1.77939426899
posZ: 0.808549702168
velX: -0.353522568941
velY: -0.0220191329718
velZ: -0.354786068201
accX: 0.0
accY: 0.0
accZ: 0.0
---
header: 
  seq: 45631
  stamp: 
    secs: 1596523468
    nsecs: 443987076
  frame_id: "node1_radarinterface_radarscan"
range: 2.11066031456
angle: -0.412040323019
elev: 0.358634471893
doppler: -0.238509222865
snr: 377
noise: 382
frame_num: 6272
point_id: 21
x: -0.791497647762
y: 1.81096243858
z: 0.740833163261
doppler_bin: 29
target_idx: 10
posX: -0.699145317078
posY: 1.77939426899
posZ: 0.808549702168
velX: -0.353522568941
velY: -0.0220191329718
velZ: -0.354786068201
accX: 0.0
accY: 0.0
accZ: 0.0
---
header: 
  seq: 45632
  stamp: 
    secs: 1596523468
    nsecs: 444004690
  frame_id: "node1_radarinterface_radarscan"
range: 2.03248763084
angle: -0.462132364511
elev: 0.424693793058
doppler: -0.159006148577
snr: 309
noise: 400
frame_num: 6272
point_id: 25
x: -0.825698077679
y: 1.65767085552
z: 0.837469875813
doppler_bin: 30
target_idx: 10
posX: -0.699145317078
posY: 1.77939426899
posZ: 0.808549702168
velX: -0.353522568941
velY: -0.0220191329718
velZ: -0.354786068201
accX: 0.0
accY: 0.0
accZ: 0.0
---
header: 
  seq: 45633
  stamp: 
    secs: 1596523468
    nsecs: 444021843
  frame_id: "node1_radarinterface_radarscan"
range: 2.18883275986
angle: -0.415250182152
elev: 0.37759244442
doppler: -0.159006148577
snr: 306
noise: 402
frame_num: 6272
point_id: 27
x: -0.820812284946
y: 1.8617272377
z: 0.806986689568
doppler_bin: 30
target_idx: 10
posX: -0.699145317078
posY: 1.77939426899
posZ: 0.808549702168
velX: -0.353522568941
velY: -0.0220191329718
velZ: -0.354786068201
accX: 0.0
accY: 0.0
accZ: 0.0
---
header: 
  seq: 45634
  stamp: 
    secs: 1596523468
    nsecs: 444038762
  frame_id: "node1_radarinterface_radarscan"
range: 1.87614250183
angle: -0.288236021996
elev: 0.145689576864
doppler: -0.0795030742884
snr: 189
noise: 490
frame_num: 6272
point_id: 32
x: -0.52766507864
y: 1.77968978882
z: 0.272368490696
doppler_bin: 31
target_idx: 10
posX: -0.699145317078
posY: 1.77939426899
posZ: 0.808549702168
velX: -0.353522568941
velY: -0.0220191329718
velZ: -0.354786068201
accX: 0.0
accY: 0.0
accZ: 0.0
---
header: 
  seq: 45635
  stamp: 
    secs: 1596523468
    nsecs: 543608146
  frame_id: "node1_radarinterface_radarscan"
range: 2.11066031456
angle: -0.371417731047
elev: 0.326613098383
doppler: 0.0
snr: 309
noise: 408
frame_num: 6273
point_id: 1
x: -0.725539445877
y: 1.8627692461
z: 0.677177965641
doppler_bin: 32
target_idx: 10
posX: -0.73689866066
posY: 1.84504365921
posZ: 0.659973263741
velX: -0.365861654282
velY: 0.186956822872
velZ: -0.793772578239
accX: 0.0
accY: 0.0
accZ: 0.0
---
header: 
  seq: 45636
  stamp: 
    secs: 1596523468
    nsecs: 543657409
  frame_id: "node1_radarinterface_radarscan"
range: 2.11066031456
angle: -0.262160331011
elev: 0.266773343086
doppler: 0.0795030742884
snr: 276
noise: 425
frame_num: 6273
point_id: 9
x: -0.52766507864
y: 1.96643352509
z: 0.556412875652
doppler_bin: 33
target_idx: 10
posX: -0.73689866066
posY: 1.84504365921
posZ: 0.659973263741
velX: -0.365861654282
velY: 0.186956822872
velZ: -0.793772578239
accX: 0.0
accY: 0.0
accZ: 0.0
---
header: 
  seq: 45637
  stamp: 
    secs: 1596523468
    nsecs: 543713424
  frame_id: "node1_radarinterface_radarscan"
range: 2.11066031456
angle: -0.295854717493
elev: 0.266697227955
doppler: 0.159006148577
snr: 269
noise: 409
frame_num: 6273
point_id: 12
x: -0.593623161316
y: 1.94758200645
z: 0.556257903576
doppler_bin: 34
target_idx: 10
posX: -0.73689866066
posY: 1.84504365921
posZ: 0.659973263741
velX: -0.365861654282
velY: 0.186956822872
velZ: -0.793772578239
accX: 0.0
accY: 0.0
accZ: 0.0
---
header: 
  seq: 45638
  stamp: 
    secs: 1596523468
    nsecs: 543729480
  frame_id: "node1_radarinterface_radarscan"
range: 1.87614250183
angle: -0.57791519165
elev: 0.235110372305
doppler: 0.47701844573
snr: 293
noise: 360
frame_num: 6273
point_id: 14
x: -0.996700704098
y: 1.52823019028
z: 0.437047988176
doppler_bin: 38
target_idx: 10
posX: -0.73689866066
posY: 1.84504365921
posZ: 0.659973263741
velX: -0.365861654282
velY: 0.186956822872
velZ: -0.793772578239
accX: 0.0
accY: 0.0
accZ: 0.0
---
header: 
  seq: 45639
  stamp: 
    secs: 1596523468
    nsecs: 543746976
  frame_id: "node1_radarinterface_radarscan"
range: 1.95431506634
angle: -0.575603663921
elev: 0.219757810235
doppler: 0.636024594307
snr: 237
noise: 376
frame_num: 6273
point_id: 18
x: -1.03822994232
y: 1.59997701645
z: 0.42602750659
doppler_bin: 40
target_idx: 10
posX: -0.73689866066
posY: 1.84504365921
posZ: 0.659973263741
velX: -0.365861654282
velY: 0.186956822872
velZ: -0.793772578239
accX: 0.0
accY: 0.0
accZ: 0.0
---
header: 
  seq: 45640
  stamp: 
    secs: 1596523468
    nsecs: 543763909
  frame_id: "node1_radarinterface_radarscan"
range: 2.42335057259
angle: -0.0970354676247
elev: 0.255015224218
doppler: -0.238509222865
snr: 117
noise: 465
frame_num: 6273
point_id: 21
x: -0.227189123631
y: 2.33394670486
z: 0.61131477356
doppler_bin: 29
target_idx: 10
posX: -0.73689866066
posY: 1.84504365921
posZ: 0.659973263741
velX: -0.365861654282
velY: 0.186956822872
velZ: -0.793772578239
accX: 0.0
accY: 0.0
accZ: 0.0
---
header: 
  seq: 45641
  stamp: 
    secs: 1596523468
    nsecs: 543804672
  frame_id: "node1_radarinterface_radarscan"
range: 2.11066031456
angle: -0.332828372717
elev: 0.296092808247
doppler: -0.159006148577
snr: 325
noise: 398
frame_num: 6273
point_id: 27
x: -0.659581303596
y: 1.90802407265
z: 0.615859627724
doppler_bin: 30
target_idx: 10
posX: -0.73689866066
posY: 1.84504365921
posZ: 0.659973263741
velX: -0.365861654282
velY: 0.186956822872
velZ: -0.793772578239
accX: 0.0
accY: 0.0
accZ: 0.0
---
header: 
  seq: 45642
  stamp: 
    secs: 1596523468
    nsecs: 543817514
  frame_id: "node1_radarinterface_radarscan"
range: 1.79796981812
angle: -0.295469611883
elev: 0.262026518583
doppler: -0.0795030742884
snr: 148
noise: 461
frame_num: 6273
point_id: 35
x: -0.50567895174
y: 1.66134500504
z: 0.465743273497
doppler_bin: 31
target_idx: 10
posX: -0.73689866066
posY: 1.84504365921
posZ: 0.659973263741
velX: -0.365861654282
velY: 0.186956822872
velZ: -0.793772578239
accX: 0.0
accY: 0.0
accZ: 0.0
---
header: 
  seq: 45643
  stamp: 
    secs: 1596523468
    nsecs: 543829077
  frame_id: "node1_radarinterface_radarscan"
range: 1.95431506634
angle: -0.301538228989
elev: 0.327020853758
doppler: -0.0795030742884
snr: 268
noise: 434
frame_num: 6273
point_id: 37
x: -0.54965108633
y: 1.76723921299
z: 0.627771317959
doppler_bin: 31
target_idx: 10
posX: -0.73689866066
posY: 1.84504365921
posZ: 0.659973263741
velX: -0.365861654282
velY: 0.186956822872
velZ: -0.793772578239
accX: 0.0
accY: 0.0
accZ: 0.0
---
header: 
  seq: 45644
  stamp: 
    secs: 1596523468
    nsecs: 543840891
  frame_id: "node1_radarinterface_radarscan"
range: 2.03248763084
angle: -0.303939551115
elev: 0.348896116018
doppler: -0.0795030742884
snr: 315
noise: 423
frame_num: 6273
point_id: 38
x: -0.571637094021
y: 1.82248497009
z: 0.694827497005
doppler_bin: 31
target_idx: 10
posX: -0.73689866066
posY: 1.84504365921
posZ: 0.659973263741
velX: -0.365861654282
velY: 0.186956822872
velZ: -0.793772578239
accX: 0.0
accY: 0.0
accZ: 0.0
---
header: 
  seq: 45645
  stamp: 
    secs: 1596523468
    nsecs: 543856210
  frame_id: "node1_radarinterface_radarscan"
range: 2.11066031456
angle: -0.335747927427
elev: 0.322401016951
doppler: -0.0795030742884
snr: 336
noise: 417
frame_num: 6273
point_id: 39
x: -0.659581303596
y: 1.89013504982
z: 0.668751716614
doppler_bin: 31
target_idx: 10
