header: 
  seq: 107133
  stamp: 
    secs: 1596524118
    nsecs: 771707485
  frame_id: "node1_radarinterface_radarscan"
range: 2.42335057259
angle: -0.323373943567
elev: 0.182331502438
doppler: 0.0
snr: 308
noise: 387
frame_num: 12540
point_id: 1
x: -0.757297039032
y: 2.25965666771
z: 0.439408987761
doppler_bin: 32
target_idx: 13
posX: -0.822870075703
posY: 2.27449536324
posZ: 0.696292281151
velX: 0.0556327924132
velY: 0.0664294660091
velZ: 0.17643199861
accX: 0.0
accY: 0.0
accZ: 0.0
---
header: 
  seq: 107134
  stamp: 
    secs: 1596524118
    nsecs: 771758401
  frame_id: "node1_radarinterface_radarscan"
range: 2.26700544357
angle: -0.331120163202
elev: 0.279348790646
doppler: 0.0795030742884
snr: 114
noise: 399
frame_num: 12540
point_id: 9
x: -0.708439290524
y: 2.06075286865
z: 0.625080823898
doppler_bin: 33
target_idx: 13
posX: -0.822870075703
posY: 2.27449536324
posZ: 0.696292281151
velX: 0.0556327924132
velY: 0.0664294660091
velZ: 0.17643199861
accX: 0.0
accY: 0.0
accZ: 0.0
---
header: 
  seq: 107135
  stamp: 
    secs: 1596524118
    nsecs: 771801384
  frame_id: "node1_radarinterface_radarscan"
range: 2.42335057259
angle: -0.357284486294
elev: 0.185213923454
doppler: 0.0795030742884
snr: 358
noise: 385
frame_num: 12540
point_id: 11
x: -0.833026707172
y: 2.2314863205
z: 0.44627648592
doppler_bin: 33
target_idx: 13
posX: -0.822870075703
posY: 2.27449536324
posZ: 0.696292281151
velX: 0.0556327924132
velY: 0.0664294660091
velZ: 0.17643199861
accX: 0.0
accY: 0.0
accZ: 0.0
---
header: 
  seq: 107136
  stamp: 
    secs: 1596524118
    nsecs: 771812921
  frame_id: "node1_radarinterface_radarscan"
range: 2.5015232563
angle: -0.322170138359
elev: 0.161610081792
doppler: 0.0795030742884
snr: 345
noise: 383
frame_num: 12540
point_id: 12
x: -0.781726002693
y: 2.34190225601
z: 0.402513891459
doppler_bin: 33
target_idx: 13
posX: -0.822870075703
posY: 2.27449536324
posZ: 0.696292281151
velX: 0.0556327924132
velY: 0.0664294660091
velZ: 0.17643199861
accX: 0.0
accY: 0.0
accZ: 0.0
---
header: 
  seq: 107137
  stamp: 
    secs: 1596524118
    nsecs: 771823418
  frame_id: "node1_radarinterface_radarscan"
range: 2.65786838531
angle: -0.387512207031
elev: 0.428318977356
doppler: 0.0795030742884
snr: 286
noise: 399
frame_num: 12540
point_id: 14
x: -0.91364222765
y: 2.23849749565
z: 1.1039249897
doppler_bin: 33
target_idx: 13
posX: -0.822870075703
posY: 2.27449536324
posZ: 0.696292281151
velX: 0.0556327924132
velY: 0.0664294660091
velZ: 0.17643199861
accX: 0.0
accY: 0.0
accZ: 0.0
---
header: 
  seq: 107138
  stamp: 
    secs: 1596524118
    nsecs: 771838926
  frame_id: "node1_radarinterface_radarscan"
range: 2.34517812729
angle: -0.361428201199
elev: 0.236709997058
doppler: 0.159006148577
snr: 206
noise: 373
frame_num: 12540
point_id: 18
x: -0.806155025959
y: 2.13249182701
z: 0.549957513809
doppler_bin: 34
target_idx: 13
posX: -0.822870075703
posY: 2.27449536324
posZ: 0.696292281151
velX: 0.0556327924132
velY: 0.0664294660091
velZ: 0.17643199861
accX: 0.0
accY: 0.0
accZ: 0.0
---
header: 
  seq: 107139
  stamp: 
    secs: 1596524118
    nsecs: 771996492
  frame_id: "node1_radarinterface_radarscan"
range: 2.73604106903
angle: -0.33709102869
elev: 0.333685338497
doppler: 0.159006148577
snr: 211
noise: 407
frame_num: 12540
point_id: 22
x: -0.855012834072
y: 2.43963694572
z: 0.896128177643
doppler_bin: 34
target_idx: 13
posX: -0.822870075703
posY: 2.27449536324
posZ: 0.696292281151
velX: 0.0556327924132
velY: 0.0664294660091
velZ: 0.17643199861
accX: 0.0
accY: 0.0
accZ: 0.0
---
header: 
  seq: 107140
  stamp: 
    secs: 1596524118
    nsecs: 772119498
  frame_id: "node1_radarinterface_radarscan"
range: 2.81421375275
angle: -0.474886506796
elev: 0.609135985374
doppler: 0.159006148577
snr: 148
noise: 444
frame_num: 12540
point_id: 23
x: -1.05533015728
y: 2.05265784264
z: 1.61017787457
doppler_bin: 34
target_idx: 13
posX: -0.822870075703
posY: 2.27449536324
posZ: 0.696292281151
velX: 0.0556327924132
velY: 0.0664294660091
velZ: 0.17643199861
accX: 0.0
accY: 0.0
accZ: 0.0
---
header: 
  seq: 107141
  stamp: 
    secs: 1596524118
    nsecs: 772282102
  frame_id: "node1_radarinterface_radarscan"
range: 2.42335057259
angle: -0.37152710557
elev: 0.327440649271
doppler: 0.238509222865
snr: 283
noise: 373
frame_num: 12540
point_id: 26
x: -0.833026766777
y: 2.13804364204
z: 0.779399752617
doppler_bin: 35
target_idx: 13
posX: -0.822870075703
posY: 2.27449536324
posZ: 0.696292281151
velX: 0.0556327924132
velY: 0.0664294660091
velZ: 0.17643199861
accX: 0.0
accY: 0.0
accZ: 0.0
---
header: 
  seq: 107142
  stamp: 
    secs: 1596524118
    nsecs: 772333991
  frame_id: "node1_radarinterface_radarscan"
range: 2.5015232563
angle: -0.376864612103
elev: 0.365106612444
doppler: 0.238509222865
snr: 321
noise: 374
frame_num: 12540
point_id: 27
x: -0.859898626804
y: 2.17265892029
z: 0.893166065216
doppler_bin: 35
target_idx: 13
posX: -0.822870075703
posY: 2.27449536324
posZ: 0.696292281151
velX: 0.0556327924132
velY: 0.0664294660091
velZ: 0.17643199861
accX: 0.0
accY: 0.0
accZ: 0.0
---
header: 
  seq: 107143
  stamp: 
    secs: 1596524118
    nsecs: 772344488
  frame_id: "node1_radarinterface_radarscan"
range: 2.73604106903
angle: -0.344361007214
elev: 0.388007879257
doppler: 0.238509222865
snr: 249
noise: 404
frame_num: 12540
point_id: 29
x: -0.855012834072
y: 2.38396763802
z: 1.0351678133
doppler_bin: 35
target_idx: 13
posX: -0.822870075703
posY: 2.27449536324
posZ: 0.696292281151
velX: 0.0556327924132
velY: 0.0664294660091
velZ: 0.17643199861
accX: 0.0
accY: 0.0
accZ: 0.0
---
header: 
  seq: 107144
  stamp: 
    secs: 1596524118
    nsecs: 772356212
  frame_id: "node1_radarinterface_radarscan"
range: 2.42335057259
angle: -0.355786412954
elev: 0.162300154567
doppler: -0.0795030742884
snr: 299
noise: 388
frame_num: 12540
point_id: 33
x: -0.833026707172
y: 2.24173021317
z: 0.391585737467
doppler_bin: 31
target_idx: 13
posX: -0.822870075703
posY: 2.27449536324
posZ: 0.696292281151
velX: 0.0556327924132
velY: 0.0664294660091
velZ: 0.17643199861
accX: 0.0
accY: 0.0
accZ: 0.0
---
header: 
  seq: 107145
  stamp: 
    secs: 1596524118
    nsecs: 870892865
  frame_id: "node1_radarinterface_radarscan"
range: 2.26700544357
angle: -0.318724542856
elev: 0.0739145427942
doppler: 0.0
snr: 128
noise: 397
frame_num: 12541
point_id: 0
x: -0.708439230919
y: 2.14695167542
z: 0.167412132025
doppler_bin: 32
target_idx: 13
posX: -0.853058278561
posY: 2.26564645767
posZ: 0.677747070789
velX: -0.0363453999162
velY: 0.00414055213332
velZ: 0.08657836169
accX: 0.0
accY: 0.0
accZ: 0.0
---
header: 
  seq: 107146
  stamp: 
    secs: 1596524118
    nsecs: 870964923
  frame_id: "node1_radarinterface_radarscan"
range: 2.5015232563
angle: -0.323365867138
elev: 0.182200580835
doppler: 0.0
snr: 378
noise: 382
frame_num: 12541
point_id: 3
x: -0.781726002693
y: 2.33261156082
z: 0.45326140523
doppler_bin: 32
target_idx: 13
posX: -0.853058278561
posY: 2.26564645767
posZ: 0.677747070789
velX: -0.0363453999162
velY: 0.00414055213332
velZ: 0.08657836169
accX: 0.0
accY: 0.0
accZ: 0.0
---
header: 
  seq: 107147
  stamp: 
    secs: 1596524118
    nsecs: 870978873
  frame_id: "node1_radarinterface_radarscan"
range: 2.42335057259
angle: -0.355929553509
elev: 0.164635047317
doppler: 0.0795030742884
snr: 421
noise: 385
frame_num: 12541
point_id: 10
x: -0.833026707172
y: 2.24074792862
z: 0.397168546915
doppler_bin: 33
target_idx: 13
posX: -0.853058278561
posY: 2.26564645767
posZ: 0.677747070789
velX: -0.0363453999162
velY: 0.00414055213332
velZ: 0.08657836169
accX: 0.0
accY: 0.0
accZ: 0.0
---
header: 
  seq: 107148
  stamp: 
    secs: 1596524118
    nsecs: 870992883
  frame_id: "node1_radarinterface_radarscan"
range: 2.5015232563
angle: -0.32366245985
elev: 0.186938688159
doppler: 0.0795030742884
snr: 416
noise: 386
frame_num: 12541
point_id: 11
x: -0.781726062298
y: 2.33031749725
z: 0.464912593365
doppler_bin: 33
target_idx: 13
posX: -0.853058278561
posY: 2.26564645767
posZ: 0.677747070789
velX: -0.0363453999162
velY: 0.00414055213332
velZ: 0.08657836169
accX: 0.0
accY: 0.0
accZ: 0.0
---
header: 
  seq: 107149
  stamp: 
    secs: 1596524118
    nsecs: 871011869
  frame_id: "node1_radarinterface_radarscan"
range: 2.57969594002
angle: -0.334005862474
elev: 0.307022839785
doppler: 0.0795030742884
snr: 364
noise: 390
frame_num: 12541
point_id: 12
x: -0.806154966354
y: 2.32316708565
z: 0.779640972614
doppler_bin: 33
target_idx: 13
posX: -0.853058278561
posY: 2.26564645767
posZ: 0.677747070789
velX: -0.0363453999162
velY: 0.00414055213332
velZ: 0.08657836169
accX: 0.0
accY: 0.0
accZ: 0.0
---
header: 
  seq: 107150
  stamp: 
    secs: 1596524118
    nsecs: 871069347
  frame_id: "node1_radarinterface_radarscan"
range: 2.26700544357
angle: -0.322453916073
elev: 0.166739329696
doppler: 0.159006148577
snr: 131
noise: 389
frame_num: 12541
point_id: 14
x: -0.708439171314
y: 2.12034511566
z: 0.376249879599
doppler_bin: 34
target_idx: 13
posX: -0.853058278561
posY: 2.26564645767
posZ: 0.677747070789
velX: -0.0363453999162
velY: 0.00414055213332
velZ: 0.08657836169
accX: 0.0
accY: 0.0
accZ: 0.0
---
header: 
  seq: 107151
  stamp: 
    secs: 1596524118
    nsecs: 871087041
  frame_id: "node1_radarinterface_radarscan"
range: 2.5015232563
angle: -0.323285847902
elev: 0.180899858475
doppler: 0.159006148577
snr: 360
noise: 375
frame_num: 12541
point_id: 17
x: -0.781726002693
y: 2.33323121071
z: 0.450061112642
doppler_bin: 34
target_idx: 13
posX: -0.853058278561
posY: 2.26564645767
posZ: 0.677747070789
velX: -0.0363453999162
velY: 0.00414055213332
velZ: 0.08657836169
accX: 0.0
accY: 0.0
accZ: 0.0
---
header: 
  seq: 107152
  stamp: 
    secs: 1596524118
    nsecs: 871103193
  frame_id: "node1_radarinterface_radarscan"
range: 2.57969594002
angle: -0.416554033756
elev: 0.384956359863
doppler: 0.159006148577
snr: 340
noise: 379
frame_num: 12541
point_id: 18
x: -0.967385947704
y: 2.18645119667
z: 0.968724012375
doppler_bin: 34
target_idx: 13
posX: -0.853058278561
posY: 2.26564645767
posZ: 0.677747070789
velX: -0.0363453999162
velY: 0.00414055213332
velZ: 0.08657836169
accX: 0.0
accY: 0.0
accZ: 0.0
---
header: 
  seq: 107153
  stamp: 
    secs: 1596524118
    nsecs: 871120192
  frame_id: "node1_radarinterface_radarscan"
range: 2.65786838531
angle: -0.405902832747
elev: 0.318418860435
doppler: 0.159006148577
snr: 306
noise: 397
frame_num: 12541
point_id: 19
x: -0.996700704098
y: 2.31915616989
z: 0.832086324692
doppler_bin: 34
target_idx: 13
posX: -0.853058278561
posY: 2.26564645767
posZ: 0.677747070789
velX: -0.0363453999162
velY: 0.00414055213332
velZ: 0.08657836169
accX: 0.0
accY: 0.0
accZ: 0.0
---
header: 
  seq: 107154
  stamp: 
    secs: 1596524118
    nsecs: 871135999
  frame_id: "node1_radarinterface_radarscan"
range: 2.5015232563
angle: -0.377463191748
elev: 0.369036585093
doppler: 0.238509222865
snr: 282
noise: 378
frame_num: 12541
point_id: 23
x: -0.859898626804
y: 2.16886401176
z: 0.90234208107
doppler_bin: 35
target_idx: 13
posX: -0.853058278561
posY: 2.26564645767
posZ: 0.677747070789
velX: -0.0363453999162
velY: 0.00414055213332
velZ: 0.08657836169
accX: 0.0
accY: 0.0
accZ: 0.0
---
header: 
  seq: 107155
  stamp: 
    secs: 1596524118
    nsecs: 871154735
  frame_id: "node1_radarinterface_radarscan"
range: 2.57969594002
angle: -0.408983319998
elev: 0.339332610369
doppler: 0.238509222865
snr: 298
noise: 382
frame_num: 12541
point_id: 24
x: -0.967386007309
y: 2.23196744919
z: 0.85867202282
doppler_bin: 35
target_idx: 13
posX: -0.853058278561
posY: 2.26564645767
posZ: 0.677747070789
velX: -0.0363453999162
velY: 0.00414055213332
velZ: 0.08657836169
accX: 0.0
accY: 0.0
accZ: 0.0
---
header: 
  seq: 107156
  stamp: 
    secs: 1596524118
    nsecs: 871171285
  frame_id: "node1_radarinterface_radarscan"
range: 2.5015232563
angle: -0.548799455166
elev: 0.454300999641
doppler: -0.795030713081
snr: 300
noise: 378
frame_num: 12541
point_id: 28
x: -1.17258894444
y: 1.91770410538
z: 1.09775424004
doppler_bin: 22
target_idx: 13
posX: -0.853058278561
posY: 2.26564645767
posZ: 0.677747070789
velX: -0.0363453999162
velY: 0.00414055213332
velZ: 0.08657836169
accX: 0.0
accY: 0.0
accZ: 0.0
---
header: 
  seq: 107157
  stamp: 
    secs: 1596524118
    nsecs: 871243963
  frame_id: "node1_radarinterface_radarscan"
range: 2.57969594002
angle: -0.55643004179
elev: 0.478865414858
doppler: -0.795030713081
snr: 287
noise: 382
frame_num: 12541
point_id: 29
x: -1.20923256874
y: 1.94414305687
z: 1.18865299225
doppler_bin: 22
target_idx: 13
posX: -0.853058278561
posY: 2.26564645767
posZ: 0.677747070789
velX: -0.0363453999162
velY: 0.00414055213332
velZ: 0.08657836169
accX: 0.0
accY: 0.0
accZ: 0.0
---
header: 
  seq: 107158
  stamp: 
    secs: 1596524118
    nsecs: 871266748
  frame_id: "node1_radarinterface_radarscan"
range: 2.34517812729
angle: -0.322092235088
elev: 0.160171717405
doppler: -0.0795030742884
snr: 186
noise: 383
frame_num: 12541
point_id: 35
x: -0.732868134975
y: 2.19610285759
z: 0.374027132988
doppler_bin: 31
target_idx: 13
posX: -0.853058278561
posY: 2.26564645767
posZ: 0.677747070789
velX: -0.0363453999162
velY: 0.00414055213332
velZ: 0.08657836169
accX: 0.0
accY: 0.0
accZ: 0.0
---
header: 
  seq: 107159
  stamp: 
    secs: 1596524118
    nsecs: 871287764
  frame_id: "node1_radarinterface_radarscan"
range: 2.42335057259
angle: -0.323043644428
elev: 0.176900431514
doppler: -0.0795030742884
snr: 257
noise: 380
frame_num: 12541
point_id: 36
x: -0.757297039032
y: 2.26213645935
z: 0.426459372044
doppler_bin: 31
target_idx: 13
posX: -0.853058278561
posY: 2.26564645767
posZ: 0.677747070789
velX: -0.0363453999162
velY: 0.00414055213332
velZ: 0.08657836169
accX: 0.0
accY: 0.0
accZ: 0.0
---
header: 
  seq: 107160
  stamp: 
    secs: 1596524118
    nsecs: 972701424
  frame_id: "node1_radarinterface_radarscan"
range: 2.34517812729
angle: -0.354272663593
elev: 0.135040581226
doppler: 0.0
snr: 250
noise: 390
frame_num: 12542
point_id: 2
x: -0.806154966354
y: 2.17951536179
z: 0.315732568502
doppler_bin: 32
target_idx: 13
posX: -0.860955178738
posY: 2.27207875252
posZ: 0.612664580345
velX: -0.0380144715309
velY: -0.0128546264023
velZ: -0.130069047213
accX: 0.0
accY: 0.0
accZ: 0.0
---
header: 
  seq: 107161
  stamp: 
    secs: 1596524118
    nsecs: 972787434
  frame_id: "node1_radarinterface_radarscan"
range: 2.26700544357
angle: -0.322627305984
elev: 0.169793456793
doppler: 0.0795030742884
snr: 119
noise: 415
frame_num: 12542
point_id: 9
x: -0.708439230919
y: 2.11912274361
z: 0.383075803518
doppler_bin: 33
target_idx: 13
posX: -0.860955178738
posY: 2.27207875252
posZ: 0.612664580345
velX: -0.0380144715309
velY: -0.0128546264023
velZ: -0.130069047213
accX: 0.0
accY: 0.0
accZ: 0.0
---
header: 
  seq: 107162
  stamp: 
    secs: 1596524118
    nsecs: 972801501
  frame_id: "node1_radarinterface_radarscan"
range: 2.42335057259
angle: -0.352524697781
elev: 0.0938169658184
doppler: 0.0795030742884
snr: 338
noise: 400
frame_num: 12542
point_id: 11
x: -0.833026766777
y: 2.26432275772
z: 0.227018028498
doppler_bin: 33
target_idx: 13
posX: -0.860955178738
posY: 2.27207875252
posZ: 0.612664580345
velX: -0.0380144715309
velY: -0.0128546264023
velZ: -0.130069047213
accX: 0.0
accY: 0.0
accZ: 0.0
---
header: 
  seq: 107163
  stamp: 
    secs: 1596524118
    nsecs: 972944458
  frame_id: "node1_radarinterface_radarscan"
range: 2.5015232563
angle: -0.384658485651
elev: 0.0359605364501
doppler: 0.0795030742884
snr: 322
noise: 394
frame_num: 12542
point_id: 12
x: -0.938071250916
y: 2.31722950935
z: 0.0899367332458
doppler_bin: 33
target_idx: 13
posX: -0.860955178738
posY: 2.27207875252
posZ: 0.612664580345
velX: -0.0380144715309
velY: -0.0128546264023
velZ: -0.130069047213
accX: 0.0
accY: 0.0
accZ: 0.0
---
header: 
  seq: 107164
  stamp: 
    secs: 1596524118
    nsecs: 972962956
  frame_id: "node1_radarinterface_radarscan"
range: 2.42335057259
angle: -0.351648807526
elev: 0.0635904148221
doppler: 0.159006148577
snr: 277
noise: 388
frame_num: 12542
point_id: 18
x: -0.833026766777
y: 2.27045798302
z: 0.153998032212
doppler_bin: 34
target_idx: 13
posX: -0.860955178738
posY: 2.27207875252
posZ: 0.612664580345
velX: -0.0380144715309
velY: -0.0128546264023
velZ: -0.130069047213
accX: 0.0
accY: 0.0
accZ: 0.0
---
header: 
  seq: 107165
  stamp: 
    secs: 1596524118
    nsecs: 972980119
  frame_id: "node1_radarinterface_radarscan"
range: 2.81421375275
angle: -0.314749777317
elev: 0.431132167578
doppler: -0.95403689146
snr: 233
noise: 389
frame_num: 12542
point_id: 22
x: -0.791497647762
y: 2.43109345436
z: 1.17605888844
doppler_bin: 20
target_idx: 13
posX: -0.860955178738
posY: 2.27207875252
posZ: 0.612664580345
velX: -0.0380144715309
velY: -0.0128546264023
velZ: -0.130069047213
accX: 0.0
accY: 0.0
accZ: 0.0
---
header: 
  seq: 107166
  stamp: 
    secs: 1596524118
    nsecs: 973031179
  frame_id: "node1_radarinterface_radarscan"
range: 2.65786838531
angle: -0.300937056541
elev: 0.321261972189
doppler: -0.318012297153
snr: 299
noise: 389
frame_num: 12542
point_id: 23
x: -0.747525453568
y: 2.40855002403
z: 0.83925974369
doppler_bin: 28
target_idx: 13
posX: -0.860955178738
posY: 2.27207875252
posZ: 0.612664580345
velX: -0.0380144715309
velY: -0.0128546264023
velZ: -0.130069047213
accX: 0.0
accY: 0.0
accZ: 0.0
---
header: 
  seq: 107167
  stamp: 
    secs: 1596524118
    nsecs: 973053513
  frame_id: "node1_radarinterface_radarscan"
range: 2.42335057259
angle: -0.369106411934
elev: 0.308497130871
doppler: -0.0795030742884
snr: 261
noise: 392
frame_num: 12542
point_id: 29
x: -0.833026766777
y: 2.15343928337
z: 0.735794782639
doppler_bin: 31
target_idx: 13
posX: -0.860955178738
posY: 2.27207875252
posZ: 0.612664580345
velX: -0.0380144715309
velY: -0.0128546264023
velZ: -0.130069047213
accX: 0.0
accY: 0.0
accZ: 0.0
---
header: 
  seq: 107168
  stamp: 
    secs: 1596524119
    nsecs:  72340211
  frame_id: "node1_radarinterface_radarscan"
range: 2.34517812729
angle: -0.328139990568
elev: 0.247020736337
doppler: 0.0
snr: 240
noise: 393
frame_num: 12543
point_id: 0
x: -0.732868134975
y: 2.15265822411
z: 0.573434114456
doppler_bin: 32
target_idx: 13
posX: -0.896716892719
posY: 2.27295255661
posZ: 0.591654419899
velX: -0.116730958223
velY: -0.0663085430861
velZ: -0.1843393296
accX: 0.0
accY: 0.0
accZ: 0.0
---
header: 
  seq: 107169
  stamp: 
    secs: 1596524119
    nsecs:  72435413
  frame_id: "node1_radarinterface_radarscan"
range: 2.73604106903
angle: -0.46732032299
elev: 0.240778014064
doppler: 0.0
snr: 232
noise: 430
frame_num: 12543
point_id: 3
x: -1.1970179081
y: 2.37221455574
z: 0.652431607246
doppler_bin: 32
target_idx: 13
posX: -0.896716892719
posY: 2.27295255661
posZ: 0.591654419899
velX: -0.116730958223
velY: -0.0663085430861
velZ: -0.1843393296
accX: 0.0
accY: 0.0
accZ: 0.0
---
header: 
  seq: 107170
  stamp: 
    secs: 1596524119
    nsecs:  72448452
  frame_id: "node1_radarinterface_radarscan"
range: 2.65786838531
angle: -0.465844750404
elev: 0.228522971272
doppler: 0.0795030742884
snr: 262
noise: 404
frame_num: 12543
point_id: 10
x: -1.16281735897
y: 2.31291627884
z: 0.60211122036
doppler_bin: 33
target_idx: 13
posX: -0.896716892719
posY: 2.27295255661
posZ: 0.591654419899
velX: -0.116730958223
velY: -0.0663085430861
velZ: -0.1843393296
accX: 0.0
accY: 0.0
accZ: 0.0
---
header: 
  seq: 107171
  stamp: 
    secs: 1596524119
    nsecs:  72468195
  frame_id: "node1_radarinterface_radarscan"
range: 2.73604106903
angle: -0.502603530884
elev: 0.232478156686
doppler: 0.0795030742884
snr: 292
noise: 427
frame_num: 12543
point_id: 11
x: -1.28251922131
y: 2.33317732811
z: 0.630355715752
doppler_bin: 33
target_idx: 13
posX: -0.896716892719
posY: 2.27295255661
posZ: 0.591654419899
velX: -0.116730958223
velY: -0.0663085430861
velZ: -0.1843393296
accX: 0.0
accY: 0.0
accZ: 0.0
---
header: 
  seq: 107172
  stamp: 
    secs: 1596524119
    nsecs:  72485209
  frame_id: "node1_radarinterface_radarscan"
range: 2.81421375275
angle: -0.501597344875
elev: 0.224599406123
doppler: 0.0795030742884
snr: 247
noise: 462
frame_num: 12543
point_id: 12
x: -1.3191627264
y: 2.40557026863
z: 0.626770019531
doppler_bin: 33
target_idx: 13
posX: -0.896716892719
posY: 2.27295255661
posZ: 0.591654419899
velX: -0.116730958223
velY: -0.0663085430861
velZ: -0.1843393296
accX: 0.0
accY: 0.0
accZ: 0.0
---
header: 
  seq: 107173
  stamp: 
    secs: 1596524119
    nsecs:  72502262
  frame_id: "node1_radarinterface_radarscan"
range: 3.43959450722
angle: -0.531755447388
elev: 0.391152709723
doppler: 0.159006148577
snr: 116
noise: 487
frame_num: 12543
point_id: 17
x: -1.61230993271
y: 2.74073004723
z: 1.31136023998
doppler_bin: 34
target_idx: 13
posX: -0.896716892719
posY: 2.27295255661
posZ: 0.591654419899
velX: -0.116730958223
velY: -0.0663085430861
velZ: -0.1843393296
accX: 0.0
accY: 0.0
accZ: 0.0
---
header: 
  seq: 107174
  stamp: 
    secs: 1596524119
    nsecs:  72518364
  frame_id: "node1_radarinterface_radarscan"
range: 2.97055888176
angle: -0.195624038577
elev: 0.266829222441
doppler: -2.22608613968
snr: 125
noise: 394
frame_num: 12543
point_id: 19
x: -0.556979775429
y: 2.81078243256
z: 0.783259749413
doppler_bin: 4
target_idx: 13
posX: -0.896716892719
posY: 2.27295255661
posZ: 0.591654419899
velX: -0.116730958223
velY: -0.0663085430861
velZ: -0.1843393296
accX: 0.0
accY: 0.0
accZ: 0.0
---
header: 
  seq: 107175
  stamp: 
    secs: 1596524119
    nsecs:  72534528
  frame_id: "node1_radarinterface_radarscan"
range: 3.04873156548
angle: -0.19593192637
elev: 0.272446572781
doppler: -2.14658308029
snr: 121
noise: 395
frame_num: 12543
point_id: 21
x: -0.57163721323
y: 2.88009977341
z: 0.82037883997
doppler_bin: 5
target_idx: 13
posX: -0.896716892719
posY: 2.27295255661
posZ: 0.591654419899
velX: -0.116730958223
velY: -0.0663085430861
velZ: -0.1843393296
accX: 0.0
accY: 0.0
accZ: 0.0
---
header: 
  seq: 107176
  stamp: 
    secs: 1596524119
    nsecs:  72582982
  frame_id: "node1_radarinterface_radarscan"
range: 2.26700544357
angle: -0.616207897663
elev: 0.231703743339
doppler: -0.238509222865
snr: 201
noise: 374
frame_num: 12543
point_id: 28
x: -1.27519059181
y: 1.80060899258
z: 0.520586192608
doppler_bin: 29
target_idx: 13
posX: -0.896716892719
posY: 2.27295255661
posZ: 0.591654419899
velX: -0.116730958223
velY: -0.0663085430861
velZ: -0.1843393296
accX: 0.0
accY: 0.0
accZ: 0.0
---
header: 
  seq: 107177
  stamp: 
    secs: 1596524119
    nsecs:  72596783
  frame_id: "node1_radarinterface_radarscan"
range: 2.34517812729
angle: -0.327442675829
elev: 0.238744705915
doppler: -0.0795030742884
snr: 283
noise: 400
frame_num: 12543
point_id: 46
x: -0.73286819458
y: 2.15758872032
z: 0.554595053196
doppler_bin: 31
target_idx: 13
posX: -0.896716892719
posY: 2.27295255661
posZ: 0.591654419899
velX: -0.116730958223
velY: -0.0663085430861
velZ: -0.1843393296
accX: 0.0
accY: 0.0
accZ: 0.0
---
header: 
  seq: 107178
  stamp: 
    secs: 1596524119
    nsecs:  72607766
  frame_id: "node1_radarinterface_radarscan"
range: 2.42335057259
angle: -0.326182901859
elev: 0.222932145
doppler: -0.0795030742884
snr: 370
noise: 389
frame_num: 12543
point_id: 47
x: -0.757297039032
y: 2.23876547813
z: 0.535778939724
doppler_bin: 31
target_idx: 13
posX: -0.896716892719
posY: 2.27295255661
posZ: 0.591654419899
velX: -0.116730958223
velY: -0.0663085430861
velZ: -0.1843393296
accX: 0.0
accY: 0.0
accZ: 0.0
---
header: 
  seq: 107179
  stamp: 
    secs: 1596524119
    nsecs:  72618521
  frame_id: "node1_radarinterface_radarscan"
range: 2.57969594002
angle: -0.363128423691
elev: 0.254602015018
doppler: -0.0795030742884
snr: 325
noise: 394
frame_num: 12543
point_id: 49
x: -0.886770486832
y: 2.33373713493
z: 0.649722933769
doppler_bin: 31
target_idx: 13
posX: -0.896716892719
posY: 2.27295255661
posZ: 0.591654419899
velX: -0.116730958223
velY: -0.0663085430861
velZ: -0.1843393296
accX: 0.0
accY: 0.0
accZ: 0.0
---
header: 
  seq: 107180
  stamp: 
    secs: 1596524119
    nsecs: 173495602
  frame_id: "node1_radarinterface_radarscan"
range: 2.34517812729
angle: -0.325012892485
elev: 0.207062467933
doppler: 0.0
snr: 264
noise: 415
frame_num: 12544
point_id: 0
x: -0.732868134975
y: 2.17492747307
z: 0.482135802507
doppler_bin: 32
target_idx: 13
posX: -0.871951341629
posY: 2.28242945671
posZ: 0.557780623436
velX: -0.0153755173087
velY: -0.0439363643527
velZ: -0.260393917561
accX: 0.0
accY: 0.0
accZ: 0.0
---
header: 
  seq: 107181
  stamp: 
    secs: 1596524119
    nsecs: 173749059
  frame_id: "node1_radarinterface_radarscan"
range: 2.57969594002
angle: -0.324571222067
elev: 0.200718715787
doppler: 0.0
snr: 318
noise: 397
frame_num: 12544
point_id: 3
x: -0.806154966354
y: 2.39591670036
z: 0.514323472977
doppler_bin: 32
target_idx: 13
posX: -0.871951341629
posY: 2.28242945671
posZ: 0.557780623436
velX: -0.0153755173087
velY: -0.0439363643527
velZ: -0.260393917561
accX: 0.0
accY: 0.0
accZ: 0.0
---
header: 
  seq: 107182
  stamp: 
    secs: 1596524119
    nsecs: 173916762
  frame_id: "node1_radarinterface_radarscan"
range: 2.34517812729
angle: -0.323381870985
elev: 0.182459667325
doppler: -0.159006148577
snr: 287
noise: 404
frame_num: 12544
point_id: 20
x: -0.73286819458
y: 2.18670749664
z: 0.425530135632
doppler_bin: 30
target_idx: 13
posX: -0.871951341629
posY: 2.28242945671
posZ: 0.557780623436
velX: -0.0153755173087
velY: -0.0439363643527
velZ: -0.260393917561
accX: 0.0
accY: 0.0
accZ: 0.0
---
header: 
  seq: 107183
  stamp: 
    secs: 1596524119
    nsecs: 173945504
  frame_id: "node1_radarinterface_radarscan"
range: 2.5015232563
angle: -0.324301868677
elev: 0.196741893888
doppler: -0.159006148577
snr: 390
noise: 392
frame_num: 12544
point_id: 22
x: -0.781725943089
y: 2.32538509369
z: 0.488985568285
doppler_bin: 30
target_idx: 13
posX: -0.871951341629
posY: 2.28242945671
posZ: 0.557780623436
velX: -0.0153755173087
velY: -0.0439363643527
velZ: -0.260393917561
accX: 0.0
accY: 0.0
accZ: 0.0
---
header: 
  seq: 107184
  stamp: 
    secs: 1596524119
    nsecs: 173989142
  frame_id: "node1_radarinterface_radarscan"
range: 2.34517812729
angle: -0.323996990919
elev: 0.192133948207
doppler: -0.0795030742884
snr: 298
noise: 428
frame_num: 12544
point_id: 28
x: -0.732868134975
y: 2.18225121498
z: 0.447821170092
doppler_bin: 31
target_idx: 13
posX: -0.871951341629
posY: 2.28242945671
posZ: 0.557780623436
velX: -0.0153755173087
velY: -0.0439363643527
velZ: -0.260393917561
accX: 0.0
accY: 0.0
accZ: 0.0
---
header: 
  seq: 107185
  stamp: 
    secs: 1596524119
    nsecs: 174019836
  frame_id: "node1_radarinterface_radarscan"
range: 2.42335057259
angle: -0.324341505766
elev: 0.197332292795
doppler: -0.0795030742884
snr: 388
noise: 419
frame_num: 12544
point_id: 29
x: -0.757297098637
y: 2.25242137909
z: 0.475107818842
doppler_bin: 31
target_idx: 13
posX: -0.871951341629
posY: 2.28242945671
posZ: 0.557780623436
velX: -0.0153755173087
velY: -0.0439363643527
velZ: -0.260393917561
accX: 0.0
accY: 0.0
accZ: 0.0
---
header: 
  seq: 107186
  stamp: 
    secs: 1596524119
    nsecs: 271139203
  frame_id: "node1_radarinterface_radarscan"
range: 2.34517812729
angle: -0.325518190861
elev: 0.214072450995
doppler: 0.0
snr: 251
noise: 393
frame_num: 12545
point_id: 0
x: -0.73286819458
y: 2.17130112648
z: 0.498212307692
doppler_bin: 32
target_idx: 13
posX: -0.849776625633
posY: 2.28393173218
posZ: 0.548095226288
velX: 0.049115601927
velY: -0.0233620256186
velZ: -0.248523935676
accX: 0.0
accY: 0.0
accZ: 0.0
---
header: 
  seq: 107187
  stamp: 
    secs: 1596524119
    nsecs: 271200805
  frame_id: "node1_radarinterface_radarscan"
range: 2.34517812729
angle: -0.294234186411
elev: 0.246370241046
doppler: 0.159006148577
snr: 244
noise: 394
frame_num: 12545
point_id: 11
x: -0.659581363201
y: 2.17662143707
z: 0.571954727173
doppler_bin: 34
target_idx: 13
posX: -0.849776625633
posY: 2.28393173218
posZ: 0.548095226288
velX: 0.049115601927
velY: -0.0233620256186
velZ: -0.248523935676
accX: 0.0
accY: 0.0
accZ: 0.0
---
header: 
  seq: 107188
  stamp: 
    secs: 1596524119
    nsecs: 271214459
  frame_id: "node1_radarinterface_radarscan"
range: 2.5015232563
angle: -0.399430751801
elev: 0.268110692501
doppler: 0.238509222865
snr: 340
noise: 380
frame_num: 12545
point_id: 20
x: -0.938071191311
y: 2.22227311134
z: 0.662678778172
doppler_bin: 35
target_idx: 13
posX: -0.849776625633
posY: 2.28393173218
posZ: 0.548095226288
velX: 0.049115601927
velY: -0.0233620256186
velZ: -0.248523935676
accX: 0.0
accY: 0.0
accZ: 0.0
---
header: 
  seq: 107189
  stamp: 
    secs: 1596524119
    nsecs: 271227161
  frame_id: "node1_radarinterface_radarscan"
range: 2.34517812729
angle: -0.458386331797
elev: 0.150494933128
doppler: -1.43105530739
snr: 215
noise: 378
frame_num: 12545
point_id: 21
x: -1.02601540089
y: 2.07930874825
z: 0.351606667042
doppler_bin: 14
target_idx: 13
posX: -0.849776625633
posY: 2.28393173218
posZ: 0.548095226288
velX: 0.049115601927
velY: -0.0233620256186
velZ: -0.248523935676
accX: 0.0
accY: 0.0
accZ: 0.0
---
header: 
  seq: 107190
  stamp: 
    secs: 1596524119
    nsecs: 271240572
  frame_id: "node1_radarinterface_radarscan"
range: 2.34517812729
angle: -0.255434960127
elev: 0.145403891802
doppler: -0.636024594307
snr: 201
noise: 385
frame_num: 12545
point_id: 22
x: -0.586294531822
y: 2.24514055252
z: 0.339797705412
doppler_bin: 24
target_idx: 13
posX: -0.849776625633
posY: 2.28393173218
posZ: 0.548095226288
velX: 0.049115601927
velY: -0.0233620256186
velZ: -0.248523935676
accX: 0.0
accY: 0.0
accZ: 0.0
---
header: 
  seq: 107191
  stamp: 
    secs: 1596524119
    nsecs: 371052580
  frame_id: "node1_radarinterface_radarscan"
range: 2.34517812729
angle: -0.323530763388
elev: 0.184850677848
doppler: 0.0
snr: 273
noise: 387
frame_num: 12546
point_id: 1
x: -0.732868134975
y: 2.18562722206
z: 0.431043177843
doppler_bin: 32
target_idx: 13
posX: -0.878507375717
posY: 2.26152658463
posZ: 0.516948580742
velX: -0.0322700068355
velY: -0.0983990207314
velZ: -0.293805271387
accX: 0.0
accY: 0.0
accZ: 0.0
---
header: 
  seq: 107192
  stamp: 
    secs: 1596524119
    nsecs: 371130892
  frame_id: "node1_radarinterface_radarscan"
range: 2.42335057259
angle: -0.324394732714
elev: 0.198122575879
doppler: 0.0
snr: 345
noise: 384
frame_num: 12546
point_id: 2
x: -0.757297039032
y: 2.25202441216
z: 0.476985633373
doppler_bin: 32
target_idx: 13
posX: -0.878507375717
posY: 2.26152658463
posZ: 0.516948580742
velX: -0.0322700068355
velY: -0.0983990207314
velZ: -0.293805271387
accX: 0.0
accY: 0.0
accZ: 0.0
---
header: 
  seq: 107193
  stamp: 
    secs: 1596524119
    nsecs: 371161062
  frame_id: "node1_radarinterface_radarscan"
range: 2.5015232563
angle: -0.326663434505
elev: 0.229105085135
doppler: 0.0
snr: 351
noise: 387
frame_num: 12546
point_id: 3
x: -0.781725943089
y: 2.30733013153
z: 0.568111121655
doppler_bin: 32
target_idx: 13
posX: -0.878507375717
posY: 2.26152658463
posZ: 0.516948580742
velX: -0.0322700068355
velY: -0.0983990207314
velZ: -0.293805271387
accX: 0.0
accY: 0.0
accZ: 0.0
---
header: 
  seq: 107194
  stamp: 
    secs: 1596524119
    nsecs: 371186466
  frame_id: "node1_radarinterface_radarscan"
range: 2.5015232563
angle: -0.329523026943
elev: 0.262581825256
doppler: 0.0795030742884
snr: 357
noise: 406
frame_num: 12546
point_id: 11
x: -0.781726062298
y: 2.28580188751
z: 0.649332225323
doppler_bin: 33
target_idx: 13
posX: -0.878507375717
posY: 2.26152658463
posZ: 0.516948580742
velX: -0.0322700068355
velY: -0.0983990207314
velZ: -0.293805271387
accX: 0.0
accY: 0.0
accZ: 0.0
---
header: 
  seq: 107195
  stamp: 
    secs: 1596524119
    nsecs: 371210318
  frame_id: "node1_radarinterface_radarscan"
range: 2.34517812729
angle: -0.326256364584
elev: 0.223887592554
doppler: 0.159006148577
snr: 251
noise: 390
frame_num: 12546
point_id: 15
x: -0.73286819458
y: 2.16602301598
z: 0.520680785179
doppler_bin: 34
target_idx: 13
posX: -0.878507375717
posY: 2.26152658463
posZ: 0.516948580742
velX: -0.0322700068355
velY: -0.0983990207314
velZ: -0.293805271387
accX: 0.0
accY: 0.0
accZ: 0.0
---
header: 
  seq: 107196
  stamp: 
    secs: 1596524119
    nsecs: 371233212
  frame_id: "node1_radarinterface_radarscan"
range: 2.42335057259
angle: -0.328075706959
elev: 0.246270626783
doppler: 0.159006148577
snr: 320
noise: 386
frame_num: 12546
point_id: 16
x: -0.757297039032
y: 2.22488236427
z: 0.590785741806
doppler_bin: 34
target_idx: 13
posX: -0.878507375717
posY: 2.26152658463
posZ: 0.516948580742
velX: -0.0322700068355
velY: -0.0983990207314
velZ: -0.293805271387
accX: 0.0
accY: 0.0
accZ: 0.0
---
header: 
  seq: 107197
  stamp: 
    secs: 1596524119
    nsecs: 371257263
  frame_id: "node1_radarinterface_radarscan"
range: 2.26700544357
angle: -0.536739528179
elev: 0.210965394974
doppler: -0.874533832073
snr: 195
noise: 370
frame_num: 12546
point_id: 20
x: -1.13350272179
y: 1.90502655506
z: 0.474719971418
doppler_bin: 21
target_idx: 13
posX: -0.878507375717
posY: 2.26152658463
posZ: 0.516948580742
velX: -0.0322700068355
velY: -0.0983990207314
velZ: -0.293805271387
accX: 0.0
accY: 0.0
accZ: 0.0
---
header: 
  seq: 107198
  stamp: 
    secs: 1596524119
    nsecs: 371315133
  frame_id: "node1_radarinterface_radarscan"
range: 2.18883275986
angle: -0.539702236652
elev: 0.232953980565
doppler: -0.795030713081
snr: 161
noise: 373
frame_num: 12546
point_id: 22
x: -1.09441637993
y: 1.82699632645
z: 0.505297958851
doppler_bin: 22
target_idx: 13
posX: -0.878507375717
posY: 2.26152658463
posZ: 0.516948580742
velX: -0.0322700068355
velY: -0.0983990207314
velZ: -0.293805271387
accX: 0.0
accY: 0.0
accZ: 0.0
---
header: 
  seq: 107199
  stamp: 
    secs: 1596524119
    nsecs: 371333006
  frame_id: "node1_radarinterface_radarscan"
range: 2.5015232563
angle: -0.292734742165
elev: 0.22574429214
doppler: -0.159006148577
snr: 323
noise: 379
frame_num: 12546
point_id: 28
x: -0.703553438187
y: 2.33433508873
z: 0.559920549393
doppler_bin: 30
target_idx: 13
posX: -0.878507375717
posY: 2.26152658463
posZ: 0.516948580742
velX: -0.0322700068355
velY: -0.0983990207314
velZ: -0.293805271387
accX: 0.0
accY: 0.0
accZ: 0.0
---
header: 
  seq: 107200
  stamp: 
    secs: 1596524119
    nsecs: 371347177
  frame_id: "node1_radarinterface_radarscan"
range: 2.73604106903
angle: -0.499011218548
elev: 0.202802494168
doppler: -0.159006148577
snr: 265
noise: 405
frame_num: 12546
point_id: 29
x: -1.28251922131
y: 2.35316300392
z: 0.551080226898
doppler_bin: 30
target_idx: 13
posX: -0.878507375717
posY: 2.26152658463
posZ: 0.516948580742
velX: -0.0322700068355
velY: -0.0983990207314
velZ: -0.293805271387
accX: 0.0
accY: 0.0
accZ: 0.0
---
header: 
  seq: 107201
  stamp: 
    secs: 1596524119
    nsecs: 371368460
  frame_id: "node1_radarinterface_radarscan"
range: 2.81421375275
angle: -0.499437093735
elev: 0.206564471126
doppler: -0.0795030742884
snr: 214
noise: 470
frame_num: 12546
point_id: 39
x: -1.3191627264
y: 2.41794514656
z: 0.577191352844
doppler_bin: 31
target_idx: 13
posX: -0.878507375717
posY: 2.26152658463
posZ: 0.516948580742
velX: -0.0322700068355
velY: -0.0983990207314
velZ: -0.293805271387
accX: 0.0
accY: 0.0
accZ: 0.0
---
header: 
  seq: 107202
  stamp: 
    secs: 1596524119
    nsecs: 371392219
  frame_id: "node1_radarinterface_radarscan"
range: 2.89238619804
angle: -0.467561423779
elev: 0.242715239525
doppler: -0.0795030742884
snr: 118
noise: 516
frame_num: 12546
point_id: 40
x: -1.26541888714
y: 2.50626707077
z: 0.695153653622
doppler_bin: 31
target_idx: 13
posX: -0.878507375717
posY: 2.26152658463
posZ: 0.516948580742
velX: -0.0322700068355
velY: -0.0983990207314
velZ: -0.293805271387
accX: 0.0
accY: 0.0
accZ: 0.0
---
header: 
  seq: 107203
  stamp: 
    secs: 1596524119
    nsecs: 470817362
  frame_id: "node1_radarinterface_radarscan"
range: 2.34517812729
angle: -0.393032342196
elev: 0.204638496041
doppler: 0.0
snr: 229
noise: 389
frame_num: 12547
point_id: 0
x: -0.879441797733
y: 2.12116074562
z: 0.476571172476
doppler_bin: 32
target_idx: 13
posX: -0.916234970093
posY: 2.23897600174
posZ: 0.498065918684
velX: -0.149246275425
velY: -0.113100856543
velZ: -0.289016246796
accX: 0.0
accY: 0.0
accZ: 0.0
---
header: 
  seq: 107204
  stamp: 
    secs: 1596524119
    nsecs: 470903729
  frame_id: "node1_radarinterface_radarscan"
range: 2.42335057259
angle: -0.429586410522
elev: 0.222257748246
doppler: 0.0
snr: 289
noise: 390
frame_num: 12547
point_id: 1
x: -0.984486162663
y: 2.1489675045
z: 0.534184992313
doppler_bin: 32
target_idx: 13
posX: -0.916234970093
posY: 2.23897600174
posZ: 0.498065918684
velX: -0.149246275425
velY: -0.113100856543
velZ: -0.289016246796
accX: 0.0
accY: 0.0
accZ: 0.0
---
header: 
  seq: 107205
  stamp: 
    secs: 1596524119
    nsecs: 470975743
  frame_id: "node1_radarinterface_radarscan"
range: 2.42335057259
angle: -0.362728655338
elev: 0.250522851944
doppler: 0.0795030742884
snr: 328
noise: 398
frame_num: 12547
point_id: 8
x: -0.833026766777
y: 2.19494056702
z: 0.600774109364
doppler_bin: 33
target_idx: 13
posX: -0.916234970093
posY: 2.23897600174
posZ: 0.498065918684
velX: -0.149246275425
velY: -0.113100856543
velZ: -0.289016246796
accX: 0.0
accY: 0.0
accZ: 0.0
---
header: 
  seq: 107206
  stamp: 
    secs: 1596524119
    nsecs: 471002673
  frame_id: "node1_radarinterface_radarscan"
range: 2.34517812729
angle: -0.624476313591
elev: 0.27627903223
doppler: 0.874533832073
snr: 265
noise: 366
frame_num: 12547
point_id: 17
x: -1.3191627264
y: 1.83042013645
z: 0.639712274075
doppler_bin: 43
target_idx: 13
posX: -0.916234970093
posY: 2.23897600174
posZ: 0.498065918684
velX: -0.149246275425
velY: -0.113100856543
velZ: -0.289016246796
accX: 0.0
accY: 0.0
accZ: 0.0
---
header: 
  seq: 107207
  stamp: 
    secs: 1596524119
    nsecs: 471043312
  frame_id: "node1_radarinterface_radarscan"
range: 2.34517812729
angle: -0.62606716156
elev: 0.283939480782
doppler: 0.95403689146
snr: 234
noise: 383
frame_num: 12547
point_id: 18
x: -1.3191627264
y: 1.82429468632
z: 0.656977176666
doppler_bin: 44
target_idx: 13
posX: -0.916234970093
posY: 2.23897600174
posZ: 0.498065918684
velX: -0.149246275425
velY: -0.113100856543
velZ: -0.289016246796
accX: 0.0
accY: 0.0
accZ: 0.0
---
header: 
  seq: 107208
  stamp: 
    secs: 1596524119
    nsecs: 471067775
  frame_id: "node1_radarinterface_radarscan"
range: 2.34517812729
angle: -0.390283077955
elev: 0.169470101595
doppler: -0.159006148577
snr: 223
noise: 390
frame_num: 12547
point_id: 20
x: -0.879441797733
y: 2.13775420189
z: 0.395537883043
doppler_bin: 30
target_idx: 13
posX: -0.916234970093
posY: 2.23897600174
posZ: 0.498065918684
velX: -0.149246275425
velY: -0.113100856543
velZ: -0.289016246796
accX: 0.0
accY: 0.0
accZ: 0.0
---
header: 
  seq: 107209
  stamp: 
    secs: 1596524119
    nsecs: 471090425
  frame_id: "node1_radarinterface_radarscan"
range: 2.42335057259
angle: -0.391480594873
elev: 0.185662850738
doppler: -0.0795030742884
snr: 359
noise: 399
frame_num: 12547
point_id: 28
x: -0.908756494522
y: 2.20151567459
z: 0.447345763445
doppler_bin: 31
target_idx: 13
posX: -0.916234970093
posY: 2.23897600174
posZ: 0.498065918684
velX: -0.149246275425
velY: -0.113100856543
velZ: -0.289016246796
accX: 0.0
accY: 0.0
accZ: 0.0
---
header: 
  seq: 107210
  stamp: 
    secs: 1596524119
    nsecs: 471229366
  frame_id: "node1_radarinterface_radarscan"
range: 2.5015232563
angle: -0.390494465828
elev: 0.172445654869
doppler: -0.0795030742884
snr: 363
noise: 399
frame_num: 12547
point_id: 29
x: -0.938071191311
y: 2.278901577
z: 0.429241985083
doppler_bin: 31
target_idx: 13
posX: -0.916234970093
posY: 2.23897600174
posZ: 0.498065918684
velX: -0.149246275425
velY: -0.113100856543
velZ: -0.289016246796
accX: 0.0
accY: 0.0
accZ: 0.0
---
header: 
  seq: 107211
  stamp: 
    secs: 1596524119
    nsecs: 570522011
  frame_id: "node1_radarinterface_radarscan"
range: 2.34517812729
angle: -0.330567151308
elev: 0.273675262928
doppler: 0.0
snr: 264
noise: 384
frame_num: 12548
point_id: 0
x: -0.73286819458
y: 2.13565397263
z: 0.633835375309
doppler_bin: 32
target_idx: 13
posX: -0.927564501762
posY: 2.23133254051
posZ: 0.626082539558
velX: -0.216950148344
velY: -0.00181736797094
velZ: 0.127263873816
accX: 0.0
accY: 0.0
accZ: 0.0
---
header: 
  seq: 107212
  stamp: 
    secs: 1596524119
    nsecs: 570614120
  frame_id: "node1_radarinterface_radarscan"
range: 2.42335057259
angle: -0.331202477217
elev: 0.280182242393
doppler: 0.0
snr: 338
noise: 387
frame_num: 12548
point_id: 1
x: -0.757297039032
y: 2.20228362083
z: 0.670131027699
doppler_bin: 32
target_idx: 13
posX: -0.927564501762
posY: 2.23133254051
posZ: 0.626082539558
velX: -0.216950148344
velY: -0.00181736797094
velZ: 0.127263873816
accX: 0.0
accY: 0.0
accZ: 0.0
---
header: 
  seq: 107213
  stamp: 
    secs: 1596524119
    nsecs: 570635069
  frame_id: "node1_radarinterface_radarscan"
range: 2.5015232563
angle: -0.332468688488
elev: 0.292659044266
doppler: 0.0
snr: 348
noise: 386
frame_num: 12548
point_id: 2
x: -0.781726002693
y: 2.26399874687
z: 0.721687495708
doppler_bin: 32
target_idx: 13
posX: -0.927564501762
posY: 2.23133254051
posZ: 0.626082539558
velX: -0.216950148344
velY: -0.00181736797094
velZ: 0.127263873816
accX: 0.0
accY: 0.0
accZ: 0.0
---
header: 
  seq: 107214
  stamp: 
    secs: 1596524119
    nsecs: 570652819
  frame_id: "node1_radarinterface_radarscan"
range: 2.34517812729
angle: -0.605596482754
elev: 0.49840798974
doppler: 1.351552248
snr: 226
noise: 369
frame_num: 12548
point_id: 15
x: -1.17258906364
y: 1.69355213642
z: 1.1210603714
doppler_bin: 49
target_idx: 13
posX: -0.927564501762
posY: 2.23133254051
posZ: 0.626082539558
velX: -0.216950148344
velY: -0.00181736797094
velZ: 0.127263873816
accX: 0.0
accY: 0.0
accZ: 0.0
---
header: 
  seq: 107215
  stamp: 
    secs: 1596524119
    nsecs: 570719030
  frame_id: "node1_radarinterface_radarscan"
range: 2.42335057259
angle: -0.602804422379
elev: 0.490909487009
doppler: 1.351552248
snr: 288
noise: 371
frame_num: 12548
point_id: 16
x: -1.21167528629
y: 1.76048612595
z: 1.1424356699
doppler_bin: 49
target_idx: 13
posX: -0.927564501762
posY: 2.23133254051
posZ: 0.626082539558
velX: -0.216950148344
velY: -0.00181736797094
velZ: 0.127263873816
accX: 0.0
accY: 0.0
accZ: 0.0
---
header: 
  seq: 107216
  stamp: 
    secs: 1596524119
    nsecs: 570736627
  frame_id: "node1_radarinterface_radarscan"
range: 2.5015232563
angle: -0.600291490555
elev: 0.48400375247
doppler: 1.351552248
snr: 278
noise: 377
frame_num: 12548
point_id: 17
x: -1.25076162815
y: 1.82709014416
z: 1.16402578354
doppler_bin: 49
target_idx: 13
posX: -0.927564501762
posY: 2.23133254051
posZ: 0.626082539558
velX: -0.216950148344
velY: -0.00181736797094
velZ: 0.127263873816
accX: 0.0
accY: 0.0
accZ: 0.0
---
header: 
  seq: 107217
  stamp: 
    secs: 1596524119
    nsecs: 570752241
  frame_id: "node1_radarinterface_radarscan"
range: 2.57969594002
angle: -0.581574141979
elev: 0.427070170641
doppler: 1.351552248
snr: 198
noise: 382
frame_num: 12548
point_id: 18
x: -1.28984808922
y: 1.96198296547
z: 1.06852531433
doppler_bin: 49
target_idx: 13
posX: -0.927564501762
posY: 2.23133254051
posZ: 0.626082539558
velX: -0.216950148344
velY: -0.00181736797094
velZ: 0.127263873816
accX: 0.0
accY: 0.0
accZ: 0.0
---
header: 
  seq: 107218
  stamp: 
    secs: 1596524119
    nsecs: 570777090
  frame_id: "node1_radarinterface_radarscan"
range: 2.26700544357
angle: -0.109311826527
elev: 0.536801815033
doppler: 2.0670800209
snr: 194
noise: 371
frame_num: 12548
point_id: 20
x: -0.212531760335
y: 1.93652021885
z: 1.15932452679
doppler_bin: 58
target_idx: 13
posX: -0.927564501762
posY: 2.23133254051
posZ: 0.626082539558
velX: -0.216950148344
velY: -0.00181736797094
velZ: 0.127263873816
accX: 0.0
accY: 0.0
accZ: 0.0
---
header: 
  seq: 107219
  stamp: 
    secs: 1596524119
    nsecs: 570808548
  frame_id: "node1_radarinterface_radarscan"
range: 2.34517812729
angle: -0.325542867184
elev: 0.214408665895
doppler: -0.159006148577
snr: 269
noise: 386
frame_num: 12548
point_id: 22
x: -0.732868134975
y: 2.17112421989
z: 0.498982787132
doppler_bin: 30
target_idx: 13
posX: -0.927564501762
posY: 2.23133254051
posZ: 0.626082539558
velX: -0.216950148344
velY: -0.00181736797094
velZ: 0.127263873816
accX: 0.0
accY: 0.0
accZ: 0.0
---
header: 
  seq: 107220
  stamp: 
    secs: 1596524119
    nsecs: 570830045
  frame_id: "node1_radarinterface_radarscan"
range: 2.42335057259
angle: -0.327580273151
elev: 0.240402877331
doppler: -0.0795030742884
snr: 384
noise: 392
frame_num: 12548
point_id: 28
x: -0.757296979427
y: 2.22850108147
z: 0.576985061169
doppler_bin: 31
target_idx: 13
posX: -0.927564501762
posY: 2.23133254051
posZ: 0.626082539558
velX: -0.216950148344
velY: -0.00181736797094
velZ: 0.127263873816
accX: 0.0
accY: 0.0
accZ: 0.0
---
header: 
  seq: 107221
  stamp: 
    secs: 1596524119
    nsecs: 570847103
  frame_id: "node1_radarinterface_radarscan"
range: 2.5015232563
angle: -0.328890442848
elev: 0.255595892668
doppler: -0.0795030742884
snr: 397
noise: 390
frame_num: 12548
point_id: 29
x: -0.781726062298
y: 2.29053330421
z: 0.632440090179
doppler_bin: 31
target_idx: 13
posX: -0.927564501762
posY: 2.23133254051
posZ: 0.626082539558
velX: -0.216950148344
velY: -0.00181736797094
velZ: 0.127263873816
accX: 0.0
accY: 0.0
accZ: 0.0
---
header: 
  seq: 107222
  stamp: 
    secs: 1596524119
    nsecs: 670262418
  frame_id: "node1_radarinterface_radarscan"
range: 2.34517812729
angle: -0.326809406281
elev: 0.230944350362
doppler: 0.0
snr: 263
noise: 396
frame_num: 12549
point_id: 0
x: -0.732868134975
y: 2.16208362579
z: 0.536804020405
doppler_bin: 32
target_idx: 13
posX: -0.862486839294
posY: 2.24780750275
posZ: 0.634143531322
velX: 0.0096210539341
velY: 0.0403176434338
velZ: 0.132841721177
accX: 0.0
accY: 0.0
accZ: 0.0
---
header: 
  seq: 107223
  stamp: 
    secs: 1596524119
    nsecs: 670343380
  frame_id: "node1_radarinterface_radarscan"
range: 2.42335057259
angle: -0.326922237873
elev: 0.232355356216
doppler: 0.0
snr: 325
noise: 391
frame_num: 12549
point_id: 1
x: -0.757297039032
y: 2.23332428932
z: 0.558025479317
doppler_bin: 32
target_idx: 13
posX: -0.862486839294
posY: 2.24780750275
posZ: 0.634143531322
velX: 0.0096210539341
velY: 0.0403176434338
velZ: 0.132841721177
accX: 0.0
accY: 0.0
accZ: 0.0
---
header: 
  seq: 107224
  stamp: 
    secs: 1596524119
    nsecs: 670357428
  frame_id: "node1_radarinterface_radarscan"
range: 2.34517812729
angle: -0.332588881254
elev: 0.293811678886
doppler: 0.0795030742884
snr: 204
noise: 404
frame_num: 12549
point_id: 6
x: -0.73286819458
y: 2.12167239189
z: 0.67916983366
doppler_bin: 33
target_idx: 13
posX: -0.862486839294
posY: 2.24780750275
posZ: 0.634143531322
velX: 0.0096210539341
velY: 0.0403176434338
velZ: 0.132841721177
accX: 0.0
accY: 0.0
accZ: 0.0
---
header: 
  seq: 107225
  stamp: 
    secs: 1596524119
    nsecs: 670370643
  frame_id: "node1_radarinterface_radarscan"
range: 2.34517812729
angle: -0.32604187727
elev: 0.221084758639
doppler: -0.159006148577
snr: 285
noise: 378
frame_num: 12549
point_id: 11
x: -0.73286819458
y: 2.16755437851
z: 0.514269649982
doppler_bin: 30
target_idx: 13
posX: -0.862486839294
posY: 2.24780750275
posZ: 0.634143531322
velX: 0.0096210539341
velY: 0.0403176434338
velZ: 0.132841721177
accX: 0.0
accY: 0.0
accZ: 0.0
---
header: 
  seq: 107226
  stamp: 
    secs: 1596524119
    nsecs: 670421871
  frame_id: "node1_radarinterface_radarscan"
range: 2.26700544357
angle: -0.325983315706
elev: 0.220312565565
doppler: -0.0795030742884
snr: 158
noise: 389
frame_num: 12549
point_id: 17
x: -0.708439230919
y: 2.0957069397
z: 0.495419234037
doppler_bin: 31
target_idx: 13
posX: -0.862486839294
posY: 2.24780750275
posZ: 0.634143531322
velX: 0.0096210539341
velY: 0.0403176434338
velZ: 0.132841721177
accX: 0.0
accY: 0.0
accZ: 0.0
---
header: 
  seq: 107227
  stamp: 
    secs: 1596524119
    nsecs: 670441461
  frame_id: "node1_radarinterface_radarscan"
range: 2.34517812729
angle: -0.326749414206
elev: 0.2301902771
doppler: -0.0795030742884
snr: 332
noise: 382
frame_num: 12549
point_id: 18
x: -0.73286819458
y: 2.16251063347
z: 0.535082399845
doppler_bin: 31
target_idx: 13
posX: -0.862486839294
posY: 2.24780750275
posZ: 0.634143531322
velX: 0.0096210539341
velY: 0.0403176434338
velZ: 0.132841721177
accX: 0.0
accY: 0.0
accZ: 0.0
---
header: 
  seq: 107228
  stamp: 
    secs: 1596524119
    nsecs: 670466762
  frame_id: "node1_radarinterface_radarscan"
range: 2.5015232563
angle: -0.325881540775
elev: 0.218963563442
doppler: -0.0795030742884
snr: 366
noise: 381
frame_num: 12549
point_id: 20
x: -0.781726062298
y: 2.31328034401
z: 0.543376028538
doppler_bin: 31
target_idx: 13
posX: -0.862486839294
posY: 2.24780750275
posZ: 0.634143531322
velX: 0.0096210539341
velY: 0.0403176434338
velZ: 0.132841721177
accX: 0.0
accY: 0.0
accZ: 0.0
---
header: 
  seq: 107229
  stamp: 
    secs: 1596524119
    nsecs: 771677562
  frame_id: "node1_radarinterface_radarscan"
range: 2.26700544357
angle: -0.287972688675
elev: 0.139500722289
doppler: 0.0
snr: 141
noise: 382
frame_num: 12550
point_id: 0
x: -0.637595236301
y: 2.15253806114
z: 0.315224170685
doppler_bin: 32
target_idx: 13
posX: -0.80986726284
posY: 2.25099205971
posZ: 0.640845179558
velX: 0.166604235768
velY: 0.0324226543307
velZ: 0.130981698632
accX: 0.0
accY: 0.0
accZ: 0.0
---
header: 
  seq: 107230
  stamp: 
    secs: 1596524119
    nsecs: 771757817
  frame_id: "node1_radarinterface_radarscan"
range: 2.34517812729
angle: -0.252920478582
elev: 0.0431185029447
doppler: 0.0
snr: 242
noise: 378
frame_num: 12550
point_id: 1
x: -0.586294531822
y: 2.26845765114
z: 0.10108923912
doppler_bin: 32
target_idx: 13
posX: -0.80986726284
posY: 2.25099205971
posZ: 0.640845179558
velX: 0.166604235768
velY: 0.0324226543307
velZ: 0.130981698632
accX: 0.0
accY: 0.0
accZ: 0.0
---
header: 
  seq: 107231
  stamp: 
    secs: 1596524119
    nsecs: 771780072
  frame_id: "node1_radarinterface_radarscan"
range: 2.57969594002
angle: -0.247269332409
elev: 0.465176016092
doppler: 0.0795030742884
snr: 326
noise: 389
frame_num: 12550
point_id: 6
x: -0.564308464527
y: 2.23545837402
z: 1.15720033646
doppler_bin: 33
target_idx: 13
posX: -0.80986726284
posY: 2.25099205971
posZ: 0.640845179558
velX: 0.166604235768
velY: 0.0324226543307
velZ: 0.130981698632
accX: 0.0
accY: 0.0
accZ: 0.0
---
header: 
  seq: 107232
  stamp: 
    secs: 1596524119
    nsecs: 771835576
  frame_id: "node1_radarinterface_radarscan"
range: 2.57969594002
angle: -0.369007527828
elev: 0.307693749666
doppler: 0.238509222865
snr: 291
noise: 381
frame_num: 12550
point_id: 11
x: -0.886770486832
y: 2.29304480553
z: 0.781290590763
doppler_bin: 35
target_idx: 13
posX: -0.80986726284
posY: 2.25099205971
posZ: 0.640845179558
velX: 0.166604235768
velY: 0.0324226543307
velZ: 0.130981698632
accX: 0.0
accY: 0.0
accZ: 0.0
---
header: 
  seq: 107233
  stamp: 
    secs: 1596524119
    nsecs: 771890599
  frame_id: "node1_radarinterface_radarscan"
range: 2.42335057259
angle: -0.326139777899
elev: 0.222368821502
doppler: -0.238509222865
snr: 332
noise: 378
frame_num: 12550
point_id: 15
x: -0.757297039032
y: 2.23908352852
z: 0.534447491169
doppler_bin: 29
target_idx: 13
posX: -0.80986726284
posY: 2.25099205971
posZ: 0.640845179558
velX: 0.166604235768
velY: 0.0324226543307
velZ: 0.130981698632
accX: 0.0
accY: 0.0
accZ: 0.0
---
header: 
  seq: 107234
  stamp: 
    secs: 1596524119
    nsecs: 771957338
  frame_id: "node1_radarinterface_radarscan"
range: 2.5015232563
angle: -0.325564265251
elev: 0.214699700475
doppler: -0.238509222865
snr: 341
noise: 375
frame_num: 12550
point_id: 16
x: -0.781726002693
y: 2.31570243835
z: 0.532959640026
doppler_bin: 29
target_idx: 13
posX: -0.80986726284
posY: 2.25099205971
posZ: 0.640845179558
velX: 0.166604235768
velY: 0.0324226543307
velZ: 0.130981698632
accX: 0.0
accY: 0.0
accZ: 0.0
---
header: 
  seq: 107235
  stamp: 
    secs: 1596524119
    nsecs: 771981108
  frame_id: "node1_radarinterface_radarscan"
range: 2.26700544357
angle: -0.28783133626
elev: 0.136057689786
doppler: -0.159006148577
snr: 142
noise: 390
frame_num: 12550
point_id: 17
x: -0.637595295906
y: 2.15365600586
z: 0.307492762804
doppler_bin: 30
target_idx: 13
posX: -0.80986726284
posY: 2.25099205971
posZ: 0.640845179558
velX: 0.166604235768
velY: 0.0324226543307
velZ: 0.130981698632
accX: 0.0
accY: 0.0
accZ: 0.0
---
header: 
  seq: 107236
  stamp: 
    secs: 1596524119
    nsecs: 772010182
  frame_id: "node1_radarinterface_radarscan"
range: 2.34517812729
angle: -0.326206713915
elev: 0.223242476583
doppler: -0.159006148577
snr: 282
noise: 388
frame_num: 12550
point_id: 18
x: -0.732868134975
y: 2.16637730598
z: 0.519205510616
doppler_bin: 30
target_idx: 13
posX: -0.80986726284
posY: 2.25099205971
posZ: 0.640845179558
velX: 0.166604235768
velY: 0.0324226543307
velZ: 0.130981698632
accX: 0.0
accY: 0.0
accZ: 0.0
---
header: 
  seq: 107237
  stamp: 
    secs: 1596524119
    nsecs: 772034056
  frame_id: "node1_radarinterface_radarscan"
range: 2.5015232563
angle: -0.32596218586
elev: 0.220033422112
doppler: -0.159006148577
snr: 345
noise: 388
frame_num: 12550
point_id: 20
x: -0.781726002693
y: 2.31266522408
z: 0.545988082886
doppler_bin: 30
target_idx: 13
posX: -0.80986726284
posY: 2.25099205971
posZ: 0.640845179558
velX: 0.166604235768
velY: 0.0324226543307
velZ: 0.130981698632
accX: 0.0
accY: 0.0
accZ: 0.0
---
header: 
  seq: 107238
  stamp: 
    secs: 1596524119
    nsecs: 772053419
  frame_id: "node1_radarinterface_radarscan"
range: 2.73604106903
angle: -0.513301968575
elev: 0.596515476704
doppler: -0.159006148577
snr: 195
noise: 440
frame_num: 12550
point_id: 22
x: -1.1115167141
y: 1.97181665897
z: 1.53700709343
doppler_bin: 30
target_idx: 13
posX: -0.80986726284
posY: 2.25099205971
posZ: 0.640845179558
velX: 0.166604235768
velY: 0.0324226543307
velZ: 0.130981698632
accX: 0.0
accY: 0.0
accZ: 0.0
---
header: 
  seq: 107239
  stamp: 
    secs: 1596524119
    nsecs: 772117331
  frame_id: "node1_radarinterface_radarscan"
range: 2.26700544357
angle: -0.287140995264
elev: 0.117760106921
doppler: -0.0795030742884
snr: 182
noise: 391
frame_num: 12550
point_id: 26
x: -0.637595295906
y: 2.15913081169
z: 0.266346216202
doppler_bin: 31
target_idx: 13
posX: -0.80986726284
posY: 2.25099205971
posZ: 0.640845179558
velX: 0.166604235768
velY: 0.0324226543307
velZ: 0.130981698632
accX: 0.0
accY: 0.0
accZ: 0.0
---
header: 
  seq: 107240
  stamp: 
    secs: 1596524119
    nsecs: 772136263
  frame_id: "node1_radarinterface_radarscan"
range: 2.34517812729
angle: -0.253283768892
elev: 0.0683028846979
doppler: -0.0795030742884
snr: 287
noise: 385
frame_num: 12550
point_id: 27
x: -0.586294531822
y: 2.26506090164
z: 0.160057917237
doppler_bin: 31
target_idx: 13
posX: -0.80986726284
posY: 2.25099205971
posZ: 0.640845179558
velX: 0.166604235768
velY: 0.0324226543307
velZ: 0.130981698632
accX: 0.0
accY: 0.0
accZ: 0.0
---
header: 
  seq: 107241
  stamp: 
    secs: 1596524119
    nsecs: 871090999
  frame_id: "node1_radarinterface_radarscan"
range: 2.34517812729
angle: -0.289838910103
elev: 0.178635209799
doppler: 0.0
snr: 163
noise: 388
frame_num: 12551
point_id: 0
x: -0.659581363201
y: 2.21159863472
z: 0.416706889868
doppler_bin: 32
target_idx: 13
posX: -0.804934024811
posY: 2.23856210709
posZ: 0.755588054657
velX: 0.157252475619
velY: -0.0197370760143
velZ: 0.422775655985
accX: 0.0
accY: 0.0
accZ: 0.0
---
header: 
  seq: 107242
  stamp: 
    secs: 1596524119
    nsecs: 871177462
  frame_id: "node1_radarinterface_radarscan"
range: 2.5015232563
angle: -0.416387885809
elev: 0.38402813673
doppler: 0.0
snr: 283
noise: 389
frame_num: 12551
point_id: 2
x: -0.938071191311
y: 2.12114739418
z: 0.937216281891
doppler_bin: 32
target_idx: 13
posX: -0.804934024811
posY: 2.23856210709
posZ: 0.755588054657
velX: 0.157252475619
velY: -0.0197370760143
velZ: 0.422775655985
accX: 0.0
accY: 0.0
accZ: 0.0
---
header: 
  seq: 107243
  stamp: 
    secs: 1596524119
    nsecs: 871204572
  frame_id: "node1_radarinterface_radarscan"
range: 2.57969594002
angle: -0.355045825243
elev: 0.453462451696
doppler: 0.0
snr: 307
noise: 393
frame_num: 12551
point_id: 3
x: -0.806154966354
y: 2.17434716225
z: 1.13011491299
doppler_bin: 32
target_idx: 13
posX: -0.804934024811
posY: 2.23856210709
posZ: 0.755588054657
velX: 0.157252475619
velY: -0.0197370760143
velZ: 0.422775655985
accX: 0.0
accY: 0.0
accZ: 0.0
---
header: 
  seq: 107244
  stamp: 
    secs: 1596524119
    nsecs: 871228265
  frame_id: "node1_radarinterface_radarscan"
range: 2.65786838531
angle: -0.360075891018
elev: 0.480174928904
doppler: 0.0
snr: 293
noise: 402
frame_num: 12551
point_id: 4
x: -0.830583810806
y: 2.20612740517
z: 1.22776067257
doppler_bin: 32
target_idx: 13
posX: -0.804934024811
posY: 2.23856210709
posZ: 0.755588054657
velX: 0.157252475619
velY: -0.0197370760143
velZ: 0.422775655985
accX: 0.0
accY: 0.0
accZ: 0.0
---
header: 
  seq: 107245
  stamp: 
    secs: 1596524119
    nsecs: 871270467
  frame_id: "node1_radarinterface_radarscan"
range: 2.34517812729
angle: -0.327537417412
elev: 0.239887788892
doppler: 0.0795030742884
snr: 213
noise: 414
frame_num: 12551
point_id: 13
x: -0.732868134975
y: 2.15691757202
z: 0.55719935894
doppler_bin: 33
target_idx: 13
posX: -0.804934024811
posY: 2.23856210709
posZ: 0.755588054657
velX: 0.157252475619
velY: -0.0197370760143
velZ: 0.422775655985
accX: 0.0
accY: 0.0
accZ: 0.0
---
header: 
  seq: 107246
  stamp: 
    secs: 1596524119
    nsecs: 871283188
  frame_id: "node1_radarinterface_radarscan"
range: 2.42335057259
angle: -0.328324735165
elev: 0.249162256718
doppler: 0.0795030742884
snr: 252
noise: 411
frame_num: 12551
point_id: 14
x: -0.757297098637
y: 2.22306728363
z: 0.597579300404
doppler_bin: 33
target_idx: 13
posX: -0.804934024811
posY: 2.23856210709
posZ: 0.755588054657
velX: 0.157252475619
velY: -0.0197370760143
velZ: 0.422775655985
accX: 0.0
accY: 0.0
accZ: 0.0
---
header: 
  seq: 107247
  stamp: 
    secs: 1596524119
    nsecs: 871295179
  frame_id: "node1_radarinterface_radarscan"
range: 2.5015232563
angle: -0.396700590849
elev: 0.243276238441
doppler: 0.238509222865
snr: 264
noise: 383
frame_num: 12551
point_id: 31
x: -0.938071191311
y: 2.23931741714
z: 0.602576136589
doppler_bin: 35
target_idx: 13
posX: -0.804934024811
posY: 2.23856210709
posZ: 0.755588054657
velX: 0.157252475619
velY: -0.0197370760143
velZ: 0.422775655985
accX: 0.0
accY: 0.0
accZ: 0.0
---
header: 
  seq: 107248
  stamp: 
    secs: 1596524119
    nsecs: 871310683
  frame_id: "node1_radarinterface_radarscan"
range: 2.65786838531
angle: -0.423932880163
elev: 0.157606586814
doppler: 0.238509222865
snr: 240
noise: 383
frame_num: 12551
point_id: 33
x: -1.07975900173
y: 2.39256286621
z: 0.417165488005
doppler_bin: 35
target_idx: 13
posX: -0.804934024811
posY: 2.23856210709
posZ: 0.755588054657
velX: 0.157252475619
velY: -0.0197370760143
velZ: 0.422775655985
accX: 0.0
accY: 0.0
accZ: 0.0
---
header: 
  seq: 107249
  stamp: 
    secs: 1596524119
    nsecs: 871320004
  frame_id: "node1_radarinterface_radarscan"
range: 2.34517812729
angle: -0.256651937962
elev: 0.174240663648
doppler: -0.159006148577
snr: 202
noise: 378
frame_num: 12551
point_id: 34
x: -0.586294531822
y: 2.23401594162
z: 0.406560897827
doppler_bin: 30
target_idx: 13
posX: -0.804934024811
posY: 2.23856210709
posZ: 0.755588054657
velX: 0.157252475619
velY: -0.0197370760143
velZ: 0.422775655985
accX: 0.0
accY: 0.0
accZ: 0.0
---
header: 
  seq: 107250
  stamp: 
    secs: 1596524119
    nsecs: 871330926
  frame_id: "node1_radarinterface_radarscan"
range: 2.42335057259
angle: -0.22287760675
elev: 0.143975242972
doppler: -0.159006148577
snr: 243
noise: 381
frame_num: 12551
point_id: 35
x: -0.530107915401
y: 2.33895683289
z: 0.347698330879
doppler_bin: 30
target_idx: 13
posX: -0.804934024811
posY: 2.23856210709
posZ: 0.755588054657
velX: 0.157252475619
velY: -0.0197370760143
velZ: 0.422775655985
accX: 0.0
accY: 0.0
accZ: 0.0
---
header: 
  seq: 107251
  stamp: 
    secs: 1596524119
    nsecs: 871354203
  frame_id: "node1_radarinterface_radarscan"
range: 2.26700544357
angle: -0.324333399534
elev: 0.19721159339
doppler: -0.0795030742884
snr: 130
noise: 401
frame_num: 12551
point_id: 41
x: -0.708439230919
y: 2.10716032982
z: 0.444187372923
doppler_bin: 31
target_idx: 13
posX: -0.804934024811
posY: 2.23856210709
posZ: 0.755588054657
velX: 0.157252475619
velY: -0.0197370760143
velZ: 0.422775655985
accX: 0.0
accY: 0.0
accZ: 0.0
---
header: 
  seq: 107252
  stamp: 
