header: 
  seq: 2979
  stamp: 
    secs: 1596613440
    nsecs: 799519925
  frame_id: "node1_radarinterface_radarscan"
range: 1.87614250183
angle: -0.229956239462
elev: 0.284850150347
doppler: 0.0795030742884
snr: 248
noise: 547
frame_num: 203
point_id: 14
x: -0.410406172276
y: 1.75314426422
z: 0.527221620083
doppler_bin: 33
target_idx: 1
posX: -0.230446279049
posY: 1.70782220364
posZ: 0.444239556789
velX: 0.173614904284
velY: -0.0230267643929
velZ: 0.00409629382193
accX: 0.0
accY: 0.0
accZ: 0.0
---
header: 
  seq: 2980
  stamp: 
    secs: 1596613440
    nsecs: 799632272
  frame_id: "node1_radarinterface_radarscan"
range: 2.03248763084
angle: -0.229292348027
elev: 0.274969726801
doppler: 0.0795030742884
snr: 186
noise: 542
frame_num: 203
point_id: 16
x: -0.444606661797
y: 1.90493702888
z: 0.551856577396
doppler_bin: 33
target_idx: 1
posX: -0.230446279049
posY: 1.70782220364
posZ: 0.444239556789
velX: 0.173614904284
velY: -0.0230267643929
velZ: 0.00409629382193
accX: 0.0
accY: 0.0
accZ: 0.0
---
header: 
  seq: 2981
  stamp: 
    secs: 1596613440
    nsecs: 799646194
  frame_id: "node1_radarinterface_radarscan"
range: 1.95431506634
angle: -0.230765447021
elev: 0.296386599541
doppler: 0.159006148577
snr: 278
noise: 531
frame_num: 203
point_id: 25
x: -0.427506417036
y: 1.81955623627
z: 0.570789515972
doppler_bin: 34
target_idx: 1
posX: -0.230446279049
posY: 1.70782220364
posZ: 0.444239556789
velX: 0.173614904284
velY: -0.0230267643929
velZ: 0.00409629382193
accX: 0.0
accY: 0.0
accZ: 0.0
---
header: 
  seq: 2982
  stamp: 
    secs: 1596613440
    nsecs: 799656883
  frame_id: "node1_radarinterface_radarscan"
range: 1.87614250183
angle: -0.235810384154
elev: 0.358838200569
doppler: 0.238509222865
snr: 228
noise: 499
frame_num: 203
point_id: 32
x: -0.410406172276
y: 1.70802795887
z: 0.658876240253
doppler_bin: 35
target_idx: 1
posX: -0.230446279049
posY: 1.70782220364
posZ: 0.444239556789
velX: 0.173614904284
velY: -0.0230267643929
velZ: 0.00409629382193
accX: 0.0
accY: 0.0
accZ: 0.0
---
header: 
  seq: 2983
  stamp: 
    secs: 1596613440
    nsecs: 799673275
  frame_id: "node1_radarinterface_radarscan"
range: 2.03248763084
angle: -0.266808688641
elev: 0.323240697384
doppler: 0.238509222865
snr: 175
noise: 522
frame_num: 203
point_id: 34
x: -0.508121907711
y: 1.85903644562
z: 0.645601570606
doppler_bin: 35
target_idx: 1
posX: -0.230446279049
posY: 1.70782220364
posZ: 0.444239556789
velX: 0.173614904284
velY: -0.0230267643929
velZ: 0.00409629382193
accX: 0.0
accY: 0.0
accZ: 0.0
---
header: 
  seq: 2984
  stamp: 
    secs: 1596613440
    nsecs: 799687938
  frame_id: "node1_radarinterface_radarscan"
range: 1.56345200539
angle: -0.0327469930053
elev: 0.302962869406
doppler: 0.55652153492
snr: 272
noise: 362
frame_num: 203
point_id: 36
x: -0.0488578751683
y: 1.49144721031
z: 0.466455042362
doppler_bin: 39
target_idx: 1
posX: -0.230446279049
posY: 1.70782220364
posZ: 0.444239556789
velX: 0.173614904284
velY: -0.0230267643929
velZ: 0.00409629382193
accX: 0.0
accY: 0.0
accZ: 0.0
---
header: 
  seq: 2985
  stamp: 
    secs: 1596613440
    nsecs: 799702938
  frame_id: "node1_radarinterface_radarscan"
range: 1.6416246891
angle: -0.0326493866742
elev: 0.29325145483
doppler: 0.55652153492
snr: 321
noise: 366
frame_num: 203
point_id: 37
x: -0.0513007715344
y: 1.57070457935
z: 0.47453853488
doppler_bin: 39
target_idx: 1
posX: -0.230446279049
posY: 1.70782220364
posZ: 0.444239556789
velX: 0.173614904284
velY: -0.0230267643929
velZ: 0.00409629382193
accX: 0.0
accY: 0.0
accZ: 0.0
---
header: 
  seq: 2986
  stamp: 
    secs: 1596613440
    nsecs: 799717949
  frame_id: "node1_radarinterface_radarscan"
range: 1.56345200539
angle: -0.0636038333178
elev: 0.182967960835
doppler: 1.351552248
snr: 277
noise: 355
frame_num: 203
point_id: 39
x: -0.0977157428861
y: 1.53424620628
z: 0.284468203783
doppler_bin: 49
target_idx: 1
posX: -0.230446279049
posY: 1.70782220364
posZ: 0.444239556789
velX: 0.173614904284
velY: -0.0230267643929
velZ: 0.00409629382193
accX: 0.0
accY: 0.0
accZ: 0.0
---
header: 
  seq: 2987
  stamp: 
    secs: 1596613440
    nsecs: 799733645
  frame_id: "node1_radarinterface_radarscan"
range: 2.11066031456
angle: -0.0633096173406
elev: 0.155904188752
doppler: -0.159006148577
snr: 138
noise: 454
frame_num: 203
point_id: 44
x: -0.13191626966
y: 2.08088421822
z: 0.32772937417
doppler_bin: 30
target_idx: 1
posX: -0.230446279049
posY: 1.70782220364
posZ: 0.444239556789
velX: 0.173614904284
velY: -0.0230267643929
velZ: 0.00409629382193
accX: 0.0
accY: 0.0
accZ: 0.0
---
header: 
  seq: 2988
  stamp: 
    secs: 1596613440
    nsecs: 799749437
  frame_id: "node1_radarinterface_radarscan"
range: 1.6416246891
angle: -0.127661034465
elev: 0.190972432494
doppler: -0.0795030742884
snr: 269
noise: 402
frame_num: 203
point_id: 52
x: -0.205203086138
y: 1.59866416454
z: 0.311602920294
doppler_bin: 31
target_idx: 1
posX: -0.230446279049
posY: 1.70782220364
posZ: 0.444239556789
velX: 0.173614904284
velY: -0.0230267643929
velZ: 0.00409629382193
accX: 0.0
accY: 0.0
accZ: 0.0
---
header: 
  seq: 2989
  stamp: 
    secs: 1596613440
    nsecs: 899091230
  frame_id: "node1_radarinterface_radarscan"
range: 1.95431506634
angle: -0.293856680393
elev: 0.241360142827
doppler: 0.0
snr: 228
noise: 522
frame_num: 204
point_id: 5
x: -0.54965108633
y: 1.81632125378
z: 0.467127352953
doppler_bin: 32
target_idx: 1
posX: -0.203985050321
posY: 1.77434182167
posZ: 0.390959739685
velX: 0.201061919332
velY: 0.398453533649
velZ: -0.0943041220307
accX: 0.0
accY: 0.0
accZ: 0.0
---
header: 
  seq: 2990
  stamp: 
    secs: 1596613440
    nsecs: 899165720
  frame_id: "node1_radarinterface_radarscan"
range: 2.03248763084
angle: -0.261723786592
elev: 0.260743975639
doppler: 0.0
snr: 187
noise: 516
frame_num: 204
point_id: 6
x: -0.508121907711
y: 1.896910429
z: 0.523974180222
doppler_bin: 32
target_idx: 1
posX: -0.203985050321
posY: 1.77434182167
posZ: 0.390959739685
velX: 0.201061919332
velY: 0.398453533649
velZ: -0.0943041220307
accX: 0.0
accY: 0.0
accZ: 0.0
---
header: 
  seq: 2991
  stamp: 
    secs: 1596613440
    nsecs: 899177531
  frame_id: "node1_radarinterface_radarscan"
range: 1.6416246891
angle: -0.129341542721
elev: 0.24910518527
doppler: 0.0795030742884
snr: 189
noise: 443
frame_num: 204
point_id: 12
x: -0.205203086138
y: 1.57766413689
z: 0.40472099185
doppler_bin: 33
target_idx: 1
posX: -0.203985050321
posY: 1.77434182167
posZ: 0.390959739685
velX: 0.201061919332
velY: 0.398453533649
velZ: -0.0943041220307
accX: 0.0
accY: 0.0
accZ: 0.0
---
header: 
  seq: 2992
  stamp: 
    secs: 1596613440
    nsecs: 899188017
  frame_id: "node1_radarinterface_radarscan"
range: 1.95431506634
angle: -0.263662904501
elev: 0.286438882351
doppler: 0.0795030742884
snr: 229
noise: 564
frame_num: 204
point_id: 14
x: -0.488578736782
y: 1.80990278721
z: 0.552168250084
doppler_bin: 33
target_idx: 1
posX: -0.203985050321
posY: 1.77434182167
posZ: 0.390959739685
velX: 0.201061919332
velY: 0.398453533649
velZ: -0.0943041220307
accX: 0.0
accY: 0.0
accZ: 0.0
---
header: 
  seq: 2993
  stamp: 
    secs: 1596613440
    nsecs: 899198504
  frame_id: "node1_radarinterface_radarscan"
range: 1.95431506634
angle: -0.263761281967
elev: 0.287673085928
doppler: 0.159006148577
snr: 218
noise: 523
frame_num: 204
point_id: 22
x: -0.488578766584
y: 1.80919551849
z: 0.554481625557
doppler_bin: 34
target_idx: 1
posX: -0.203985050321
posY: 1.77434182167
posZ: 0.390959739685
velX: 0.201061919332
velY: 0.398453533649
velZ: -0.0943041220307
accX: 0.0
accY: 0.0
accZ: 0.0
---
header: 
  seq: 2994
  stamp: 
    secs: 1596613440
    nsecs: 899215326
  frame_id: "node1_radarinterface_radarscan"
range: 2.03248763084
angle: -0.0316733904183
elev: 0.162674695253
doppler: 1.19254612923
snr: 184
noise: 393
frame_num: 204
point_id: 28
x: -0.0635152384639
y: 2.0046479702
z: 0.329177975655
doppler_bin: 47
target_idx: 1
posX: -0.203985050321
posY: 1.77434182167
posZ: 0.390959739685
velX: 0.201061919332
velY: 0.398453533649
velZ: -0.0943041220307
accX: 0.0
accY: 0.0
accZ: 0.0
---
header: 
  seq: 2995
  stamp: 
    secs: 1596613440
    nsecs: 899265689
  frame_id: "node1_radarinterface_radarscan"
range: 2.11066031456
angle: -0.0316491089761
elev: 0.157933071256
doppler: 1.19254612923
snr: 163
noise: 395
frame_num: 204
point_id: 29
x: -0.0659581422806
y: 2.08334827423
z: 0.331959038973
doppler_bin: 47
target_idx: 1
posX: -0.203985050321
posY: 1.77434182167
posZ: 0.390959739685
velX: 0.201061919332
velY: 0.398453533649
velZ: -0.0943041220307
accX: 0.0
accY: 0.0
accZ: 0.0
---
header: 
  seq: 2996
  stamp: 
    secs: 1596613440
    nsecs: 899279634
  frame_id: "node1_radarinterface_radarscan"
range: 1.6416246891
angle: -0.0313314571977
elev: 0.0698233991861
doppler: 1.351552248
snr: 271
noise: 359
frame_num: 204
point_id: 30
x: -0.0513007715344
y: 1.63682091236
z: 0.114530697465
doppler_bin: 49
target_idx: 1
posX: -0.203985050321
posY: 1.77434182167
posZ: 0.390959739685
velX: 0.201061919332
velY: 0.398453533649
velZ: -0.0943041220307
accX: 0.0
accY: 0.0
accZ: 0.0
---
header: 
  seq: 2997
  stamp: 
    secs: 1596613440
    nsecs: 899290198
  frame_id: "node1_radarinterface_radarscan"
range: 1.71979725361
angle: -0.031328395009
elev: 0.0684114173055
doppler: 1.351552248
snr: 306
noise: 366
frame_num: 204
point_id: 31
x: -0.0537436679006
y: 1.71493244171
z: 0.117562018335
doppler_bin: 49
target_idx: 1
posX: -0.203985050321
posY: 1.77434182167
posZ: 0.390959739685
velX: 0.201061919332
velY: 0.398453533649
velZ: -0.0943041220307
accX: 0.0
accY: 0.0
accZ: 0.0
---
header: 
  seq: 2998
  stamp: 
    secs: 1596613440
    nsecs: 899300533
  frame_id: "node1_radarinterface_radarscan"
range: 1.79796981812
angle: -0.0313303284347
elev: 0.0693063437939
doppler: 1.351552248
snr: 278
noise: 372
frame_num: 204
point_id: 32
x: -0.0561865568161
y: 1.79277312756
z: 0.124510981143
doppler_bin: 49
target_idx: 1
posX: -0.203985050321
posY: 1.77434182167
posZ: 0.390959739685
velX: 0.201061919332
velY: 0.398453533649
velZ: -0.0943041220307
accX: 0.0
accY: 0.0
accZ: 0.0
---
header: 
  seq: 2999
  stamp: 
    secs: 1596613440
    nsecs: 899311333
  frame_id: "node1_radarinterface_radarscan"
range: 1.6416246891
angle: -0.0313741564751
elev: 0.0871344730258
doppler: 1.43105530739
snr: 327
noise: 349
frame_num: 204
point_id: 34
x: -0.0513007752597
y: 1.63459193707
z: 0.142861157656
doppler_bin: 50
target_idx: 1
posX: -0.203985050321
posY: 1.77434182167
posZ: 0.390959739685
velX: 0.201061919332
velY: 0.398453533649
velZ: -0.0943041220307
accX: 0.0
accY: 0.0
accZ: 0.0
---
header: 
  seq: 3000
  stamp: 
    secs: 1596613440
    nsecs: 899322279
  frame_id: "node1_radarinterface_radarscan"
range: 1.79796981812
angle: -0.0313448868692
elev: 0.0757002085447
doppler: 1.43105530739
snr: 333
noise: 360
frame_num: 204
point_id: 36
x: -0.0561865568161
y: 1.79193997383
z: 0.135976731777
doppler_bin: 50
target_idx: 1
posX: -0.203985050321
posY: 1.77434182167
posZ: 0.390959739685
velX: 0.201061919332
velY: 0.398453533649
velZ: -0.0943041220307
accX: 0.0
accY: 0.0
accZ: 0.0
---
header: 
  seq: 3001
  stamp: 
    secs: 1596613440
    nsecs: 899344682
  frame_id: "node1_radarinterface_radarscan"
range: 1.87614250183
angle: -0.0313490070403
elev: 0.0774139240384
doppler: 1.43105530739
snr: 235
noise: 362
frame_num: 204
point_id: 37
x: -0.0586294531822
y: 1.86960446835
z: 0.145094528794
doppler_bin: 50
target_idx: 1
posX: -0.203985050321
posY: 1.77434182167
posZ: 0.390959739685
velX: 0.201061919332
velY: 0.398453533649
velZ: -0.0943041220307
accX: 0.0
accY: 0.0
accZ: 0.0
---
header: 
  seq: 3002
  stamp: 
    secs: 1596613440
    nsecs: 899364366
  frame_id: "node1_radarinterface_radarscan"
range: 1.71979725361
angle: -0.0313801132143
elev: 0.0892804637551
doppler: 1.51055836678
snr: 301
noise: 368
frame_num: 204
point_id: 39
x: -0.0537436679006
y: 1.71210432053
z: 0.153340399265
doppler_bin: 51
target_idx: 1
posX: -0.203985050321
posY: 1.77434182167
posZ: 0.390959739685
velX: 0.201061919332
velY: 0.398453533649
velZ: -0.0943041220307
accX: 0.0
accY: 0.0
accZ: 0.0
---
header: 
  seq: 3003
  stamp: 
    secs: 1596613440
    nsecs: 899423752
  frame_id: "node1_radarinterface_radarscan"
range: 1.71979725361
angle: -0.128298088908
elev: 0.215022861958
doppler: -0.0795030742884
snr: 337
noise: 409
frame_num: 204
point_id: 44
x: -0.2149746418
y: 1.66638362408
z: 0.366952747107
doppler_bin: 31
target_idx: 1
posX: -0.203985050321
posY: 1.77434182167
posZ: 0.390959739685
velX: 0.201061919332
velY: 0.398453533649
velZ: -0.0943041220307
accX: 0.0
accY: 0.0
accZ: 0.0
---
header: 
  seq: 3004
  stamp: 
    secs: 1596613441
    nsecs:     35112
  frame_id: "node1_radarinterface_radarscan"
range: 1.6416246891
angle: -0.162713363767
elev: 0.267146617174
doppler: 0.0
snr: 205
noise: 434
frame_num: 205
point_id: 5
x: -0.256503850222
y: 1.56247866154
z: 0.433356642723
doppler_bin: 32
target_idx: 1
posX: -0.206418797374
posY: 1.77716732025
posZ: 0.409517586231
velX: 0.111400187016
velY: 0.34340429306
velZ: -0.0196646377444
accX: 0.0
accY: 0.0
accZ: 0.0
---
header: 
  seq: 3005
  stamp: 
    secs: 1596613441
    nsecs:    113304
  frame_id: "node1_radarinterface_radarscan"
range: 1.71979725361
angle: -0.129460722208
elev: 0.252678662539
doppler: 0.0
snr: 206
noise: 467
frame_num: 205
point_id: 6
x: -0.214974671602
y: 1.65125238895
z: 0.429946660995
doppler_bin: 32
target_idx: 1
posX: -0.206418797374
posY: 1.77716732025
posZ: 0.409517586231
velX: 0.111400187016
velY: 0.34340429306
velZ: -0.0196646377444
accX: 0.0
accY: 0.0
accZ: 0.0
---
header: 
  seq: 3006
  stamp: 
    secs: 1596613441
    nsecs:    132185
  frame_id: "node1_radarinterface_radarscan"
range: 1.6416246891
angle: -0.129949107766
elev: 0.26676928997
doppler: 0.0795030742884
snr: 221
noise: 436
frame_num: 205
point_id: 16
x: -0.205203086138
y: 1.5702047348
z: 0.432759165764
doppler_bin: 33
target_idx: 1
posX: -0.206418797374
posY: 1.77716732025
posZ: 0.409517586231
velX: 0.111400187016
velY: 0.34340429306
velZ: -0.0196646377444
accX: 0.0
accY: 0.0
accZ: 0.0
---
header: 
  seq: 3007
  stamp: 
    secs: 1596613441
    nsecs:    149971
  frame_id: "node1_radarinterface_radarscan"
range: 1.71979725361
angle: -0.127244859934
elev: 0.173341795802
doppler: 0.159006148577
snr: 236
noise: 475
frame_num: 205
point_id: 28
x: -0.214974656701
y: 1.68032848835
z: 0.29662206769
doppler_bin: 34
target_idx: 1
posX: -0.206418797374
posY: 1.77716732025
posZ: 0.409517586231
velX: 0.111400187016
velY: 0.34340429306
velZ: -0.0196646377444
accX: 0.0
accY: 0.0
accZ: 0.0
---
header: 
  seq: 3008
  stamp: 
    secs: 1596613441
    nsecs:    166154
  frame_id: "node1_radarinterface_radarscan"
range: 1.79796981812
angle: -0.0637352094054
elev: 0.193777322769
doppler: 0.159006148577
snr: 229
noise: 508
frame_num: 205
point_id: 29
x: -0.112373106182
y: 1.76073646545
z: 0.346229434013
doppler_bin: 34
target_idx: 1
posX: -0.206418797374
posY: 1.77716732025
posZ: 0.409517586231
velX: 0.111400187016
velY: 0.34340429306
velZ: -0.0196646377444
accX: 0.0
accY: 0.0
accZ: 0.0
---
header: 
  seq: 3009
  stamp: 
    secs: 1596613441
    nsecs:    215499
  frame_id: "node1_radarinterface_radarscan"
range: 1.87614250183
angle: -0.0325956270099
elev: 0.287741333246
doppler: 0.238509222865
snr: 255
noise: 463
frame_num: 205
point_id: 31
x: -0.0586294494569
y: 1.79805362225
z: 0.532425105572
doppler_bin: 35
target_idx: 1
posX: -0.206418797374
posY: 1.77716732025
posZ: 0.409517586231
velX: 0.111400187016
velY: 0.34340429306
velZ: -0.0196646377444
accX: 0.0
accY: 0.0
accZ: 0.0
---
header: 
  seq: 3010
  stamp: 
    secs: 1596613441
    nsecs:    226846
  frame_id: "node1_radarinterface_radarscan"
range: 1.95431506634
angle: -0.0327689610422
elev: 0.305099636316
doppler: 0.238509222865
snr: 207
noise: 473
frame_num: 205
point_id: 32
x: -0.061072345823
y: 1.86305820942
z: 0.587053179741
doppler_bin: 35
target_idx: 1
posX: -0.206418797374
posY: 1.77716732025
posZ: 0.409517586231
velX: 0.111400187016
velY: 0.34340429306
velZ: -0.0196646377444
accX: 0.0
accY: 0.0
accZ: 0.0
---
header: 
  seq: 3011
  stamp: 
    secs: 1596613441
    nsecs: 100998609
  frame_id: "node1_radarinterface_radarscan"
range: 1.6416246891
angle: -0.127136766911
elev: 0.168444037437
doppler: 0.0
snr: 234
noise: 431
frame_num: 206
point_id: 5
x: -0.205203071237
y: 1.60532844067
z: 0.2752161026
doppler_bin: 32
target_idx: 1
posX: -0.301336407661
posY: 1.75264596939
posZ: 0.398055016994
velX: -0.292116135359
velY: 0.0884902477264
velZ: -0.0700967088342
accX: 0.0
accY: 0.0
accZ: 0.0
---
header: 
  seq: 3012
  stamp: 
    secs: 1596613441
    nsecs: 101058464
  frame_id: "node1_radarinterface_radarscan"
range: 1.71979725361
angle: -0.127114117146
elev: 0.167398154736
doppler: 0.0
snr: 263
noise: 464
frame_num: 206
point_id: 6
x: -0.214974671602
y: 1.68207573891
z: 0.286548227072
doppler_bin: 32
target_idx: 1
posX: -0.301336407661
posY: 1.75264596939
posZ: 0.398055016994
velX: -0.292116135359
velY: 0.0884902477264
velZ: -0.0700967088342
accX: 0.0
accY: 0.0
accZ: 0.0
---
header: 
  seq: 3013
  stamp: 
    secs: 1596613441
    nsecs: 101081353
  frame_id: "node1_radarinterface_radarscan"
range: 1.87614250183
angle: -0.2369928509
elev: 0.371673345566
doppler: 0.0
snr: 246
noise: 505
frame_num: 206
point_id: 8
x: -0.410406172276
y: 1.69918072224
z: 0.681368112564
doppler_bin: 32
target_idx: 1
posX: -0.301336407661
posY: 1.75264596939
posZ: 0.398055016994
velX: -0.292116135359
velY: 0.0884902477264
velZ: -0.0700967088342
accX: 0.0
accY: 0.0
accZ: 0.0
---
header: 
  seq: 3014
  stamp: 
    secs: 1596613441
    nsecs: 101097824
  frame_id: "node1_radarinterface_radarscan"
range: 1.95431506634
angle: -0.232174187899
elev: 0.315314888954
doppler: 0.0
snr: 237
noise: 508
frame_num: 206
point_id: 9
x: -0.427506446838
y: 1.80811285973
z: 0.606064081192
doppler_bin: 32
target_idx: 1
posX: -0.301336407661
posY: 1.75264596939
posZ: 0.398055016994
velX: -0.292116135359
velY: 0.0884902477264
velZ: -0.0700967088342
accX: 0.0
accY: 0.0
accZ: 0.0
---
header: 
  seq: 3015
  stamp: 
    secs: 1596613441
    nsecs: 101136700
  frame_id: "node1_radarinterface_radarscan"
range: 2.03248763084
angle: -0.265191376209
elev: 0.304968506098
doppler: 0.0
snr: 165
noise: 507
frame_num: 206
point_id: 10
x: -0.508121907711
y: 1.87092900276
z: 0.61028110981
doppler_bin: 32
target_idx: 1
posX: -0.301336407661
posY: 1.75264596939
posZ: 0.398055016994
velX: -0.292116135359
velY: 0.0884902477264
velZ: -0.0700967088342
accX: 0.0
accY: 0.0
accZ: 0.0
---
header: 
  seq: 3016
  stamp: 
    secs: 1596613441
    nsecs: 101148838
  frame_id: "node1_radarinterface_radarscan"
range: 1.56345200539
angle: -0.128897547722
elev: 0.235263288021
doppler: 0.0795030742884
snr: 198
noise: 398
frame_num: 206
point_id: 16
x: -0.195431500673
y: 1.50777077675
z: 0.364439129829
doppler_bin: 33
target_idx: 1
posX: -0.301336407661
posY: 1.75264596939
posZ: 0.398055016994
velX: -0.292116135359
velY: 0.0884902477264
velZ: -0.0700967088342
accX: 0.0
accY: 0.0
accZ: 0.0
---
header: 
  seq: 3017
  stamp: 
    secs: 1596613441
    nsecs: 101158769
  frame_id: "node1_radarinterface_radarscan"
range: 1.79796981812
angle: -0.160309240222
elev: 0.20595574379
doppler: 0.0795030742884
snr: 282
noise: 503
frame_num: 206
point_id: 19
x: -0.280932784081
y: 1.73740506172
z: 0.367689847946
doppler_bin: 33
target_idx: 1
posX: -0.301336407661
posY: 1.75264596939
posZ: 0.398055016994
velX: -0.292116135359
velY: 0.0884902477264
velZ: -0.0700967088342
accX: 0.0
accY: 0.0
accZ: 0.0
---
header: 
  seq: 3018
  stamp: 
    secs: 1596613441
    nsecs: 101170635
  frame_id: "node1_radarinterface_radarscan"
range: 1.87614250183
angle: -0.162461802363
elev: 0.261480391026
doppler: 0.0795030742884
snr: 223
noise: 525
frame_num: 206
point_id: 20
x: -0.293147265911
y: 1.7885042429
z: 0.485003292561
doppler_bin: 33
target_idx: 1
posX: -0.301336407661
posY: 1.75264596939
posZ: 0.398055016994
velX: -0.292116135359
velY: 0.0884902477264
velZ: -0.0700967088342
accX: 0.0
accY: 0.0
accZ: 0.0
---
header: 
  seq: 3019
  stamp: 
    secs: 1596613441
    nsecs: 101179983
  frame_id: "node1_radarinterface_radarscan"
range: 1.95431506634
angle: -0.262943595648
elev: 0.277222543955
doppler: 0.0795030742884
snr: 126
noise: 556
frame_num: 206
point_id: 21
x: -0.488578766584
y: 1.8150908947
z: 0.534867286682
doppler_bin: 33
target_idx: 1
posX: -0.301336407661
posY: 1.75264596939
posZ: 0.398055016994
velX: -0.292116135359
velY: 0.0884902477264
velZ: -0.0700967088342
accX: 0.0
accY: 0.0
accZ: 0.0
---
header: 
  seq: 3020
  stamp: 
    secs: 1596613441
    nsecs: 101189863
  frame_id: "node1_radarinterface_radarscan"
range: 1.71979725361
angle: -0.160247087479
elev: 0.204107001424
doppler: 0.159006148577
snr: 255
noise: 450
frame_num: 206
point_id: 28
x: -0.268718332052
y: 1.66252148151
z: 0.348590493202
doppler_bin: 34
target_idx: 1
posX: -0.301336407661
posY: 1.75264596939
posZ: 0.398055016994
velX: -0.292116135359
velY: 0.0884902477264
velZ: -0.0700967088342
accX: 0.0
accY: 0.0
accZ: 0.0
---
header: 
  seq: 3021
  stamp: 
    secs: 1596613441
    nsecs: 101211696
  frame_id: "node1_radarinterface_radarscan"
range: 1.79796981812
angle: -0.18889054656
elev: 0.0535633936524
doppler: -0.318012297153
snr: 348
noise: 364
frame_num: 206
point_id: 34
x: -0.337119340897
y: 1.76345682144
z: 0.0962593182921
doppler_bin: 28
target_idx: 1
posX: -0.301336407661
posY: 1.75264596939
posZ: 0.398055016994
velX: -0.292116135359
velY: 0.0884902477264
velZ: -0.0700967088342
accX: 0.0
accY: 0.0
accZ: 0.0
---
header: 
  seq: 3022
  stamp: 
    secs: 1596613441
    nsecs: 101267853
  frame_id: "node1_radarinterface_radarscan"
range: 1.95431506634
angle: -0.252872556448
elev: 0.0385832637548
doppler: -0.318012297153
snr: 312
noise: 364
frame_num: 206
point_id: 36
x: -0.488578766584
y: 1.89075517654
z: 0.075385145843
doppler_bin: 28
target_idx: 1
posX: -0.301336407661
posY: 1.75264596939
posZ: 0.398055016994
velX: -0.292116135359
velY: 0.0884902477264
velZ: -0.0700967088342
accX: 0.0
accY: 0.0
accZ: 0.0
---
header: 
  seq: 3023
  stamp: 
    secs: 1596613441
    nsecs: 101280854
  frame_id: "node1_radarinterface_radarscan"
range: 1.79796981812
angle: -0.222942113876
elev: 0.145924553275
doppler: -0.238509222865
snr: 381
noise: 364
frame_num: 206
point_id: 39
x: -0.393305897713
y: 1.73483610153
z: 0.261437803507
doppler_bin: 29
target_idx: 1
posX: -0.301336407661
posY: 1.75264596939
posZ: 0.398055016994
velX: -0.292116135359
velY: 0.0884902477264
velZ: -0.0700967088342
accX: 0.0
accY: 0.0
accZ: 0.0
---
header: 
  seq: 3024
  stamp: 
    secs: 1596613441
    nsecs: 101292522
  frame_id: "node1_radarinterface_radarscan"
range: 1.87614250183
angle: -0.23538608849
elev: 0.354091614485
doppler: -0.159006148577
snr: 372
noise: 374
frame_num: 206
point_id: 48
x: -0.410406202078
y: 1.71122395992
z: 0.650530815125
doppler_bin: 30
target_idx: 1
posX: -0.301336407661
posY: 1.75264596939
posZ: 0.398055016994
velX: -0.292116135359
velY: 0.0884902477264
velZ: -0.0700967088342
accX: 0.0
accY: 0.0
accZ: 0.0
---
header: 
  seq: 3025
  stamp: 
    secs: 1596613441
    nsecs: 101302373
  frame_id: "node1_radarinterface_radarscan"
range: 1.95431506634
angle: -0.239476069808
elev: 0.396955996752
doppler: -0.159006148577
snr: 337
noise: 386
frame_num: 206
point_id: 49
x: -0.427506446838
y: 1.75091683865
z: 0.755563259125
doppler_bin: 30
target_idx: 1
posX: -0.301336407661
posY: 1.75264596939
posZ: 0.398055016994
velX: -0.292116135359
velY: 0.0884902477264
velZ: -0.0700967088342
accX: 0.0
accY: 0.0
accZ: 0.0
---
header: 
  seq: 3026
  stamp: 
    secs: 1596613441
    nsecs: 101313782
  frame_id: "node1_radarinterface_radarscan"
range: 1.87614250183
angle: -0.232507750392
elev: 0.319605410099
doppler: -0.0795030742884
snr: 387
noise: 398
frame_num: 206
point_id: 57
x: -0.410406172276
y: 1.73320627213
z: 0.589468896389
doppler_bin: 31
target_idx: 1
posX: -0.301336407661
posY: 1.75264596939
posZ: 0.398055016994
velX: -0.292116135359
velY: 0.0884902477264
velZ: -0.0700967088342
accX: 0.0
accY: 0.0
accZ: 0.0
---
header: 
  seq: 3027
  stamp: 
    secs: 1596613441
    nsecs: 101333454
  frame_id: "node1_radarinterface_radarscan"
range: 1.95431506634
angle: -0.231794342399
elev: 0.310343831778
doppler: -0.0795030742884
snr: 361
noise: 422
frame_num: 206
point_id: 58
x: -0.427506417036
y: 1.81118488312
z: 0.59682059288
doppler_bin: 31
target_idx: 1
posX: -0.301336407661
posY: 1.75264596939
posZ: 0.398055016994
velX: -0.292116135359
velY: 0.0884902477264
velZ: -0.0700967088342
accX: 0.0
accY: 0.0
accZ: 0.0
---
header: 
  seq: 3028
  stamp: 
    secs: 1596613441
    nsecs: 101349639
  frame_id: "node1_radarinterface_radarscan"
range: 2.03248763084
angle: -0.232048466802
elev: 0.313679873943
doppler: -0.0795030742884
snr: 257
noise: 461
frame_num: 206
point_id: 59
x: -0.444606661797
y: 1.88149356842
z: 0.627146482468
doppler_bin: 31
target_idx: 1
posX: -0.301336407661
posY: 1.75264596939
posZ: 0.398055016994
velX: -0.292116135359
velY: 0.0884902477264
velZ: -0.0700967088342
accX: 0.0
accY: 0.0
accZ: 0.0
---
header: 
  seq: 3029
  stamp: 
    secs: 1596613441
    nsecs: 200674006
  frame_id: "node1_radarinterface_radarscan"
range: 1.6416246891
angle: -0.229726135731
elev: 0.281470328569
doppler: 0.0
snr: 124
noise: 437
frame_num: 207
point_id: 5
x: -0.359105408192
y: 1.53559327126
z: 0.455991476774
doppler_bin: 32
target_idx: 1
posX: -0.296529978514
posY: 1.77466785908
posZ: 0.344924479723
velX: -0.217978596687
velY: 0.0854174792767
velZ: -0.224584296346
accX: 0.0
accY: 0.0
accZ: 0.0
---
header: 
  seq: 3030
  stamp: 
    secs: 1596613441
    nsecs: 200772328
  frame_id: "node1_radarinterface_radarscan"
range: 1.95431506634
angle: -0.197802007198
elev: 0.30406537652
doppler: 0.0
snr: 187
noise: 521
frame_num: 207
point_id: 6
x: -0.366434067488
y: 1.82830584049
z: 0.585124969482
doppler_bin: 32
target_idx: 1
posX: -0.296529978514
posY: 1.77466785908
posZ: 0.344924479723
velX: -0.217978596687
velY: 0.0854174792767
velZ: -0.224584296346
accX: 0.0
accY: 0.0
accZ: 0.0
---
header: 
  seq: 3031
  stamp: 
    secs: 1596613441
    nsecs: 200787135
  frame_id: "node1_radarinterface_radarscan"
range: 1.6416246891
angle: -0.22281935811
elev: 0.142191141844
doppler: 0.0795030742884
snr: 202
noise: 445
frame_num: 207
point_id: 20
x: -0.359105408192
y: 1.58488309383
z: 0.232638701797
doppler_bin: 33
target_idx: 1
posX: -0.296529978514
posY: 1.77466785908
posZ: 0.344924479723
velX: -0.217978596687
velY: 0.0854174792767
velZ: -0.224584296346
accX: 0.0
accY: 0.0
accZ: 0.0
---
header: 
  seq: 3032
  stamp: 
    secs: 1596613441
    nsecs: 200797891
  frame_id: "node1_radarinterface_radarscan"
range: 1.71979725361
angle: -0.252757072449
elev: 0.0243904944509
doppler: 0.0795030742884
snr: 219
noise: 487
frame_num: 207
point_id: 21
x: -0.429949313402
y: 1.66465818882
z: 0.0419425480068
doppler_bin: 33
target_idx: 1
posX: -0.296529978514
posY: 1.77466785908
posZ: 0.344924479723
velX: -0.217978596687
velY: 0.0854174792767
velZ: -0.224584296346
accX: 0.0
accY: 0.0
accZ: 0.0
---
header: 
  seq: 3033
  stamp: 
    secs: 1596613441
    nsecs: 200810352
  frame_id: "node1_radarinterface_radarscan"
range: 1.79796981812
angle: -0.253355115652
elev: 0.0722192972898
doppler: 0.0795030742884
snr: 196
noise: 523
frame_num: 207
point_id: 22
x: -0.449492454529
y: 1.73603594303
z: 0.129735276103
doppler_bin: 33
target_idx: 1
posX: -0.296529978514
posY: 1.77466785908
posZ: 0.344924479723
velX: -0.217978596687
velY: 0.0854174792767
velZ: -0.224584296346
accX: 0.0
accY: 0.0
accZ: 0.0
---
header: 
  seq: 3034
  stamp: 
    secs: 1596613441
    nsecs: 200828149
  frame_id: "node1_radarinterface_radarscan"
range: 1.71979725361
angle: -0.0949998125434
elev: 0.152923166752
doppler: 1.351552248
snr: 178
noise: 357
frame_num: 207
point_id: 36
x: -0.161230996251
y: 1.69206309319
z: 0.261972993612
doppler_bin: 49
target_idx: 1
posX: -0.296529978514
posY: 1.77466785908
posZ: 0.344924479723
velX: -0.217978596687
velY: 0.0854174792767
velZ: -0.224584296346
accX: 0.0
accY: 0.0
accZ: 0.0
---
header: 
  seq: 3035
  stamp: 
    secs: 1596613441
    nsecs: 200872695
  frame_id: "node1_radarinterface_radarscan"
range: 1.6416246891
angle: -0.0312846638262
elev: 0.0434799082577
doppler: -1.98757684231
snr: 250
noise: 370
frame_num: 207
point_id: 37
x: -0.0513007678092
y: 1.63927066326
z: 0.071355201304
doppler_bin: 7
target_idx: 1
posX: -0.296529978514
posY: 1.77466785908
posZ: 0.344924479723
velX: -0.217978596687
velY: 0.0854174792767
velZ: -0.224584296346
accX: 0.0
accY: 0.0
accZ: 0.0
---
header: 
  seq: 3036
  stamp: 
    secs: 1596613441
    nsecs: 200892861
  frame_id: "node1_radarinterface_radarscan"
range: 2.5015232563
angle: 0.0313265435398
elev: 0.0675441771746
doppler: -0.238509222865
snr: 143
noise: 487
frame_num: 207
point_id: 48
x: 0.0781726017594
y: 2.49459457397
z: 0.168834879994
doppler_bin: 29
target_idx: 1
posX: -0.296529978514
posY: 1.77466785908
posZ: 0.344924479723
velX: -0.217978596687
velY: 0.0854174792767
velZ: -0.224584296346
accX: 0.0
accY: 0.0
accZ: 0.0
---
header: 
  seq: 3037
  stamp: 
    secs: 1596613441
    nsecs: 200906037
  frame_id: "node1_radarinterface_radarscan"
range: 2.42335057259
angle: 0.0314576923847
elev: 0.113537020981
doppler: -0.159006148577
snr: 130
noise: 561
frame_num: 207
point_id: 49
x: 0.0757297053933
y: 2.40655684471
z: 0.274549275637
doppler_bin: 30
target_idx: 1
posX: -0.296529978514
posY: 1.77466785908
posZ: 0.344924479723
velX: -0.217978596687
velY: 0.0854174792767
velZ: -0.224584296346
accX: 0.0
accY: 0.0
accZ: 0.0
---
header: 
  seq: 3038
  stamp: 
    secs: 1596613441
    nsecs: 200918062
  frame_id: "node1_radarinterface_radarscan"
range: 1.71979725361
angle: -0.190696567297
elev: 0.146951422095
doppler: -0.0795030742884
snr: 323
noise: 398
frame_num: 207
point_id: 57
x: -0.322461992502
y: 1.67042171955
z: 0.251818031073
doppler_bin: 31
target_idx: 1
posX: -0.296529978514
posY: 1.77466785908
posZ: 0.344924479723
velX: -0.217978596687
velY: 0.0854174792767
velZ: -0.224584296346
accX: 0.0
accY: 0.0
accZ: 0.0
---
header: 
  seq: 3039
  stamp: 
    secs: 1596613441
    nsecs: 200929137
  frame_id: "node1_radarinterface_radarscan"
range: 1.79796981812
angle: -0.191193401814
elev: 0.163382396102
doppler: -0.0795030742884
snr: 324
noise: 420
frame_num: 207
point_id: 58
x: -0.337119340897
y: 1.7416998148
z: 0.292451441288
doppler_bin: 31
target_idx: 1
posX: -0.296529978514
posY: 1.77466785908
posZ: 0.344924479723
velX: -0.217978596687
velY: 0.0854174792767
velZ: -0.224584296346
accX: 0.0
accY: 0.0
accZ: 0.0
---
header: 
  seq: 3040
  stamp: 
    secs: 1596613441
    nsecs: 299899068
  frame_id: "node1_radarinterface_radarscan"
range: 1.6416246891
angle: -0.126492977142
elev: 0.135474890471
doppler: 0.0
snr: 186
noise: 431
frame_num: 208
point_id: 5
x: -0.205203071237
y: 1.61358726025
z: 0.221719250083
doppler_bin: 32
target_idx: 1
posX: -0.155022010207
posY: 1.74609673023
posZ: 0.398507207632
velX: 0.360732764006
velY: -0.0742389038205
velZ: -0.0318374484777
accX: 0.0
accY: 0.0
accZ: 0.0
---
header: 
  seq: 3041
  stamp: 
    secs: 1596613441
    nsecs: 299962894
  frame_id: "node1_radarinterface_radarscan"
range: 1.71979725361
angle: -0.126541271806
elev: 0.138231709599
doppler: 0.0
snr: 256
noise: 463
frame_num: 208
point_id: 6
x: -0.214974656701
y: 1.68977272511
z: 0.236974149942
doppler_bin: 32
target_idx: 1
posX: -0.155022010207
posY: 1.74609673023
posZ: 0.398507207632
velX: 0.360732764006
velY: -0.0742389038205
velZ: -0.0318374484777
accX: 0.0
accY: 0.0
accZ: 0.0
---
header: 
  seq: 3042
  stamp: 
    secs: 1596613441
    nsecs: 299976096
  frame_id: "node1_radarinterface_radarscan"
range: 1.87614250183
angle: -0.162102103233
elev: 0.253131181002
doppler: 0.0
snr: 206
noise: 516
frame_num: 208
point_id: 8
x: -0.293147265911
y: 1.79254341125
z: 0.469854712486
doppler_bin: 32
target_idx: 1
posX: -0.155022010207
posY: 1.74609673023
posZ: 0.398507207632
velX: 0.360732764006
velY: -0.0742389038205
velZ: -0.0318374484777
accX: 0.0
accY: 0.0
accZ: 0.0
---
header: 
  seq: 3043
  stamp: 
    secs: 1596613441
    nsecs: 299987630
  frame_id: "node1_radarinterface_radarscan"
range: 1.79796981812
angle: -0.127459958196
elev: 0.182678490877
doppler: 0.0795030742884
snr: 281
noise: 521
frame_num: 208
point_id: 19
x: -0.224746227264
y: 1.75371015072
z: 0.32662665844
doppler_bin: 33
target_idx: 1
posX: -0.155022010207
posY: 1.74609673023
posZ: 0.398507207632
velX: 0.360732764006
velY: -0.0742389038205
velZ: -0.0318374484777
accX: 0.0
accY: 0.0
accZ: 0.0
---
header: 
  seq: 3044
  stamp: 
    secs: 1596613441
    nsecs: 300004417
  frame_id: "node1_radarinterface_radarscan"
range: 1.87614250183
angle: -0.163272902369
elev: 0.279288232327
doppler: 0.0795030742884
snr: 199
noise: 551
frame_num: 208
point_id: 20
x: -0.293147265911
y: 1.77946078777
z: 0.517199099064
doppler_bin: 33
target_idx: 1
posX: -0.155022010207
posY: 1.74609673023
posZ: 0.398507207632
velX: 0.360732764006
velY: -0.0742389038205
velZ: -0.0318374484777
accX: 0.0
accY: 0.0
accZ: 0.0
---
header: 
  seq: 3045
  stamp: 
    secs: 1596613441
    nsecs: 300019648
  frame_id: "node1_radarinterface_radarscan"
range: 1.95431506634
angle: -0.304202973843
elev: 0.351195394993
doppler: 0.0795030742884
snr: 183
noise: 570
frame_num: 208
point_id: 21
x: -0.54965108633
y: 1.75077438354
z: 0.672324419022
doppler_bin: 33
target_idx: 1
posX: -0.155022010207
posY: 1.74609673023
posZ: 0.398507207632
velX: 0.360732764006
velY: -0.0742389038205
velZ: -0.0318374484777
accX: 0.0
accY: 0.0
accZ: 0.0
---
header: 
  seq: 3046
  stamp: 
    secs: 1596613441
    nsecs: 300035717
  frame_id: "node1_radarinterface_radarscan"
range: 1.6416246891
angle: -0.127250105143
elev: 0.173575863242
doppler: 0.159006148577
snr: 182
noise: 428
frame_num: 208
point_id: 30
x: -0.205203086138
y: 1.60388314724
z: 0.283517748117
doppler_bin: 34
target_idx: 1
posX: -0.155022010207
posY: 1.74609673023
posZ: 0.398507207632
velX: 0.360732764006
velY: -0.0742389038205
velZ: -0.0318374484777
accX: 0.0
accY: 0.0
accZ: 0.0
---
header: 
  seq: 3047
  stamp: 
    secs: 1596613441
    nsecs: 300050772
  frame_id: "node1_radarinterface_radarscan"
range: 1.71979725361
angle: -0.128117665648
elev: 0.208513066173
doppler: 0.159006148577
snr: 257
noise: 471
frame_num: 208
point_id: 31
x: -0.214974656701
y: 1.66875624657
z: 0.35600733757
doppler_bin: 34
target_idx: 1
posX: -0.155022010207
posY: 1.74609673023
posZ: 0.398507207632
velX: 0.360732764006
velY: -0.0742389038205
velZ: -0.0318374484777
accX: 0.0
accY: 0.0
accZ: 0.0
---
header: 
  seq: 3048
  stamp: 
    secs: 1596613441
    nsecs: 300065457
  frame_id: "node1_radarinterface_radarscan"
range: 1.79796981812
angle: -0.129306212068
elev: 0.248034954071
doppler: 0.159006148577
snr: 259
noise: 509
frame_num: 208
point_id: 32
x: -0.224746227264
y: 1.72839522362
z: 0.44140073657
doppler_bin: 34
target_idx: 1
posX: -0.155022010207
posY: 1.74609673023
posZ: 0.398507207632
velX: 0.360732764006
velY: -0.0742389038205
velZ: -0.0318374484777
accX: 0.0
accY: 0.0
accZ: 0.0
---
header: 
  seq: 3049
  stamp: 
    secs: 1596613441
    nsecs: 300081574
  frame_id: "node1_radarinterface_radarscan"
range: 2.11066031456
angle: -0.065024793148
elev: 0.277112305164
doppler: 0.47701844573
snr: 279
noise: 386
frame_num: 208
point_id: 44
x: -0.13191626966
y: 2.02584719658
z: 0.577432870865
doppler_bin: 38
target_idx: 1
posX: -0.155022010207
posY: 1.74609673023
posZ: 0.398507207632
velX: 0.360732764006
velY: -0.0742389038205
velZ: -0.0318374484777
accX: 0.0
accY: 0.0
accZ: 0.0
---
header: 
  seq: 3050
  stamp: 
    secs: 1596613441
    nsecs: 300097137
  frame_id: "node1_radarinterface_radarscan"
range: 1.6416246891
angle: 0.064951762557
elev: 0.273136824369
doppler: -1.03354001045
snr: 293
noise: 368
frame_num: 208
point_id: 48
x: 0.102601543069
y: 1.57743561268
z: 0.442833662033
doppler_bin: 19
target_idx: 1
posX: -0.155022010207
posY: 1.74609673023
posZ: 0.398507207632
velX: 0.360732764006
velY: -0.0742389038205
velZ: -0.0318374484777
accX: 0.0
accY: 0.0
accZ: 0.0
---
header: 
  seq: 3051
  stamp: 
    secs: 1596613441
    nsecs: 300112278
  frame_id: "node1_radarinterface_radarscan"
range: 1.71979725361
angle: 0.064899303019
elev: 0.270240217447
doppler: -1.03354001045
snr: 252
noise: 371
frame_num: 208
point_id: 49
x: 0.107487335801
y: 1.65389120579
z: 0.459122151136
doppler_bin: 19
target_idx: 1
posX: -0.155022010207
posY: 1.74609673023
posZ: 0.398507207632
velX: 0.360732764006
velY: -0.0742389038205
velZ: -0.0318374484777
accX: 0.0
accY: 0.0
accZ: 0.0
---
header: 
  seq: 3052
  stamp: 
    secs: 1596613441
    nsecs: 300127373
  frame_id: "node1_radarinterface_radarscan"
range: 1.56345200539
angle: 0.065536223352
elev: 0.303306698799
doppler: -0.95403689146
snr: 348
noise: 350
frame_num: 208
point_id: 51
x: 0.0977157503366
y: 1.48888361454
z: 0.466968089342
doppler_bin: 20
target_idx: 1
posX: -0.155022010207
posY: 1.74609673023
posZ: 0.398507207632
velX: 0.360732764006
velY: -0.0742389038205
velZ: -0.0318374484777
accX: 0.0
accY: 0.0
accZ: 0.0
---
header: 
  seq: 3053
  stamp: 
    secs: 1596613441
    nsecs: 300141853
  frame_id: "node1_radarinterface_radarscan"
range: 1.6416246891
angle: 0.0652331933379
elev: 0.288115620613
doppler: -0.95403689146
snr: 365
noise: 354
frame_num: 208
point_id: 52
x: 0.102601543069
y: 1.57061088085
z: 0.466461122036
doppler_bin: 20
target_idx: 1
posX: -0.155022010207
posY: 1.74609673023
posZ: 0.398507207632
velX: 0.360732764006
velY: -0.0742389038205
velZ: -0.0318374484777
accX: 0.0
accY: 0.0
accZ: 0.0
---
header: 
  seq: 3054
  stamp: 
    secs: 1596613441
    nsecs: 300157104
  frame_id: "node1_radarinterface_radarscan"
range: 1.6416246891
angle: 0.0654530376196
elev: 0.299224853516
doppler: -0.874533832073
snr: 333
noise: 360
frame_num: 208
point_id: 57
x: 0.102601550519
y: 1.565320611
z: 0.483917444944
doppler_bin: 21
target_idx: 1
posX: -0.155022010207
posY: 1.74609673023
posZ: 0.398507207632
velX: 0.360732764006
velY: -0.0742389038205
velZ: -0.0318374484777
accX: 0.0
accY: 0.0
accZ: 0.0
---
header: 
  seq: 3055
  stamp: 
    secs: 1596613441
    nsecs: 300171934
  frame_id: "node1_radarinterface_radarscan"
range: 1.71979725361
angle: 0.0649264752865
elev: 0.271744847298
doppler: -0.874533832073
snr: 283
noise: 362
frame_num: 208
point_id: 58
x: 0.107487335801
y: 1.65319705009
z: 0.461615353823
doppler_bin: 21
target_idx: 1
posX: -0.155022010207
posY: 1.74609673023
posZ: 0.398507207632
velX: 0.360732764006
velY: -0.0742389038205
velZ: -0.0318374484777
accX: 0.0
accY: 0.0
accZ: 0.0
---
header: 
  seq: 3056
  stamp: 
    secs: 1596613441
    nsecs: 300186843
  frame_id: "node1_radarinterface_radarscan"
range: 1.56345200539
angle: 0.0658874884248
elev: 0.319879204035
doppler: -0.795030713081
snr: 269
noise: 353
frame_num: 208
point_id: 59
x: 0.0977157428861
y: 1.4809230566
z: 0.49163043499
doppler_bin: 22
target_idx: 1
posX: -0.155022010207
posY: 1.74609673023
posZ: 0.398507207632
velX: 0.360732764006
velY: -0.0742389038205
velZ: -0.0318374484777
accX: 0.0
accY: 0.0
accZ: 0.0
---
header: 
  seq: 3057
  stamp: 
    secs: 1596613441
    nsecs: 300202128
  frame_id: "node1_radarinterface_radarscan"
range: 1.6416246891
angle: -0.127226635814
elev: 0.172526210546
doppler: -0.0795030742884
snr: 217
noise: 376
frame_num: 208
point_id: 60
x: -0.205203086138
y: 1.60418224335
z: 0.281820327044
doppler_bin: 31
target_idx: 1
posX: -0.155022010207
posY: 1.74609673023
posZ: 0.398507207632
velX: 0.360732764006
velY: -0.0742389038205
velZ: -0.0318374484777
accX: 0.0
accY: 0.0
accZ: 0.0
---
header: 
  seq: 3058
  stamp: 
    secs: 1596613441
    nsecs: 399337059
  frame_id: "node1_radarinterface_radarscan"
range: 1.71979725361
angle: -0.163894996047
elev: 0.292119055986
doppler: 0.0
snr: 230
noise: 467
frame_num: 209
point_id: 5
x: -0.26871830225
y: 1.62486922741
z: 0.495270907879
doppler_bin: 32
target_idx: 1
posX: -0.155799210072
posY: 1.75871276855
posZ: 0.425853461027
velX: 0.276467263699
velY: -0.0255767405033
velZ: 0.0666407197714
accX: 0.0
accY: 0.0
accZ: 0.0
---
header: 
  seq: 3059
  stamp: 
    secs: 1596613441
    nsecs: 399414607
  frame_id: "node1_radarinterface_radarscan"
range: 1.79796981812
angle: -0.130187869072
elev: 0.273362636566
doppler: 0.0
snr: 205
noise: 503
frame_num: 209
point_id: 6
x: -0.224746227264
y: 1.716558218
z: 0.485399216413
doppler_bin: 32
target_idx: 1
posX: -0.155799210072
posY: 1.75871276855
posZ: 0.425853461027
velX: 0.276467263699
velY: -0.0255767405033
velZ: 0.0666407197714
accX: 0.0
accY: 0.0
accZ: 0.0
---
header: 
  seq: 3060
  stamp: 
    secs: 1596613441
    nsecs: 399427712
  frame_id: "node1_radarinterface_radarscan"
range: 1.6416246891
angle: -0.163981482387
elev: 0.293851912022
doppler: 0.0795030742884
snr: 267
noise: 441
frame_num: 209
point_id: 14
x: -0.256503880024
y: 1.55017876625
z: 0.475482076406
doppler_bin: 33
target_idx: 1
posX: -0.155799210072
posY: 1.75871276855
posZ: 0.425853461027
velX: 0.276467263699
velY: -0.0255767405033
velZ: 0.0666407197714
accX: 0.0
accY: 0.0
accZ: 0.0
---
header: 
  seq: 3061
  stamp: 
    secs: 1596613441
    nsecs: 399437197
  frame_id: "node1_radarinterface_radarscan"
range: 1.79796981812
angle: -0.16227003932
elev: 0.257066726685
doppler: 0.0795030742884
snr: 248
noise: 532
frame_num: 209
point_id: 16
x: -0.280932784081
y: 1.71604478359
z: 0.45712441206
doppler_bin: 33
target_idx: 1
posX: -0.155799210072
posY: 1.75871276855
posZ: 0.425853461027
velX: 0.276467263699
velY: -0.0255767405033
velZ: 0.0666407197714
accX: 0.0
accY: 0.0
accZ: 0.0
---
header: 
  seq: 3062
  stamp: 
    secs: 1596613441
    nsecs: 399447772
  frame_id: "node1_radarinterface_radarscan"
range: 1.6416246891
angle: -0.163349345326
elev: 0.280901074409
doppler: 0.159006148577
snr: 222
noise: 420
frame_num: 209
point_id: 22
x: -0.256503850222
y: 1.55628633499
z: 0.455093681812
doppler_bin: 34
target_idx: 1
posX: -0.155799210072
posY: 1.75871276855
posZ: 0.425853461027
velX: 0.276467263699
velY: -0.0255767405033
velZ: 0.0666407197714
accX: 0.0
accY: 0.0
accZ: 0.0
---
header: 
  seq: 3063
  stamp: 
    secs: 1596613441
    nsecs: 399461819
  frame_id: "node1_radarinterface_radarscan"
range: 2.42335057259
angle: 0.0651864334941
elev: 0.28568854928
doppler: 0.318012297153
snr: 165
noise: 497
frame_num: 209
point_id: 29
x: 0.151459410787
y: 2.32018852234
z: 0.682944178581
doppler_bin: 36
target_idx: 1
posX: -0.155799210072
posY: 1.75871276855
posZ: 0.425853461027
velX: 0.276467263699
velY: -0.0255767405033
velZ: 0.0666407197714
accX: 0.0
accY: 0.0
accZ: 0.0
---
header: 
  seq: 3064
  stamp: 
    secs: 1596613441
    nsecs: 399478027
  frame_id: "node1_radarinterface_radarscan"
range: 2.5015232563
angle: 0.0654562711716
elev: 0.299384713173
doppler: 0.318012297153
snr: 184
noise: 505
frame_num: 209
point_id: 30
x: 0.15634521842
y: 2.38513231277
z: 0.737780094147
doppler_bin: 36
target_idx: 1
posX: -0.155799210072
posY: 1.75871276855
posZ: 0.425853461027
velX: 0.276467263699
velY: -0.0255767405033
velZ: 0.0666407197714
accX: 0.0
accY: 0.0
accZ: 0.0
---
header: 
  seq: 3065
  stamp: 
    secs: 1596613441
    nsecs: 399493770
  frame_id: "node1_radarinterface_radarscan"
range: 2.57969594002
angle: 0.0985476970673
elev: 0.308277726173
doppler: 0.318012297153
snr: 140
noise: 516
frame_num: 209
point_id: 31
x: 0.241846486926
y: 2.44615626335
z: 0.782726168633
doppler_bin: 36
target_idx: 1
posX: -0.155799210072
posY: 1.75871276855
posZ: 0.425853461027
velX: 0.276467263699
velY: -0.0255767405033
velZ: 0.0666407197714
accX: 0.0
accY: 0.0
accZ: 0.0
---
header: 
  seq: 3066
  stamp: 
    secs: 1596613441
    nsecs: 399508802
  frame_id: "node1_radarinterface_radarscan"
range: 2.42335057259
angle: 0.0654606670141
elev: 0.299601972103
doppler: 0.397515356541
snr: 157
noise: 476
frame_num: 209
point_id: 32
x: 0.151459410787
y: 2.31044101715
z: 0.715227544308
doppler_bin: 37
target_idx: 1
posX: -0.155799210072
posY: 1.75871276855
posZ: 0.425853461027
velX: 0.276467263699
velY: -0.0255767405033
velZ: 0.0666407197714
accX: 0.0
accY: 0.0
accZ: 0.0
---
header: 
  seq: 3067
  stamp: 
    secs: 1596613441
    nsecs: 399523872
  frame_id: "node1_radarinterface_radarscan"
range: 2.18883275986
angle: -0.361984103918
elev: 0.242721393704
doppler: 1.98757684231
snr: 156
noise: 390
frame_num: 209
point_id: 34
x: -0.752411305904
y: 1.98698544502
z: 0.526075303555
doppler_bin: 57
target_idx: 1
posX: -0.155799210072
posY: 1.75871276855
posZ: 0.425853461027
velX: 0.276467263699
velY: -0.0255767405033
velZ: 0.0666407197714
accX: 0.0
accY: 0.0
accZ: 0.0
---
header: 
  seq: 3068
  stamp: 
    secs: 1596613441
    nsecs: 399539009
  frame_id: "node1_radarinterface_radarscan"
range: 1.71979725361
angle: -0.15938359499
elev: 0.176283404231
doppler: -0.159006148577
snr: 294
noise: 373
frame_num: 209
point_id: 36
x: -0.268718332052
y: 1.67168426514
z: 0.30160394311
doppler_bin: 30
target_idx: 1
posX: -0.155799210072
posY: 1.75871276855
posZ: 0.425853461027
velX: 0.276467263699
velY: -0.0255767405033
velZ: 0.0666407197714
accX: 0.0
accY: 0.0
accZ: 0.0
---
header: 
  seq: 3069
  stamp: 
    secs: 1596613441
    nsecs: 399553913
  frame_id: "node1_radarinterface_radarscan"
range: 1.79796981812
angle: -0.127763107419
elev: 0.195039376616
doppler: -0.159006148577
snr: 272
noise: 388
frame_num: 209
point_id: 37
x: -0.224746227264
y: 1.74950361252
z: 0.34845584631
doppler_bin: 30
target_idx: 1
posX: -0.155799210072
posY: 1.75871276855
posZ: 0.425853461027
velX: 0.276467263699
velY: -0.0255767405033
velZ: 0.0666407197714
accX: 0.0
accY: 0.0
accZ: 0.0
---
header: 
  seq: 3070
  stamp: 
    secs: 1596613441
    nsecs: 399569420
  frame_id: "node1_radarinterface_radarscan"
range: 1.79796981812
angle: -0.159598052502
elev: 0.183612585068
doppler: -0.0795030742884
snr: 288
noise: 442
frame_num: 209
point_id: 44
x: -0.280932784081
y: 1.74528110027
z: 0.328278034925
doppler_bin: 31
target_idx: 1
posX: -0.155799210072
posY: 1.75871276855
posZ: 0.425853461027
velX: 0.276467263699
velY: -0.0255767405033
velZ: 0.0666407197714
accX: 0.0
accY: 0.0
accZ: 0.0
---
header: 
  seq: 3071
  stamp: 
    secs: 1596613441
    nsecs: 495588092
  frame_id: "node1_radarinterface_radarscan"
range: 1.71979725361
angle: -0.252754807472
elev: 0.0240278244019
doppler: 0.0
snr: 226
noise: 463
frame_num: 210
point_id: 5
x: -0.429949313402
y: 1.66467380524
z: 0.0413190089166
doppler_bin: 32
target_idx: 1
posX: -0.16682767868
posY: 1.76266860962
posZ: 0.40656247735
velX: 0.160222604871
velY: 0.00130777806044
velZ: 0.00806757807732
accX: 0.0
accY: 0.0
accZ: 0.0
---
header: 
  seq: 3072
  stamp: 
    secs: 1596613441
    nsecs: 495635267
  frame_id: "node1_radarinterface_radarscan"
range: 1.79796981812
angle: -0.22101713717
elev: 0.0656415745616
doppler: 0.0
snr: 230
noise: 497
frame_num: 210
point_id: 6
x: -0.393305927515
y: 1.75045621395
z: 0.117936834693
doppler_bin: 32
target_idx: 1
posX: -0.16682767868
posY: 1.76266860962
posZ: 0.40656247735
velX: 0.160222604871
velY: 0.00130777806044
velZ: 0.00806757807732
accX: 0.0
accY: 0.0
accZ: 0.0
---
header: 
  seq: 3073
  stamp: 
    secs: 1596613441
    nsecs: 495652851
  frame_id: "node1_radarinterface_radarscan"
range: 1.56345200539
angle: -0.129640728235
elev: 0.257972031832
doppler: 0.0795030742884
snr: 131
noise: 403
frame_num: 210
point_id: 12
x: -0.195431515574
y: 1.49903070927
z: 0.398868203163
doppler_bin: 33
target_idx: 1
posX: -0.16682767868
posY: 1.76266860962
posZ: 0.40656247735
velX: 0.160222604871
velY: 0.00130777806044
velZ: 0.00806757807732
accX: 0.0
accY: 0.0
accZ: 0.0
---
header: 
  seq: 3074
  stamp: 
    secs: 1596613441
    nsecs: 495668809
  frame_id: "node1_radarinterface_radarscan"
range: 1.71979725361
angle: -0.285752356052
elev: 0.0668369010091
doppler: 0.0795030742884
snr: 242
noise: 480
frame_num: 210
point_id: 14
x: -0.483693003654
y: 1.64637506008
z: 0.114860355854
doppler_bin: 33
target_idx: 1
posX: -0.16682767868
posY: 1.76266860962
posZ: 0.40656247735
velX: 0.160222604871
velY: 0.00130777806044
velZ: 0.00806757807732
accX: 0.0
accY: 0.0
accZ: 0.0
---
header: 
  seq: 3075
  stamp: 
    secs: 1596613441
    nsecs: 495685282
  frame_id: "node1_radarinterface_radarscan"
range: 1.87614250183
angle: -0.221691250801
elev: 0.101416535676
doppler: 0.0795030742884
snr: 197
noise: 545
frame_num: 210
point_id: 16
x: -0.410406172276
y: 1.82082343102
z: 0.189945876598
doppler_bin: 33
target_idx: 1
posX: -0.16682767868
posY: 1.76266860962
posZ: 0.40656247735
velX: 0.160222604871
velY: 0.00130777806044
velZ: 0.00806757807732
accX: 0.0
accY: 0.0
accZ: 0.0
---
header: 
  seq: 3076
  stamp: 
    secs: 1596613441
    nsecs: 495701204
  frame_id: "node1_radarinterface_radarscan"
range: 1.6416246891
angle: -0.103401705623
elev: 0.431652009487
doppler: 0.159006148577
snr: 167
noise: 412
frame_num: 210
point_id: 22
x: -0.153902307153
y: 1.48308396339
z: 0.686809539795
doppler_bin: 34
target_idx: 1
posX: -0.16682767868
posY: 1.76266860962
posZ: 0.40656247735
velX: 0.160222604871
velY: 0.00130777806044
velZ: 0.00806757807732
accX: 0.0
accY: 0.0
accZ: 0.0
---
header: 
  seq: 3077
  stamp: 
    secs: 1596613441
    nsecs: 495716457
  frame_id: "node1_radarinterface_radarscan"
range: 2.5015232563
angle: 0.0682664066553
elev: 0.412198334932
doppler: 0.318012297153
snr: 138
noise: 450
frame_num: 210
point_id: 28
x: 0.156345203519
y: 2.286662817
z: 1.00217151642
doppler_bin: 36
target_idx: 1
posX: -0.16682767868
posY: 1.76266860962
posZ: 0.40656247735
velX: 0.160222604871
velY: 0.00130777806044
velZ: 0.00806757807732
accX: 0.0
accY: 0.0
accZ: 0.0
---
header: 
  seq: 3078
  stamp: 
    secs: 1596613441
    nsecs: 495732202
  frame_id: "node1_radarinterface_radarscan"
range: 2.57969594002
angle: 0.0676537975669
elev: 0.391006112099
doppler: 0.318012297153
snr: 142
noise: 445
frame_num: 210
point_id: 29
x: 0.161230996251
y: 2.379540205
z: 0.983170568943
doppler_bin: 36
target_idx: 1
posX: -0.16682767868
posY: 1.76266860962
posZ: 0.40656247735
velX: 0.160222604871
velY: 0.00130777806044
velZ: 0.00806757807732
accX: 0.0
accY: 0.0
accZ: 0.0
---
header: 
  seq: 3079
  stamp: 
    secs: 1596613441
    nsecs: 495747327
  frame_id: "node1_radarinterface_radarscan"
range: 1.6416246891
angle: 0.188896924257
elev: 0.587894141674
doppler: 1.82857072353
snr: 268
noise: 364
frame_num: 210
point_id: 30
x: 0.256503850222
y: 1.34171438217
z: 0.910461366177
doppler_bin: 55
target_idx: 1
posX: -0.16682767868
posY: 1.76266860962
posZ: 0.40656247735
velX: 0.160222604871
velY: 0.00130777806044
velZ: 0.00806757807732
accX: 0.0
accY: 0.0
accZ: 0.0
---
header: 
  seq: 3080
  stamp: 
    secs: 1596613441
    nsecs: 495762809
  frame_id: "node1_radarinterface_radarscan"
range: 1.71979725361
angle: -0.1268620193
elev: 0.155265808105
doppler: -0.159006148577
snr: 269
noise: 369
frame_num: 210
point_id: 34
x: -0.214974656701
y: 1.6854544878
z: 0.265954107046
doppler_bin: 30
target_idx: 1
posX: -0.16682767868
posY: 1.76266860962
posZ: 0.40656247735
velX: 0.160222604871
velY: 0.00130777806044
velZ: 0.00806757807732
accX: 0.0
accY: 0.0
accZ: 0.0
---
header: 
  seq: 3081
  stamp: 
    secs: 1596613441
    nsecs: 495777870
  frame_id: "node1_radarinterface_radarscan"
range: 1.6416246891
angle: -0.125957041979
elev: 0.099732875824
doppler: -0.0795030742884
snr: 247
noise: 377
frame_num: 210
point_id: 36
x: -0.205203071237
y: 1.6205265522
z: 0.163452669978
doppler_bin: 31
target_idx: 1
posX: -0.16682767868
posY: 1.76266860962
posZ: 0.40656247735
velX: 0.160222604871
velY: 0.00130777806044
velZ: 0.00806757807732
accX: 0.0
accY: 0.0
accZ: 0.0
---
header: 
  seq: 3082
  stamp: 
    secs: 1596613441
    nsecs: 495792522
  frame_id: "node1_radarinterface_radarscan"
range: 1.71979725361
angle: -0.0943156778812
elev: 0.0951412841678
doppler: -0.0795030742884
snr: 285
noise: 396
frame_num: 210
point_id: 37
x: -0.161230996251
y: 1.70441055298
z: 0.16337698698
doppler_bin: 31
target_idx: 1
posX: -0.16682767868
posY: 1.76266860962
posZ: 0.40656247735
velX: 0.160222604871
velY: 0.00130777806044
velZ: 0.00806757807732
accX: 0.0
accY: 0.0
accZ: 0.0
---
header: 
  seq: 3083
  stamp: 
    secs: 1596613441
    nsecs: 599419034
  frame_id: "node1_radarinterface_radarscan"
range: 1.6416246891
angle: -0.166037797928
elev: 0.332011431456
doppler: 0.0
snr: 251
noise: 406
frame_num: 211
point_id: 2
x: -0.256503850222
y: 1.53062963486
z: 0.535079777241
doppler_bin: 32
target_idx: 1
posX: -0.231384307146
posY: 1.72557997704
posZ: 0.530911147594
velX: -0.133120462298
velY: -0.0915040969849
velZ: 0.392892360687
accX: 0.0
accY: 0.0
accZ: 0.0
---
header: 
  seq: 3084
  stamp: 
    secs: 1596613441
    nsecs: 599480174
  frame_id: "node1_radarinterface_radarscan"
range: 1.87614250183
angle: -0.158132642508
elev: 0.124783821404
doppler: 0.0
snr: 216
noise: 461
frame_num: 211
point_id: 5
x: -0.293147265911
y: 1.8383282423
z: 0.233505144715
doppler_bin: 32
target_idx: 1
posX: -0.231384307146
posY: 1.72557997704
posZ: 0.530911147594
velX: -0.133120462298
velY: -0.0915040969849
velZ: 0.392892360687
accX: 0.0
accY: 0.0
accZ: 0.0
---
header: 
  seq: 3085
  stamp: 
    secs: 1596613441
    nsecs: 599530618
  frame_id: "node1_radarinterface_radarscan"
range: 1.95431506634
angle: -0.310519188643
elev: 0.40153503418
doppler: 0.0
snr: 159
noise: 483
frame_num: 211
point_id: 6
x: -0.549651145935
y: 1.71284210682
z: 0.763808369637
doppler_bin: 32
target_idx: 1
posX: -0.231384307146
posY: 1.72557997704
posZ: 0.530911147594
velX: -0.133120462298
velY: -0.0915040969849
velZ: 0.392892360687
accX: 0.0
accY: 0.0
accZ: 0.0
---
header: 
  seq: 3086
  stamp: 
    secs: 1596613441
    nsecs: 599551913
  frame_id: "node1_radarinterface_radarscan"
range: 1.6416246891
angle: -0.198326438665
elev: 0.312274485826
doppler: 0.0795030742884
snr: 187
noise: 415
frame_num: 211
point_id: 10
x: -0.307804614305
y: 1.53160786629
z: 0.504346370697
doppler_bin: 33
target_idx: 1
posX: -0.231384307146
posY: 1.72557997704
posZ: 0.530911147594
velX: -0.133120462298
velY: -0.0915040969849
velZ: 0.392892360687
accX: 0.0
accY: 0.0
accZ: 0.0
---
header: 
  seq: 3087
  stamp: 
    secs: 1596613441
    nsecs: 599603189
  frame_id: "node1_radarinterface_radarscan"
range: 1.79796981812
angle: -0.2271296978
elev: 0.239583060145
doppler: 0.0795030742884
snr: 258
noise: 467
frame_num: 211
point_id: 12
x: -0.393305897713
y: 1.7017557621
z: 0.426653951406
doppler_bin: 33
target_idx: 1
posX: -0.231384307146
posY: 1.72557997704
posZ: 0.530911147594
velX: -0.133120462298
velY: -0.0915040969849
velZ: 0.392892360687
accX: 0.0
accY: 0.0
accZ: 0.0
---
header: 
  seq: 3088
  stamp: 
    secs: 1596613441
    nsecs: 599617984
  frame_id: "node1_radarinterface_radarscan"
range: 1.95431506634
angle: -0.394904583693
elev: 0.622747838497
doppler: 0.0795030742884
snr: 191
noise: 516
frame_num: 211
point_id: 14
x: -0.610723435879
y: 1.46526801586
z: 1.13989210129
doppler_bin: 33
target_idx: 1
posX: -0.231384307146
posY: 1.72557997704
posZ: 0.530911147594
velX: -0.133120462298
velY: -0.0915040969849
velZ: 0.392892360687
accX: 0.0
accY: 0.0
accZ: 0.0
---
header: 
  seq: 3089
  stamp: 
    secs: 1596613441
    nsecs: 599635023
  frame_id: "node1_radarinterface_radarscan"
range: 1.87614250183
angle: -0.393341690302
elev: 0.617485105991
doppler: 0.159006148577
snr: 246
noise: 439
frame_num: 211
point_id: 19
x: -0.586294531822
y: 1.41287147999
z: 1.08626115322
doppler_bin: 34
target_idx: 1
posX: -0.231384307146
posY: 1.72557997704
posZ: 0.530911147594
velX: -0.133120462298
velY: -0.0915040969849
velZ: 0.392892360687
accX: 0.0
accY: 0.0
accZ: 0.0
---
header: 
  seq: 3090
  stamp: 
    secs: 1596613441
    nsecs: 599657954
  frame_id: "node1_radarinterface_radarscan"
range: 1.95431506634
angle: -0.403679937124
elev: 0.650865256786
doppler: 0.159006148577
snr: 231
noise: 454
frame_num: 211
point_id: 20
x: -0.610723495483
y: 1.42980456352
z: 1.18407058716
doppler_bin: 34
target_idx: 1
posX: -0.231384307146
posY: 1.72557997704
posZ: 0.530911147594
velX: -0.133120462298
velY: -0.0915040969849
velZ: 0.392892360687
accX: 0.0
accY: 0.0
accZ: 0.0
---
header: 
  seq: 3091
  stamp: 
    secs: 1596613441
    nsecs: 599677696
  frame_id: "node1_radarinterface_radarscan"
range: 2.03248763084
angle: -0.449060887098
elev: 0.656993091106
doppler: 0.159006148577
snr: 151
noise: 471
frame_num: 211
point_id: 21
x: -0.69866758585
y: 1.44982659817
z: 1.2413187027
doppler_bin: 34
target_idx: 1
posX: -0.231384307146
posY: 1.72557997704
posZ: 0.530911147594
velX: -0.133120462298
velY: -0.0915040969849
velZ: 0.392892360687
accX: 0.0
accY: 0.0
accZ: 0.0
---
header: 
  seq: 3092
  stamp: 
    secs: 1596613441
    nsecs: 599698810
  frame_id: "node1_radarinterface_radarscan"
range: 1.6416246891
angle: 0.0819790512323
elev: 0.702476382256
doppler: 0.795030713081
snr: 152
noise: 354
frame_num: 211
point_id: 22
x: 0.102601543069
y: 1.24875307083
z: 1.06066966057
doppler_bin: 42
target_idx: 1
posX: -0.231384307146
posY: 1.72557997704
posZ: 0.530911147594
velX: -0.133120462298
velY: -0.0915040969849
velZ: 0.392892360687
accX: 0.0
accY: 0.0
accZ: 0.0
---
header: 
  seq: 3093
  stamp: 
    secs: 1596613441
    nsecs: 599746187
  frame_id: "node1_radarinterface_radarscan"
range: 1.79796981812
angle: 0.0821983516216
elev: 0.705615162849
doppler: 0.95403689146
snr: 223
noise: 360
frame_num: 211
point_id: 30
x: 0.112373106182
y: 1.3640165329
z: 1.1659873724
doppler_bin: 44
target_idx: 1
posX: -0.231384307146
posY: 1.72557997704
posZ: 0.530911147594
velX: -0.133120462298
velY: -0.0915040969849
velZ: 0.392892360687
accX: 0.0
accY: 0.0
accZ: 0.0
---
header: 
  seq: 3094
  stamp: 
    secs: 1596613441
    nsecs: 599756576
  frame_id: "node1_radarinterface_radarscan"
range: 1.6416246891
angle: -0.16379994154
elev: 0.290200233459
doppler: -0.159006148577
snr: 292
noise: 354
frame_num: 211
point_id: 32
x: -0.256503880024
y: 1.55192804337
z: 0.46974119544
doppler_bin: 30
target_idx: 1
posX: -0.231384307146
posY: 1.72557997704
posZ: 0.530911147594
velX: -0.133120462298
velY: -0.0915040969849
velZ: 0.392892360687
accX: 0.0
accY: 0.0
accZ: 0.0
---
header: 
  seq: 3095
  stamp: 
    secs: 1596613441
    nsecs: 599771317
  frame_id: "node1_radarinterface_radarscan"
range: 1.79796981812
angle: -0.189822152257
elev: 0.112097129226
doppler: -0.159006148577
snr: 305
noise: 374
frame_num: 211
point_id: 34
x: -0.337119340897
y: 1.75459241867
z: 0.201125428081
doppler_bin: 30
target_idx: 1
posX: -0.231384307146
posY: 1.72557997704
posZ: 0.530911147594
velX: -0.133120462298
velY: -0.0915040969849
velZ: 0.392892360687
accX: 0.0
accY: 0.0
accZ: 0.0
---
header: 
  seq: 3096
  stamp: 
    secs: 1596613441
    nsecs: 599785051
  frame_id: "node1_radarinterface_radarscan"
range: 1.56345200539
angle: -0.129824250937
elev: 0.263246834278
doppler: -0.0795030742884
snr: 213
noise: 368
frame_num: 211
point_id: 37
x: -0.195431500673
y: 1.49688756466
z: 0.406836628914
doppler_bin: 31
target_idx: 1
posX: -0.231384307146
posY: 1.72557997704
posZ: 0.530911147594
velX: -0.133120462298
velY: -0.0915040969849
velZ: 0.392892360687
accX: 0.0
accY: 0.0
accZ: 0.0
---
header: 
  seq: 3097
  stamp: 
    secs: 1596613441
    nsecs: 599817530
  frame_id: "node1_radarinterface_radarscan"
range: 1.79796981812
angle: -0.191272944212
elev: 0.165855705738
doppler: -0.0795030742884
snr: 340
noise: 420
frame_num: 211
point_id: 40
x: -0.337119340897
y: 1.74095749855
z: 0.296838253736
doppler_bin: 31
target_idx: 1
posX: -0.231384307146
posY: 1.72557997704
posZ: 0.530911147594
velX: -0.133120462298
velY: -0.0915040969849
velZ: 0.392892360687
accX: 0.0
accY: 0.0
accZ: 0.0
---
header: 
  seq: 3098
  stamp: 
    secs: 1596613441
    nsecs: 599901891
  frame_id: "node1_radarinterface_radarscan"
range: 1.87614250183
angle: -0.188850820065
elev: 0.0495354905725
doppler: -0.0795030742884
snr: 285
noise: 434
frame_num: 211
point_id: 41
x: -0.351776719093
y: 1.84052538872
z: 0.0928976386786
doppler_bin: 31
target_idx: 1
posX: -0.231384307146
posY: 1.72557997704
posZ: 0.530911147594
velX: -0.133120462298
velY: -0.0915040969849
velZ: 0.392892360687
accX: 0.0
accY: 0.0
accZ: 0.0
---
header: 
  seq: 3099
  stamp: 
