header: 
  seq: 65320
  stamp: 
    secs: 1596523630
    nsecs:  49341578
  frame_id: "node1_radarinterface_radarscan"
range: 1.87614250183
angle: -0.354499965906
elev: 0.139487728477
doppler: 0.0
snr: 209
noise: 403
frame_num: 7886
point_id: 0
x: -0.644923985004
y: 1.74239504337
z: 0.260851055384
doppler_bin: 32
target_idx: 10
posX: -0.676693081856
posY: 1.70937669277
posZ: 0.371370226145
velX: 0.055091008544
velY: 0.00309744849801
velZ: -0.334075808525
accX: 0.0
accY: 0.0
accZ: 0.0
---
header: 
  seq: 65321
  stamp: 
    secs: 1596523630
    nsecs:  49392361
  frame_id: "node1_radarinterface_radarscan"
range: 1.79796981812
angle: -0.352799355984
elev: 0.101436190307
doppler: 0.0795030742884
snr: 213
noise: 430
frame_num: 7886
point_id: 2
x: -0.618052184582
y: 1.67855858803
z: 0.182066604495
doppler_bin: 33
target_idx: 10
posX: -0.676693081856
posY: 1.70937669277
posZ: 0.371370226145
velX: 0.055091008544
velY: 0.00309744849801
velZ: -0.334075808525
accX: 0.0
accY: 0.0
accZ: 0.0
---
header: 
  seq: 65322
  stamp: 
    secs: 1596523630
    nsecs:  49429624
  frame_id: "node1_radarinterface_radarscan"
range: 1.87614250183
angle: -0.360386073589
elev: 0.224962472916
doppler: 0.159006148577
snr: 249
noise: 390
frame_num: 7886
point_id: 6
x: -0.644923985004
y: 1.71138322353
z: 0.418510705233
doppler_bin: 34
target_idx: 10
posX: -0.676693081856
posY: 1.70937669277
posZ: 0.371370226145
velX: 0.055091008544
velY: 0.00309744849801
velZ: -0.334075808525
accX: 0.0
accY: 0.0
accZ: 0.0
---
header: 
  seq: 65323
  stamp: 
    secs: 1596523630
    nsecs:  49437587
  frame_id: "node1_radarinterface_radarscan"
range: 1.95431506634
angle: -0.362731486559
elev: 0.250552266836
doppler: 0.159006148577
snr: 240
noise: 394
frame_num: 7886
point_id: 7
x: -0.671795785427
y: 1.77009832859
z: 0.484550952911
doppler_bin: 34
target_idx: 10
posX: -0.676693081856
posY: 1.70937669277
posZ: 0.371370226145
velX: 0.055091008544
velY: 0.00309744849801
velZ: -0.334075808525
accX: 0.0
accY: 0.0
accZ: 0.0
---
header: 
  seq: 65324
  stamp: 
    secs: 1596523630
    nsecs:  49453157
  frame_id: "node1_radarinterface_radarscan"
range: 1.6416246891
angle: -0.399272888899
elev: 0.266745507717
doppler: -0.318012297153
snr: 231
noise: 358
frame_num: 7886
point_id: 9
x: -0.615609228611
y: 1.45900964737
z: 0.432721495628
doppler_bin: 28
target_idx: 10
posX: -0.676693081856
posY: 1.70937669277
posZ: 0.371370226145
velX: 0.055091008544
velY: 0.00309744849801
velZ: -0.334075808525
accX: 0.0
accY: 0.0
accZ: 0.0
---
header: 
  seq: 65325
  stamp: 
    secs: 1596523630
    nsecs:  49466815
  frame_id: "node1_radarinterface_radarscan"
range: 1.79796981812
angle: -0.395248770714
elev: 0.228839159012
doppler: -0.318012297153
snr: 269
noise: 365
frame_num: 7886
point_id: 11
x: -0.674238681793
y: 1.61608922482
z: 0.407864242792
doppler_bin: 28
target_idx: 10
posX: -0.676693081856
posY: 1.70937669277
posZ: 0.371370226145
velX: 0.055091008544
velY: 0.00309744849801
velZ: -0.334075808525
accX: 0.0
accY: 0.0
accZ: 0.0
---
header: 
  seq: 65326
  stamp: 
    secs: 1596523630
    nsecs:  49479705
  frame_id: "node1_radarinterface_radarscan"
range: 1.6416246891
angle: -0.400366902351
elev: 0.276049047709
doppler: -0.238509222865
snr: 209
noise: 365
frame_num: 7886
point_id: 12
x: -0.615609228611
y: 1.45456469059
z: 0.447435349226
doppler_bin: 29
target_idx: 10
posX: -0.676693081856
posY: 1.70937669277
posZ: 0.371370226145
velX: 0.055091008544
velY: 0.00309744849801
velZ: -0.334075808525
accX: 0.0
accY: 0.0
accZ: 0.0
---
header: 
  seq: 65327
  stamp: 
    secs: 1596523630
    nsecs:  49492520
  frame_id: "node1_radarinterface_radarscan"
range: 1.71979725361
angle: -0.398782521486
elev: 0.262453228235
doppler: -0.238509222865
snr: 267
noise: 367
frame_num: 7886
point_id: 13
x: -0.644923985004
y: 1.53058135509
z: 0.446202337742
doppler_bin: 29
target_idx: 10
posX: -0.676693081856
posY: 1.70937669277
posZ: 0.371370226145
velX: 0.055091008544
velY: 0.00309744849801
velZ: -0.334075808525
accX: 0.0
accY: 0.0
accZ: 0.0
---
header: 
  seq: 65328
  stamp: 
    secs: 1596523630
    nsecs:  49550937
  frame_id: "node1_radarinterface_radarscan"
range: 1.79796981812
angle: -0.434943914413
elev: 0.268609076738
doppler: -0.159006148577
snr: 235
noise: 386
frame_num: 7886
point_id: 19
x: -0.730425179005
y: 1.57209682465
z: 0.477164387703
doppler_bin: 30
target_idx: 10
posX: -0.676693081856
posY: 1.70937669277
posZ: 0.371370226145
velX: 0.055091008544
velY: 0.00309744849801
velZ: -0.334075808525
accX: 0.0
accY: 0.0
accZ: 0.0
---
header: 
  seq: 65329
  stamp: 
    secs: 1596523630
    nsecs:  49560298
  frame_id: "node1_radarinterface_radarscan"
range: 1.87614250183
angle: -0.320049345493
elev: 0.115973837674
doppler: -0.0795030742884
snr: 211
noise: 417
frame_num: 7886
point_id: 23
x: -0.586294531822
y: 1.76890897751
z: 0.217096030712
doppler_bin: 31
target_idx: 10
posX: -0.676693081856
posY: 1.70937669277
posZ: 0.371370226145
velX: 0.055091008544
velY: 0.00309744849801
velZ: -0.334075808525
accX: 0.0
accY: 0.0
accZ: 0.0
---
header: 
  seq: 65330
  stamp: 
    secs: 1596523630
    nsecs: 150649526
  frame_id: "node1_radarinterface_radarscan"
range: 2.03248763084
angle: -0.330523818731
elev: 0.273225158453
doppler: 0.0
snr: 133
noise: 479
frame_num: 7887
point_id: 6
x: -0.63515239954
y: 1.85116124153
z: 0.548443138599
doppler_bin: 32
target_idx: 10
posX: -0.650595486164
posY: 1.72554826736
posZ: 0.341089397669
velX: 0.154701009393
velY: 0.00705923512578
velZ: -0.360288023949
accX: 0.0
accY: 0.0
accZ: 0.0
---
header: 
  seq: 65331
  stamp: 
    secs: 1596523630
    nsecs: 150716370
  frame_id: "node1_radarinterface_radarscan"
range: 1.79796981812
angle: -0.356928020716
elev: 0.180040761828
doppler: 0.0795030742884
snr: 185
noise: 510
frame_num: 7887
point_id: 13
x: -0.618052124977
y: 1.65742194653
z: 0.32196187973
doppler_bin: 33
target_idx: 10
posX: -0.650595486164
posY: 1.72554826736
posZ: 0.341089397669
velX: 0.154701009393
velY: 0.00705923512578
velZ: -0.360288023949
accX: 0.0
accY: 0.0
accZ: 0.0
---
header: 
  seq: 65332
  stamp: 
    secs: 1596523630
    nsecs: 150752809
  frame_id: "node1_radarinterface_radarscan"
range: 1.79796981812
angle: -0.390593230724
elev: 0.173817366362
doppler: 0.159006148577
snr: 153
noise: 464
frame_num: 7887
point_id: 19
x: -0.674238681793
y: 1.63750100136
z: 0.310947090387
doppler_bin: 34
target_idx: 10
posX: -0.650595486164
posY: 1.72554826736
posZ: 0.341089397669
velX: 0.154701009393
velY: 0.00705923512578
velZ: -0.360288023949
accX: 0.0
accY: 0.0
accZ: 0.0
---
header: 
  seq: 65333
  stamp: 
    secs: 1596523630
    nsecs: 150770882
  frame_id: "node1_radarinterface_radarscan"
range: 2.03248763084
angle: -0.298888444901
elev: 0.300649642944
doppler: 0.159006148577
snr: 136
noise: 455
frame_num: 7887
point_id: 20
x: -0.571637153625
y: 1.85524940491
z: 0.601902484894
doppler_bin: 34
target_idx: 10
posX: -0.650595486164
posY: 1.72554826736
posZ: 0.341089397669
velX: 0.154701009393
velY: 0.00705923512578
velZ: -0.360288023949
accX: 0.0
accY: 0.0
accZ: 0.0
---
header: 
  seq: 65334
  stamp: 
    secs: 1596523630
    nsecs: 150789085
  frame_id: "node1_radarinterface_radarscan"
range: 2.18883275986
angle: -0.289619624615
elev: 0.174512535334
doppler: 1.51055836678
snr: 171
noise: 384
frame_num: 7887
point_id: 21
x: -0.615609228611
y: 2.06581258774
z: 0.380042880774
doppler_bin: 51
target_idx: 10
posX: -0.650595486164
posY: 1.72554826736
posZ: 0.341089397669
velX: 0.154701009393
velY: 0.00705923512578
velZ: -0.360288023949
accX: 0.0
accY: 0.0
accZ: 0.0
---
header: 
  seq: 65335
  stamp: 
    secs: 1596523630
    nsecs: 150812137
  frame_id: "node1_radarinterface_radarscan"
range: 2.26700544357
angle: -0.288413822651
elev: 0.149718955159
doppler: 1.51055836678
snr: 218
noise: 383
frame_num: 7887
point_id: 22
x: -0.637595295906
y: 2.14905619621
z: 0.338147073984
doppler_bin: 51
target_idx: 10
posX: -0.650595486164
posY: 1.72554826736
posZ: 0.341089397669
velX: 0.154701009393
velY: 0.00705923512578
velZ: -0.360288023949
accX: 0.0
accY: 0.0
accZ: 0.0
---
header: 
  seq: 65336
  stamp: 
    secs: 1596523630
    nsecs: 150866580
  frame_id: "node1_radarinterface_radarscan"
range: 2.34517812729
angle: -0.287951678038
elev: 0.138994321227
doppler: 1.51055836678
snr: 200
noise: 382
frame_num: 7887
point_id: 23
x: -0.659581303596
y: 2.22693538666
z: 0.324917882681
doppler_bin: 51
target_idx: 10
posX: -0.650595486164
posY: 1.72554826736
posZ: 0.341089397669
velX: 0.154701009393
velY: 0.00705923512578
velZ: -0.360288023949
accX: 0.0
accY: 0.0
accZ: 0.0
---
header: 
  seq: 65337
  stamp: 
    secs: 1596523630
    nsecs: 150884965
  frame_id: "node1_radarinterface_radarscan"
range: 2.26700544357
angle: -0.288289576769
elev: 0.146915495396
doppler: 1.59006142616
snr: 246
noise: 381
frame_num: 7887
point_id: 25
x: -0.637595295906
y: 2.15003585815
z: 0.331861376762
doppler_bin: 52
target_idx: 10
posX: -0.650595486164
posY: 1.72554826736
posZ: 0.341089397669
velX: 0.154701009393
velY: 0.00705923512578
velZ: -0.360288023949
accX: 0.0
accY: 0.0
accZ: 0.0
---
header: 
  seq: 65338
  stamp: 
    secs: 1596523630
    nsecs: 150901477
  frame_id: "node1_radarinterface_radarscan"
range: 2.18883275986
angle: -0.290855973959
elev: 0.196565702558
doppler: 1.66956460476
snr: 180
noise: 373
frame_num: 7887
point_id: 28
x: -0.615609169006
y: 2.05651926994
z: 0.427484124899
doppler_bin: 53
target_idx: 10
posX: -0.650595486164
posY: 1.72554826736
posZ: 0.341089397669
velX: 0.154701009393
velY: 0.00705923512578
velZ: -0.360288023949
accX: 0.0
accY: 0.0
accZ: 0.0
---
header: 
  seq: 65339
  stamp: 
    secs: 1596523630
    nsecs: 150919249
  frame_id: "node1_radarinterface_radarscan"
range: 2.34517812729
angle: -0.288547843695
elev: 0.152682900429
doppler: 1.66956460476
snr: 209
noise: 385
frame_num: 7887
point_id: 30
x: -0.659581303596
y: 2.22206950188
z: 0.35667899251
doppler_bin: 53
target_idx: 10
posX: -0.650595486164
posY: 1.72554826736
posZ: 0.341089397669
velX: 0.154701009393
velY: 0.00705923512578
velZ: -0.360288023949
accX: 0.0
accY: 0.0
accZ: 0.0
---
header: 
  seq: 65340
  stamp: 
    secs: 1596523630
    nsecs: 150973003
  frame_id: "node1_radarinterface_radarscan"
range: 1.71979725361
angle: -0.386839658022
elev: 0.109597273171
doppler: -1.90807378292
snr: 227
noise: 359
frame_num: 7887
point_id: 32
x: -0.644923985004
y: 1.58315861225
z: 0.188107982278
doppler_bin: 8
target_idx: 10
posX: -0.650595486164
posY: 1.72554826736
posZ: 0.341089397669
velX: 0.154701009393
velY: 0.00705923512578
velZ: -0.360288023949
accX: 0.0
accY: 0.0
accZ: 0.0
---
header: 
  seq: 65341
  stamp: 
    secs: 1596523630
    nsecs: 150992141
  frame_id: "node1_radarinterface_radarscan"
range: 1.6416246891
angle: -0.387452691793
elev: 0.12249533087
doppler: -1.82857072353
snr: 248
noise: 360
frame_num: 7887
point_id: 33
x: -0.615609288216
y: 1.50854933262
z: 0.200588837266
doppler_bin: 9
target_idx: 10
posX: -0.650595486164
posY: 1.72554826736
posZ: 0.341089397669
velX: 0.154701009393
velY: 0.00705923512578
velZ: -0.360288023949
accX: 0.0
accY: 0.0
accZ: 0.0
---
header: 
  seq: 65342
  stamp: 
    secs: 1596523630
    nsecs: 151013968
  frame_id: "node1_radarinterface_radarscan"
range: 1.71979725361
angle: -0.387103199959
elev: 0.115323588252
doppler: -1.66956460476
snr: 249
noise: 362
frame_num: 7887
point_id: 40
x: -0.6449239254
y: 1.58196508884
z: 0.197893857956
doppler_bin: 11
target_idx: 10
posX: -0.650595486164
posY: 1.72554826736
posZ: 0.341089397669
velX: 0.154701009393
velY: 0.00705923512578
velZ: -0.360288023949
accX: 0.0
accY: 0.0
accZ: 0.0
---
header: 
  seq: 65343
  stamp: 
    secs: 1596523630
    nsecs: 151033181
  frame_id: "node1_radarinterface_radarscan"
range: 1.87614250183
angle: -0.418868422508
elev: 0.397596120834
doppler: -0.159006148577
snr: 216
noise: 415
frame_num: 7887
point_id: 52
x: -0.703553438187
y: 1.58025193214
z: 0.726448178291
doppler_bin: 30
target_idx: 10
posX: -0.650595486164
posY: 1.72554826736
posZ: 0.341089397669
velX: 0.154701009393
velY: 0.00705923512578
velZ: -0.360288023949
accX: 0.0
accY: 0.0
accZ: 0.0
---
header: 
  seq: 65344
  stamp: 
    secs: 1596523630
    nsecs: 151059042
  frame_id: "node1_radarinterface_radarscan"
range: 1.71979725361
angle: -0.394251972437
elev: 0.218316838145
doppler: -0.0795030742884
snr: 131
noise: 457
frame_num: 7887
point_id: 57
x: -0.644923985004
y: 1.55017113686
z: 0.372485250235
doppler_bin: 31
target_idx: 10
posX: -0.650595486164
posY: 1.72554826736
posZ: 0.341089397669
velX: 0.154701009393
velY: 0.00705923512578
velZ: -0.360288023949
accX: 0.0
accY: 0.0
accZ: 0.0
---
header: 
  seq: 65345
  stamp: 
    secs: 1596523630
    nsecs: 151154171
  frame_id: "node1_radarinterface_radarscan"
range: 1.79796981812
angle: -0.367825806141
elev: 0.297895044088
doppler: -0.0795030742884
snr: 198
noise: 475
frame_num: 7887
point_id: 58
x: -0.618052124977
y: 1.60381388664
z: 0.52771961689
doppler_bin: 31
target_idx: 10
posX: -0.650595486164
posY: 1.72554826736
posZ: 0.341089397669
velX: 0.154701009393
velY: 0.00705923512578
velZ: -0.360288023949
accX: 0.0
accY: 0.0
accZ: 0.0
---
header: 
  seq: 65346
  stamp: 
    secs: 1596523630
    nsecs: 151173376
  frame_id: "node1_radarinterface_radarscan"
range: 1.95431506634
angle: -0.416144520044
elev: 0.382663160563
doppler: -0.0795030742884
snr: 167
noise: 495
frame_num: 7887
point_id: 60
x: -0.732868134975
y: 1.65823733807
z: 0.72972625494
doppler_bin: 31
target_idx: 10
posX: -0.650595486164
posY: 1.72554826736
posZ: 0.341089397669
velX: 0.154701009393
velY: 0.00705923512578
velZ: -0.360288023949
accX: 0.0
accY: 0.0
accZ: 0.0
---
header: 
  seq: 65347
  stamp: 
    secs: 1596523630
    nsecs: 250731379
  frame_id: "node1_radarinterface_radarscan"
range: 2.73604106903
angle: -0.434890300035
elev: 0.268189311028
doppler: 0.0
snr: 184
noise: 464
frame_num: 7888
point_id: 6
x: -1.1115167141
y: 2.39265727997
z: 0.725012362003
doppler_bin: 32
target_idx: 10
posX: -0.642757058144
posY: 1.76100933552
posZ: 0.369618713856
velX: 0.146884337068
velY: 0.133849024773
velZ: -0.205068260431
accX: 0.0
accY: 0.0
accZ: 0.0
---
header: 
  seq: 65348
  stamp: 
    secs: 1596523630
    nsecs: 250787180
  frame_id: "node1_radarinterface_radarscan"
range: 1.79796981812
angle: -0.364305317402
elev: 0.266205489635
doppler: 0.0795030742884
snr: 185
noise: 510
frame_num: 7888
point_id: 16
x: -0.618052124977
y: 1.62079656124
z: 0.472996383905
doppler_bin: 33
target_idx: 10
posX: -0.642757058144
posY: 1.76100933552
posZ: 0.369618713856
velX: 0.146884337068
velY: 0.133849024773
velZ: -0.205068260431
accX: 0.0
accY: 0.0
accZ: 0.0
---
header: 
  seq: 65349
  stamp: 
    secs: 1596523630
    nsecs: 250806365
  frame_id: "node1_radarinterface_radarscan"
range: 2.5015232563
angle: -0.228025794029
elev: 0.254912167788
doppler: 1.66956460476
snr: 262
noise: 385
frame_num: 7888
point_id: 32
x: -0.547208189964
y: 2.35802721977
z: 0.630785167217
doppler_bin: 53
target_idx: 10
posX: -0.642757058144
posY: 1.76100933552
posZ: 0.369618713856
velX: 0.146884337068
velY: 0.133849024773
velZ: -0.205068260431
accX: 0.0
accY: 0.0
accZ: 0.0
---
header: 
  seq: 65350
  stamp: 
    secs: 1596523630
    nsecs: 250820327
  frame_id: "node1_radarinterface_radarscan"
range: 2.57969594002
angle: -0.227733671665
elev: 0.25002938509
doppler: 1.66956460476
snr: 217
noise: 384
frame_num: 7888
point_id: 33
x: -0.564308464527
y: 2.43494558334
z: 0.638300418854
doppler_bin: 53
target_idx: 10
posX: -0.642757058144
posY: 1.76100933552
posZ: 0.369618713856
velX: 0.146884337068
velY: 0.133849024773
velZ: -0.205068260431
accX: 0.0
accY: 0.0
accZ: 0.0
---
header: 
  seq: 65351
  stamp: 
    secs: 1596523630
    nsecs: 351518072
  frame_id: "node1_radarinterface_radarscan"
range: 1.87614250183
angle: -0.423560857773
elev: 0.421715170145
doppler: 0.0
snr: 150
noise: 477
frame_num: 7889
point_id: 6
x: -0.703553438187
y: 1.56050312519
z: 0.767953813076
doppler_bin: 32
target_idx: 10
posX: -0.683962225914
posY: 1.73393726349
posZ: 0.426552414894
velX: -0.0666999518871
velY: -0.00120379030704
velZ: 0.0209504812956
accX: 0.0
accY: 0.0
accZ: 0.0
---
header: 
  seq: 65352
  stamp: 
    secs: 1596523630
    nsecs: 351598204
  frame_id: "node1_radarinterface_radarscan"
range: 1.87614250183
angle: -0.416847258806
elev: 0.386587560177
doppler: 0.0795030742884
snr: 169
noise: 518
frame_num: 7889
point_id: 16
x: -0.703553438187
y: 1.58888709545
z: 0.707362055779
doppler_bin: 33
target_idx: 10
posX: -0.683962225914
posY: 1.73393726349
posZ: 0.426552414894
velX: -0.0666999518871
velY: -0.00120379030704
velZ: 0.0209504812956
accX: 0.0
accY: 0.0
accZ: 0.0
---
header: 
  seq: 65353
  stamp: 
    secs: 1596523630
    nsecs: 351614832
  frame_id: "node1_radarinterface_radarscan"
range: 1.87614250183
angle: -0.506103157997
elev: 0.577148795128
doppler: 0.159006148577
snr: 144
noise: 508
frame_num: 7889
point_id: 21
x: -0.762182831764
y: 1.37515151501
z: 1.02369236946
doppler_bin: 34
target_idx: 10
posX: -0.683962225914
posY: 1.73393726349
posZ: 0.426552414894
velX: -0.0666999518871
velY: -0.00120379030704
velZ: 0.0209504812956
accX: 0.0
accY: 0.0
accZ: 0.0
---
header: 
  seq: 65354
  stamp: 
    secs: 1596523630
    nsecs: 351654975
  frame_id: "node1_radarinterface_radarscan"
range: 1.95431506634
angle: -0.49201348424
elev: 0.535590052605
doppler: 0.159006148577
snr: 123
noise: 513
frame_num: 7889
point_id: 22
x: -0.793940484524
y: 1.4812951088
z: 0.997381865978
doppler_bin: 34
target_idx: 10
posX: -0.683962225914
posY: 1.73393726349
posZ: 0.426552414894
velX: -0.0666999518871
velY: -0.00120379030704
velZ: 0.0209504812956
accX: 0.0
accY: 0.0
accZ: 0.0
---
header: 
  seq: 65355
  stamp: 
    secs: 1596523630
    nsecs: 351675078
  frame_id: "node1_radarinterface_radarscan"
range: 1.71979725361
angle: -0.388354301453
elev: 0.1392583251
doppler: -0.0795030742884
snr: 177
noise: 405
frame_num: 7889
point_id: 40
x: -0.644923985004
y: 1.5763207674
z: 0.238722741604
doppler_bin: 31
target_idx: 10
posX: -0.683962225914
posY: 1.73393726349
posZ: 0.426552414894
velX: -0.0666999518871
velY: -0.00120379030704
velZ: 0.0209504812956
accX: 0.0
accY: 0.0
accZ: 0.0
---
header: 
  seq: 65356
  stamp: 
    secs: 1596523630
    nsecs: 351700932
  frame_id: "node1_radarinterface_radarscan"
range: 1.79796981812
angle: -0.386901915073
elev: 0.110977105796
doppler: -0.0795030742884
snr: 205
noise: 427
frame_num: 7889
point_id: 41
x: -0.674238681793
y: 1.65482544899
z: 0.19912417233
doppler_bin: 31
target_idx: 10
posX: -0.683962225914
posY: 1.73393726349
posZ: 0.426552414894
velX: -0.0666999518871
velY: -0.00120379030704
velZ: 0.0209504812956
accX: 0.0
accY: 0.0
accZ: 0.0
---
header: 
  seq: 65357
  stamp: 
    secs: 1596523630
    nsecs: 351723523
  frame_id: "node1_radarinterface_radarscan"
range: 1.87614250183
angle: -0.421908378601
elev: 0.126114457846
doppler: -0.0795030742884
snr: 182
noise: 442
frame_num: 7889
point_id: 42
x: -0.762182891369
y: 1.69802844524
z: 0.235981985927
doppler_bin: 31
target_idx: 10
posX: -0.683962225914
posY: 1.73393726349
posZ: 0.426552414894
velX: -0.0666999518871
velY: -0.00120379030704
velZ: 0.0209504812956
accX: 0.0
accY: 0.0
accZ: 0.0
---
header: 
  seq: 65358
  stamp: 
    secs: 1596523630
    nsecs: 450391095
  frame_id: "node1_radarinterface_radarscan"
range: 1.95431506634
angle: -0.403401792049
elev: 0.50394153595
doppler: 0.0
snr: 176
noise: 504
frame_num: 7890
point_id: 6
x: -0.671795785427
y: 1.5739967823
z: 0.943701267242
doppler_bin: 32
target_idx: 10
posX: -0.608879387379
posY: 1.74898433685
posZ: 0.749881148338
velX: 0.260293424129
velY: -0.0650556087494
velZ: 0.943406403065
accX: 0.0
accY: 0.0
accZ: 0.0
---
header: 
  seq: 65359
  stamp: 
    secs: 1596523630
    nsecs: 450436311
  frame_id: "node1_radarinterface_radarscan"
range: 1.79796981812
angle: -0.490228414536
elev: 0.649361252785
doppler: 0.0795030742884
snr: 127
noise: 528
frame_num: 7890
point_id: 13
x: -0.674238681793
y: 1.26337254047
z: 1.08719241619
doppler_bin: 33
target_idx: 10
posX: -0.608879387379
posY: 1.74898433685
posZ: 0.749881148338
velX: 0.260293424129
velY: -0.0650556087494
velZ: 0.943406403065
accX: 0.0
accY: 0.0
accZ: 0.0
---
header: 
  seq: 65360
  stamp: 
    secs: 1596523630
    nsecs: 450452773
  frame_id: "node1_radarinterface_radarscan"
range: 1.79796981812
angle: -0.462523967028
elev: 0.572748422623
doppler: 0.159006148577
snr: 176
noise: 471
frame_num: 7890
point_id: 23
x: -0.674238681793
y: 1.35227394104
z: 0.97439879179
doppler_bin: 34
target_idx: 10
posX: -0.608879387379
posY: 1.74898433685
posZ: 0.749881148338
velX: 0.260293424129
velY: -0.0650556087494
velZ: 0.943406403065
accX: 0.0
accY: 0.0
accZ: 0.0
---
header: 
  seq: 65361
  stamp: 
    secs: 1596523630
    nsecs: 450469497
  frame_id: "node1_radarinterface_radarscan"
range: 1.95431506634
angle: -0.451424926519
elev: 0.536305189133
doppler: 0.159006148577
snr: 225
noise: 491
frame_num: 7890
point_id: 25
x: -0.732868134975
y: 1.51164901257
z: 0.998583495617
doppler_bin: 34
target_idx: 10
posX: -0.608879387379
posY: 1.74898433685
posZ: 0.749881148338
velX: 0.260293424129
velY: -0.0650556087494
velZ: 0.943406403065
accX: 0.0
accY: 0.0
accZ: 0.0
---
header: 
  seq: 65362
  stamp: 
    secs: 1596523630
    nsecs: 450485553
  frame_id: "node1_radarinterface_radarscan"
range: 1.6416246891
angle: -0.403195559978
elev: 0.503064095974
doppler: 1.351552248
snr: 279
noise: 365
frame_num: 7890
point_id: 28
x: -0.564308464527
y: 1.32291293144
z: 0.791447401047
doppler_bin: 49
target_idx: 10
posX: -0.608879387379
posY: 1.74898433685
posZ: 0.749881148338
velX: 0.260293424129
velY: -0.0650556087494
velZ: 0.943406403065
accX: 0.0
accY: 0.0
accZ: 0.0
---
header: 
  seq: 65363
  stamp: 
    secs: 1596523630
    nsecs: 450501617
  frame_id: "node1_radarinterface_radarscan"
range: 2.5015232563
angle: -0.214585229754
elev: 0.493836760521
doppler: -2.22608613968
snr: 186
noise: 397
frame_num: 7890
point_id: 30
x: -0.469035595655
y: 2.15212488174
z: 1.18574130535
doppler_bin: 4
target_idx: 10
posX: -0.608879387379
posY: 1.74898433685
posZ: 0.749881148338
velX: 0.260293424129
velY: -0.0650556087494
velZ: 0.943406403065
accX: 0.0
accY: 0.0
accZ: 0.0
---
header: 
  seq: 65364
  stamp: 
    secs: 1596523630
    nsecs: 450518502
  frame_id: "node1_radarinterface_radarscan"
range: 2.26700544357
angle: -0.25475242734
elev: 0.519564509392
doppler: -0.874533832073
snr: 154
noise: 408
frame_num: 7890
point_id: 40
x: -0.495907455683
y: 1.90433049202
z: 1.12557315826
doppler_bin: 21
target_idx: 10
posX: -0.608879387379
posY: 1.74898433685
posZ: 0.749881148338
velX: 0.260293424129
velY: -0.0650556087494
velZ: 0.943406403065
accX: 0.0
accY: 0.0
accZ: 0.0
---
header: 
  seq: 65365
  stamp: 
    secs: 1596523630
    nsecs: 450533470
  frame_id: "node1_radarinterface_radarscan"
range: 2.34517812729
angle: -0.250463068485
elev: 0.489472568035
doppler: -0.874533832073
snr: 286
noise: 407
frame_num: 7890
point_id: 41
x: -0.513007700443
y: 2.00522685051
z: 1.10260999203
doppler_bin: 21
target_idx: 10
posX: -0.608879387379
posY: 1.74898433685
posZ: 0.749881148338
velX: 0.260293424129
velY: -0.0650556087494
velZ: 0.943406403065
accX: 0.0
accY: 0.0
accZ: 0.0
---
header: 
  seq: 65366
  stamp: 
    secs: 1596523630
    nsecs: 450547909
  frame_id: "node1_radarinterface_radarscan"
range: 2.42335057259
angle: -0.24922247231
elev: 0.480243682861
doppler: -0.874533832073
snr: 329
noise: 405
frame_num: 7890
point_id: 42
x: -0.530107975006
y: 2.08282542229
z: 1.11957657337
doppler_bin: 21
target_idx: 10
posX: -0.608879387379
posY: 1.74898433685
posZ: 0.749881148338
velX: 0.260293424129
velY: -0.0650556087494
velZ: 0.943406403065
accX: 0.0
accY: 0.0
accZ: 0.0
---
header: 
  seq: 65367
  stamp: 
    secs: 1596523630
    nsecs: 450562804
  frame_id: "node1_radarinterface_radarscan"
range: 2.5015232563
angle: -0.248506605625
elev: 0.474800139666
doppler: -0.874533832073
snr: 304
noise: 406
frame_num: 7890
point_id: 43
x: -0.547208249569
y: 2.15647053719
z: 1.14359807968
doppler_bin: 21
target_idx: 10
posX: -0.608879387379
posY: 1.74898433685
posZ: 0.749881148338
velX: 0.260293424129
velY: -0.0650556087494
velZ: 0.943406403065
accX: 0.0
accY: 0.0
accZ: 0.0
---
header: 
  seq: 65368
  stamp: 
    secs: 1596523630
    nsecs: 450577704
  frame_id: "node1_radarinterface_radarscan"
range: 2.57969594002
angle: -0.248042553663
elev: 0.471223086119
doppler: -0.874533832073
snr: 202
noise: 410
frame_num: 7890
point_id: 44
x: -0.564308524132
y: 2.22819709778
z: 1.17112112045
doppler_bin: 21
target_idx: 10
posX: -0.608879387379
posY: 1.74898433685
posZ: 0.749881148338
velX: 0.260293424129
velY: -0.0650556087494
velZ: 0.943406403065
accX: 0.0
accY: 0.0
accZ: 0.0
---
header: 
  seq: 65369
  stamp: 
    secs: 1596523630
    nsecs: 450592735
  frame_id: "node1_radarinterface_radarscan"
range: 2.5015232563
angle: -0.249865844846
elev: 0.485061526299
doppler: -0.795030713081
snr: 288
noise: 407
frame_num: 7890
point_id: 48
x: -0.547208189964
y: 2.14424085617
z: 1.16636717319
doppler_bin: 22
target_idx: 10
posX: -0.608879387379
posY: 1.74898433685
posZ: 0.749881148338
velX: 0.260293424129
velY: -0.0650556087494
velZ: 0.943406403065
accX: 0.0
accY: 0.0
accZ: 0.0
---
header: 
  seq: 65370
  stamp: 
    secs: 1596523630
    nsecs: 450607391
  frame_id: "node1_radarinterface_radarscan"
range: 2.57969594002
angle: -0.284743726254
elev: 0.473538815975
doppler: -0.795030713081
snr: 187
noise: 406
frame_num: 7890
point_id: 49
x: -0.644923985004
y: 2.20338177681
z: 1.17644071579
doppler_bin: 22
target_idx: 10
posX: -0.608879387379
posY: 1.74898433685
posZ: 0.749881148338
velX: 0.260293424129
velY: -0.0650556087494
velZ: 0.943406403065
accX: 0.0
accY: 0.0
accZ: 0.0
---
header: 
  seq: 65371
  stamp: 
    secs: 1596523630
    nsecs: 450624901
  frame_id: "node1_radarinterface_radarscan"
range: 1.79796981812
angle: -0.330618202686
elev: 0.274204581976
doppler: -0.0795030742884
snr: 163
noise: 465
frame_num: 7890
point_id: 69
x: -0.561865568161
y: 1.63706243038
z: 0.486856639385
doppler_bin: 31
target_idx: 10
posX: -0.608879387379
posY: 1.74898433685
posZ: 0.749881148338
velX: 0.260293424129
velY: -0.0650556087494
velZ: 0.943406403065
accX: 0.0
accY: 0.0
accZ: 0.0
---
header: 
  seq: 65372
  stamp: 
    secs: 1596523630
    nsecs: 450672520
  frame_id: "node1_radarinterface_radarscan"
range: 1.95431506634
angle: -0.36796233058
elev: 0.299046337605
doppler: -0.0795030742884
snr: 177
noise: 495
frame_num: 7890
point_id: 71
x: -0.671795785427
y: 1.74256694317
z: 0.575758814812
doppler_bin: 31
target_idx: 10
posX: -0.608879387379
posY: 1.74898433685
posZ: 0.749881148338
velX: 0.260293424129
velY: -0.0650556087494
velZ: 0.943406403065
accX: 0.0
accY: 0.0
accZ: 0.0
---
header: 
  seq: 65373
  stamp: 
    secs: 1596523630
    nsecs: 544523622
  frame_id: "node1_radarinterface_radarscan"
range: 1.87614250183
angle: -0.402463167906
elev: 0.499929249287
doppler: 0.0795030742884
snr: 166
noise: 524
frame_num: 7891
point_id: 11
x: -0.644923985004
y: 1.51497387886
z: 0.899354159832
doppler_bin: 33
target_idx: 10
posX: -0.624141097069
posY: 1.70590126514
posZ: 0.874817013741
velX: 0.128583207726
velY: -0.232863754034
velZ: 1.16626369953
accX: 0.0
accY: 0.0
accZ: 0.0
---
header: 
  seq: 65374
  stamp: 
    secs: 1596523630
    nsecs: 544593995
  frame_id: "node1_radarinterface_radarscan"
range: 1.95431506634
angle: -0.426839739084
elev: 0.437519341707
doppler: 0.0795030742884
snr: 169
noise: 528
frame_num: 7891
point_id: 12
x: -0.732868134975
y: 1.61140191555
z: 0.828031122684
doppler_bin: 33
target_idx: 10
posX: -0.624141097069
posY: 1.70590126514
posZ: 0.874817013741
velX: 0.128583207726
velY: -0.232863754034
velZ: 1.16626369953
accX: 0.0
accY: 0.0
accZ: 0.0
---
header: 
  seq: 65375
  stamp: 
    secs: 1596523630
    nsecs: 544637272
  frame_id: "node1_radarinterface_radarscan"
range: 2.03248763084
angle: -0.427650719881
elev: 0.441308617592
doppler: 0.159006148577
snr: 136
noise: 499
frame_num: 7891
point_id: 19
x: -0.762182891369
y: 1.67225801945
z: 0.868122339249
doppler_bin: 34
target_idx: 10
posX: -0.624141097069
posY: 1.70590126514
posZ: 0.874817013741
velX: 0.128583207726
velY: -0.232863754034
velZ: 1.16626369953
accX: 0.0
accY: 0.0
accZ: 0.0
---
header: 
  seq: 65376
  stamp: 
    secs: 1596523630
    nsecs: 544648482
  frame_id: "node1_radarinterface_radarscan"
range: 1.95431506634
angle: -0.401031970978
elev: 0.493716001511
doppler: 0.238509222865
snr: 239
noise: 433
frame_num: 7891
point_id: 20
x: -0.671795845032
y: 1.58438611031
z: 0.926152586937
doppler_bin: 35
target_idx: 10
posX: -0.624141097069
posY: 1.70590126514
posZ: 0.874817013741
velX: 0.128583207726
velY: -0.232863754034
velZ: 1.16626369953
accX: 0.0
accY: 0.0
accZ: 0.0
---
header: 
  seq: 65377
  stamp: 
    secs: 1596523630
    nsecs: 544658884
  frame_id: "node1_radarinterface_radarscan"
range: 2.03248763084
angle: -0.443768978119
elev: 0.508613348007
doppler: 0.238509222865
snr: 180
noise: 438
frame_num: 7891
point_id: 21
x: -0.762182891369
y: 1.60326886177
z: 0.989753544331
doppler_bin: 35
target_idx: 10
posX: -0.624141097069
posY: 1.70590126514
posZ: 0.874817013741
velX: 0.128583207726
velY: -0.232863754034
velZ: 1.16626369953
accX: 0.0
accY: 0.0
accZ: 0.0
---
header: 
  seq: 65378
  stamp: 
    secs: 1596523630
    nsecs: 544670935
  frame_id: "node1_radarinterface_radarscan"
range: 1.6416246891
angle: -0.361219346523
elev: 0.485955178738
doppler: 1.11304306984
snr: 135
noise: 363
frame_num: 7891
point_id: 22
x: -0.513007760048
y: 1.35789763927
z: 0.766726016998
doppler_bin: 46
target_idx: 10
posX: -0.624141097069
posY: 1.70590126514
posZ: 0.874817013741
velX: 0.128583207726
velY: -0.232863754034
velZ: 1.16626369953
accX: 0.0
accY: 0.0
accZ: 0.0
---
header: 
  seq: 65379
  stamp: 
    secs: 1596523630
    nsecs: 544686670
  frame_id: "node1_radarinterface_radarscan"
range: 1.71979725361
angle: -0.368675023317
elev: 0.521363794804
doppler: 1.11304306984
snr: 199
noise: 361
frame_num: 7891
point_id: 23
x: -0.537436664104
y: 1.39109897614
z: 0.85656774044
doppler_bin: 46
target_idx: 10
posX: -0.624141097069
posY: 1.70590126514
posZ: 0.874817013741
velX: 0.128583207726
velY: -0.232863754034
velZ: 1.16626369953
accX: 0.0
accY: 0.0
accZ: 0.0
---
header: 
  seq: 65380
  stamp: 
    secs: 1596523630
    nsecs: 544702231
  frame_id: "node1_radarinterface_radarscan"
range: 1.6416246891
angle: -0.373276591301
elev: 0.541487336159
doppler: 1.19254612923
snr: 153
noise: 358
frame_num: 7891
point_id: 25
x: -0.513007700443
y: 1.30990445614
z: 0.846111655235
doppler_bin: 47
target_idx: 10
posX: -0.624141097069
posY: 1.70590126514
posZ: 0.874817013741
velX: 0.128583207726
velY: -0.232863754034
velZ: 1.16626369953
accX: 0.0
accY: 0.0
accZ: 0.0
---
header: 
  seq: 65381
  stamp: 
    secs: 1596523630
    nsecs: 544717380
  frame_id: "node1_radarinterface_radarscan"
range: 2.34517812729
angle: -0.304547399282
elev: 0.584988534451
doppler: -0.636024594307
snr: 184
noise: 368
frame_num: 7891
point_id: 28
x: -0.586294531822
y: 1.86524450779
z: 1.2949835062
doppler_bin: 24
target_idx: 10
posX: -0.624141097069
posY: 1.70590126514
posZ: 0.874817013741
velX: 0.128583207726
velY: -0.232863754034
velZ: 1.16626369953
accX: 0.0
accY: 0.0
accZ: 0.0
---
header: 
  seq: 65382
  stamp: 
    secs: 1596523630
    nsecs: 544732361
  frame_id: "node1_radarinterface_radarscan"
range: 2.34517812729
angle: -0.299785643816
elev: 0.56132131815
doppler: -0.55652153492
snr: 172
noise: 383
frame_num: 7891
point_id: 30
x: -0.586294531822
y: 1.89677095413
z: 1.24835062027
doppler_bin: 25
target_idx: 10
posX: -0.624141097069
posY: 1.70590126514
posZ: 0.874817013741
velX: 0.128583207726
velY: -0.232863754034
velZ: 1.16626369953
accX: 0.0
accY: 0.0
accZ: 0.0
---
header: 
  seq: 65383
  stamp: 
    secs: 1596523630
    nsecs: 544748907
  frame_id: "node1_radarinterface_radarscan"
range: 2.34517812729
angle: -0.322991400957
elev: 0.481950074434
doppler: -0.47701844573
snr: 182
noise: 378
frame_num: 7891
point_id: 32
x: -0.659581363201
y: 1.97058999538
z: 1.08700883389
doppler_bin: 26
target_idx: 10
posX: -0.624141097069
posY: 1.70590126514
posZ: 0.874817013741
velX: 0.128583207726
velY: -0.232863754034
velZ: 1.16626369953
accX: 0.0
accY: 0.0
accZ: 0.0
---
header: 
  seq: 65384
  stamp: 
    secs: 1596523630
    nsecs: 650429184
  frame_id: "node1_radarinterface_radarscan"
range: 1.95431506634
angle: -0.436244398355
elev: 0.47892048955
doppler: 0.0
snr: 181
noise: 466
frame_num: 7892
point_id: 6
x: -0.732868134975
y: 1.57200169563
z: 0.900590181351
doppler_bin: 32
target_idx: 10
posX: -0.634965062141
posY: 1.69189977646
posZ: 0.95838445425
velX: 0.056087769568
velY: -0.281489610672
velZ: 1.18367242813
accX: 0.0
accY: 0.0
accZ: 0.0
---
header: 
  seq: 65385
  stamp: 
    secs: 1596523630
    nsecs: 650520272
  frame_id: "node1_radarinterface_radarscan"
range: 2.26700544357
angle: -0.285005301237
elev: 0.475278317928
doppler: 0.238509222865
snr: 115
noise: 447
frame_num: 7892
point_id: 16
x: -0.566751360893
y: 1.93442809582
z: 1.03734982014
doppler_bin: 35
target_idx: 10
posX: -0.634965062141
posY: 1.69189977646
posZ: 0.95838445425
velX: 0.056087769568
velY: -0.281489610672
velZ: 1.18367242813
accX: 0.0
accY: 0.0
accZ: 0.0
---
header: 
  seq: 65386
  stamp: 
    secs: 1596523630
    nsecs: 650535650
  frame_id: "node1_radarinterface_radarscan"
range: 2.34517812729
angle: -0.325072437525
elev: 0.493628144264
doppler: 0.318012297153
snr: 200
noise: 415
frame_num: 7892
point_id: 19
x: -0.659581363201
y: 1.95704960823
z: 1.11120176315
doppler_bin: 36
target_idx: 10
posX: -0.634965062141
posY: 1.69189977646
posZ: 0.95838445425
velX: 0.056087769568
velY: -0.281489610672
velZ: 1.18367242813
accX: 0.0
accY: 0.0
accZ: 0.0
---
header: 
  seq: 65387
  stamp: 
    secs: 1596523630
    nsecs: 650555848
  frame_id: "node1_radarinterface_radarscan"
range: 2.42335057259
angle: -0.325814217329
elev: 0.497693985701
doppler: 0.318012297153
snr: 159
noise: 424
frame_num: 7892
point_id: 20
x: -0.681567311287
y: 2.01733875275
z: 1.15690886974
doppler_bin: 36
target_idx: 10
posX: -0.634965062141
posY: 1.69189977646
posZ: 0.95838445425
velX: 0.056087769568
velY: -0.281489610672
velZ: 1.18367242813
accX: 0.0
accY: 0.0
accZ: 0.0
---
header: 
  seq: 65388
  stamp: 
    secs: 1596523630
    nsecs: 650576840
  frame_id: "node1_radarinterface_radarscan"
range: 2.34517812729
angle: -0.327787458897
elev: 0.508274912834
doppler: 0.397515356541
snr: 196
noise: 395
frame_num: 7892
point_id: 21
x: -0.659581303596
y: 1.93963348866
z: 1.14133012295
doppler_bin: 37
target_idx: 10
posX: -0.634965062141
posY: 1.69189977646
posZ: 0.95838445425
velX: 0.056087769568
velY: -0.281489610672
velZ: 1.18367242813
accX: 0.0
accY: 0.0
accZ: 0.0
---
header: 
  seq: 65389
  stamp: 
    secs: 1596523630
    nsecs: 650592752
  frame_id: "node1_radarinterface_radarscan"
range: 2.42335057259
angle: -0.32781842351
elev: 0.508438289165
doppler: 0.397515356541
snr: 167
noise: 396
frame_num: 7892
point_id: 22
x: -0.681567370892
y: 2.00408434868
z: 1.17972016335
doppler_bin: 37
target_idx: 10
posX: -0.634965062141
posY: 1.69189977646
posZ: 0.95838445425
velX: 0.056087769568
velY: -0.281489610672
velZ: 1.18367242813
accX: 0.0
accY: 0.0
accZ: 0.0
---
header: 
  seq: 65390
  stamp: 
    secs: 1596523630
    nsecs: 650608657
  frame_id: "node1_radarinterface_radarscan"
range: 1.95431506634
angle: -0.417999476194
elev: 0.392912596464
doppler: -0.159006148577
snr: 169
noise: 457
frame_num: 7892
point_id: 23
x: -0.732868134975
y: 1.64995276928
z: 0.748269498348
doppler_bin: 30
target_idx: 10
posX: -0.634965062141
posY: 1.69189977646
posZ: 0.95838445425
velX: 0.056087769568
velY: -0.281489610672
velZ: 1.18367242813
accX: 0.0
accY: 0.0
accZ: 0.0
---
header: 
  seq: 65391
  stamp: 
    secs: 1596523630
    nsecs: 650627958
  frame_id: "node1_radarinterface_radarscan"
range: 2.03248763084
angle: -0.458354949951
elev: 0.407450318336
doppler: -0.0795030742884
snr: 126
noise: 473
frame_num: 7892
point_id: 28
x: -0.825698137283
y: 1.67348086834
z: 0.80541318655
doppler_bin: 31
target_idx: 10
posX: -0.634965062141
posY: 1.69189977646
posZ: 0.95838445425
velX: 0.056087769568
velY: -0.281489610672
velZ: 1.18367242813
accX: 0.0
accY: 0.0
accZ: 0.0
---
header: 
  seq: 65392
  stamp: 
    secs: 1596523630
    nsecs: 745352268
  frame_id: "node1_radarinterface_radarscan"
range: 1.79796981812
angle: -0.390917897224
elev: 0.178248181939
doppler: 0.0795030742884
snr: 129
noise: 502
frame_num: 7893
point_id: 11
x: -0.674238681793
y: 1.63599216938
z: 0.318790435791
doppler_bin: 33
target_idx: 10
posX: -0.594294071198
posY: 1.73893618584
posZ: 1.08382153511
velX: 0.208680033684
velY: -0.101388677955
velZ: 1.30662286282
accX: 0.0
accY: 0.0
accZ: 0.0
---
header: 
  seq: 65393
  stamp: 
    secs: 1596523630
    nsecs: 745408006
  frame_id: "node1_radarinterface_radarscan"
range: 2.42335057259
angle: -0.287995576859
elev: 0.494542688131
doppler: 0.238509222865
snr: 213
noise: 451
frame_num: 7893
point_id: 16
x: -0.605837643147
y: 2.04515171051
z: 1.15019285679
doppler_bin: 35
target_idx: 10
posX: -0.594294071198
posY: 1.73893618584
posZ: 1.08382153511
velX: 0.208680033684
velY: -0.101388677955
velZ: 1.30662286282
accX: 0.0
accY: 0.0
accZ: 0.0
---
header: 
  seq: 65394
  stamp: 
    secs: 1596523630
    nsecs: 745429889
  frame_id: "node1_radarinterface_radarscan"
range: 2.26700544357
angle: -0.294337958097
elev: 0.532081484795
doppler: 0.47701844573
snr: 219
noise: 380
frame_num: 7893
point_id: 19
x: -0.566751360893
y: 1.86958301067
z: 1.15011572838
doppler_bin: 38
target_idx: 10
posX: -0.594294071198
posY: 1.73893618584
posZ: 1.08382153511
velX: 0.208680033684
velY: -0.101388677955
velZ: 1.30662286282
accX: 0.0
accY: 0.0
accZ: 0.0
---
header: 
  seq: 65395
  stamp: 
    secs: 1596523630
    nsecs: 745479469
  frame_id: "node1_radarinterface_radarscan"
range: 2.34517812729
angle: -0.290361136198
elev: 0.509034991264
doppler: 0.47701844573
snr: 299
noise: 382
frame_num: 7893
point_id: 20
x: -0.586294531822
y: 1.96212339401
z: 1.14288699627
doppler_bin: 38
target_idx: 10
posX: -0.594294071198
posY: 1.73893618584
posZ: 1.08382153511
velX: 0.208680033684
velY: -0.101388677955
velZ: 1.30662286282
accX: 0.0
accY: 0.0
accZ: 0.0
---
header: 
  seq: 65396
  stamp: 
    secs: 1596523630
    nsecs: 745493611
  frame_id: "node1_radarinterface_radarscan"
range: 2.42335057259
angle: -0.289669275284
elev: 0.504860520363
doppler: 0.47701844573
snr: 311
noise: 382
frame_num: 7893
point_id: 21
x: -0.605837643147
y: 2.03265309334
z: 1.17213916779
doppler_bin: 38
target_idx: 10
posX: -0.594294071198
posY: 1.73893618584
posZ: 1.08382153511
velX: 0.208680033684
velY: -0.101388677955
velZ: 1.30662286282
accX: 0.0
accY: 0.0
accZ: 0.0
---
header: 
  seq: 65397
  stamp: 
    secs: 1596523630
    nsecs: 745506000
  frame_id: "node1_radarinterface_radarscan"
range: 2.5015232563
angle: -0.291203767061
elev: 0.514050483704
doppler: 0.47701844573
snr: 259
noise: 377
frame_num: 7893
point_id: 22
x: -0.625380814075
y: 2.08652091026
z: 1.23001968861
doppler_bin: 38
target_idx: 10
posX: -0.594294071198
posY: 1.73893618584
posZ: 1.08382153511
velX: 0.208680033684
velY: -0.101388677955
velZ: 1.30662286282
accX: 0.0
accY: 0.0
accZ: 0.0
---
header: 
  seq: 65398
  stamp: 
    secs: 1596523630
    nsecs: 745518153
  frame_id: "node1_radarinterface_radarscan"
range: 2.26700544357
angle: -0.29208534956
elev: 0.519219577312
doppler: 0.55652153492
snr: 194
noise: 377
frame_num: 7893
point_id: 23
x: -0.566751360893
y: 1.88486588001
z: 1.12489426136
doppler_bin: 39
target_idx: 10
posX: -0.594294071198
posY: 1.73893618584
posZ: 1.08382153511
velX: 0.208680033684
velY: -0.101388677955
velZ: 1.30662286282
accX: 0.0
accY: 0.0
accZ: 0.0
---
header: 
  seq: 65399
  stamp: 
    secs: 1596523630
    nsecs: 745531180
  frame_id: "node1_radarinterface_radarscan"
range: 2.42335057259
angle: -0.289565324783
elev: 0.504228711128
doppler: 0.55652153492
snr: 284
noise: 375
frame_num: 7893
point_id: 25
x: -0.605837643147
y: 2.03342533112
z: 1.17079889774
doppler_bin: 39
target_idx: 10
posX: -0.594294071198
posY: 1.73893618584
posZ: 1.08382153511
velX: 0.208680033684
velY: -0.101388677955
velZ: 1.30662286282
accX: 0.0
accY: 0.0
accZ: 0.0
---
header: 
  seq: 65400
  stamp: 
    secs: 1596523630
    nsecs: 745543850
  frame_id: "node1_radarinterface_radarscan"
range: 2.34517812729
angle: -0.291007071733
elev: 0.512886285782
doppler: 1.59006142616
snr: 180
noise: 379
frame_num: 7893
point_id: 28
x: -0.586294531822
y: 1.95751333237
z: 1.1507652998
doppler_bin: 52
target_idx: 10
posX: -0.594294071198
posY: 1.73893618584
posZ: 1.08382153511
velX: 0.208680033684
velY: -0.101388677955
velZ: 1.30662286282
accX: 0.0
accY: 0.0
accZ: 0.0
---
header: 
  seq: 65401
  stamp: 
    secs: 1596523630
    nsecs: 745558710
  frame_id: "node1_radarinterface_radarscan"
range: 2.34517812729
angle: -0.289886027575
elev: 0.506173789501
doppler: 1.66956460476
snr: 188
noise: 390
frame_num: 7893
point_id: 30
x: -0.586294591427
y: 1.96552753448
z: 1.13702297211
doppler_bin: 53
target_idx: 10
posX: -0.594294071198
posY: 1.73893618584
posZ: 1.08382153511
velX: 0.208680033684
velY: -0.101388677955
velZ: 1.30662286282
accX: 0.0
accY: 0.0
accZ: 0.0
---
header: 
  seq: 65402
  stamp: 
    secs: 1596523630
    nsecs: 745579183
  frame_id: "node1_radarinterface_radarscan"
range: 2.5015232563
angle: -0.222712472081
elev: 0.556909024715
doppler: 1.66956460476
snr: 124
noise: 393
frame_num: 7893
point_id: 32
x: -0.469035595655
y: 2.07107830048
z: 1.32221722603
doppler_bin: 53
target_idx: 10
posX: -0.594294071198
posY: 1.73893618584
posZ: 1.08382153511
velX: 0.208680033684
velY: -0.101388677955
velZ: 1.30662286282
accX: 0.0
accY: 0.0
accZ: 0.0
---
header: 
  seq: 65403
  stamp: 
    secs: 1596523630
    nsecs: 745598244
  frame_id: "node1_radarinterface_radarscan"
range: 2.26700544357
angle: -0.294734865427
elev: 0.534298181534
doppler: 1.74906766415
snr: 169
noise: 382
frame_num: 7893
point_id: 33
x: -0.566751360893
y: 1.86691367626
z: 1.15444338322
doppler_bin: 54
target_idx: 10
posX: -0.594294071198
posY: 1.73893618584
posZ: 1.08382153511
velX: 0.208680033684
velY: -0.101388677955
velZ: 1.30662286282
accX: 0.0
accY: 0.0
accZ: 0.0
---
header: 
  seq: 65404
  stamp: 
    secs: 1596523630
    nsecs: 745680116
  frame_id: "node1_radarinterface_radarscan"
range: 2.5015232563
angle: -0.262719005346
elev: 0.569270014763
doppler: 1.74906766415
snr: 154
noise: 388
frame_num: 7893
point_id: 36
x: -0.547208189964
y: 2.03472232819
z: 1.34836435318
doppler_bin: 54
target_idx: 10
posX: -0.594294071198
posY: 1.73893618584
posZ: 1.08382153511
velX: 0.208680033684
velY: -0.101388677955
velZ: 1.30662286282
accX: 0.0
accY: 0.0
accZ: 0.0
---
header: 
  seq: 65405
  stamp: 
    secs: 1596523630
    nsecs: 745708921
  frame_id: "node1_radarinterface_radarscan"
range: 1.6416246891
angle: -0.40011677146
elev: 0.489680767059
doppler: -1.27204918861
snr: 164
noise: 368
frame_num: 7893
point_id: 37
x: -0.564308464527
y: 1.33428061008
z: 0.772128641605
doppler_bin: 16
target_idx: 10
posX: -0.594294071198
posY: 1.73893618584
posZ: 1.08382153511
velX: 0.208680033684
velY: -0.101388677955
velZ: 1.30662286282
accX: 0.0
accY: 0.0
accZ: 0.0
---
header: 
  seq: 65406
  stamp: 
    secs: 1596523630
    nsecs: 745729880
  frame_id: "node1_radarinterface_radarscan"
range: 1.71979725361
angle: -0.409791052341
elev: 0.53003770113
doppler: -1.19254612923
snr: 188
noise: 370
frame_num: 7893
point_id: 40
x: -0.591180324554
y: 1.3609662056
z: 0.869470775127
doppler_bin: 17
target_idx: 10
posX: -0.594294071198
posY: 1.73893618584
posZ: 1.08382153511
velX: 0.208680033684
velY: -0.101388677955
velZ: 1.30662286282
accX: 0.0
accY: 0.0
accZ: 0.0
---
header: 
  seq: 65407
  stamp: 
    secs: 1596523630
    nsecs: 745757359
  frame_id: "node1_radarinterface_radarscan"
range: 1.95431506634
angle: -0.406792134047
elev: 0.518042981625
doppler: -0.238509222865
snr: 285
noise: 383
frame_num: 7893
point_id: 42
x: -0.671795785427
y: 1.55933260918
z: 0.967739403248
doppler_bin: 29
target_idx: 10
posX: -0.594294071198
posY: 1.73893618584
posZ: 1.08382153511
velX: 0.208680033684
velY: -0.101388677955
velZ: 1.30662286282
accX: 0.0
accY: 0.0
accZ: 0.0
---
header: 
  seq: 65408
  stamp: 
    secs: 1596523630
    nsecs: 745779842
  frame_id: "node1_radarinterface_radarscan"
range: 1.95431506634
angle: -0.33730044961
elev: 0.335403889418
doppler: -0.0795030742884
snr: 157
noise: 512
frame_num: 7893
point_id: 52
x: -0.610723435879
y: 1.74142920971
z: 0.643263936043
doppler_bin: 31
target_idx: 10
posX: -0.594294071198
posY: 1.73893618584
posZ: 1.08382153511
velX: 0.208680033684
velY: -0.101388677955
velZ: 1.30662286282
accX: 0.0
accY: 0.0
accZ: 0.0
---
header: 
  seq: 65409
  stamp: 
    secs: 1596523630
    nsecs: 850954156
  frame_id: "node1_radarinterface_radarscan"
range: 1.71979725361
angle: -0.394957154989
elev: 0.225816473365
doppler: 0.0795030742884
snr: 139
noise: 465
frame_num: 7894
point_id: 12
x: -0.6449239254
y: 1.54709386826
z: 0.385066360235
doppler_bin: 33
target_idx: 10
posX: -0.62016493082
posY: 1.72853648663
posZ: 1.06487107277
velX: 0.0617953240871
velY: -0.15218706429
velZ: 0.959276914597
accX: 0.0
accY: 0.0
accZ: 0.0
---
header: 
  seq: 65410
  stamp: 
    secs: 1596523630
    nsecs: 851014289
  frame_id: "node1_radarinterface_radarscan"
range: 1.79796981812
angle: -0.398332059383
elev: 0.258439272642
doppler: 0.0795030742884
snr: 197
noise: 492
frame_num: 7894
point_id: 13
x: -0.674238681793
y: 1.60216963291
z: 0.459510684013
doppler_bin: 33
target_idx: 10
posX: -0.62016493082
posY: 1.72853648663
posZ: 1.06487107277
velX: 0.0617953240871
velY: -0.15218706429
velZ: 0.959276914597
accX: 0.0
accY: 0.0
accZ: 0.0
---
header: 
  seq: 65411
  stamp: 
    secs: 1596523630
    nsecs: 851026320
  frame_id: "node1_radarinterface_radarscan"
range: 1.79796981812
angle: -0.387106269598
elev: 0.42613312602
doppler: -0.238509222865
snr: 266
noise: 367
frame_num: 7894
point_id: 23
x: -0.618052065372
y: 1.51603651047
z: 0.743195950985
doppler_bin: 29
target_idx: 10
posX: -0.62016493082
posY: 1.72853648663
posZ: 1.06487107277
velX: 0.0617953240871
velY: -0.15218706429
velZ: 0.959276914597
accX: 0.0
accY: 0.0
accZ: 0.0
---
header: 
  seq: 65412
  stamp: 
    secs: 1596523630
    nsecs: 851043561
  frame_id: "node1_radarinterface_radarscan"
range: 1.95431506634
angle: -0.390657186508
elev: 0.444760113955
doppler: -0.238509222865
snr: 305
noise: 366
frame_num: 7894
point_id: 25
x: -0.671795785427
y: 1.63127171993
z: 0.840827167034
doppler_bin: 29
target_idx: 10
posX: -0.62016493082
posY: 1.72853648663
posZ: 1.06487107277
velX: 0.0617953240871
velY: -0.15218706429
velZ: 0.959276914597
accX: 0.0
accY: 0.0
accZ: 0.0
---
header: 
  seq: 65413
  stamp: 
    secs: 1596523630
    nsecs: 851059095
  frame_id: "node1_radarinterface_radarscan"
range: 1.95431506634
angle: -0.438039153814
elev: 0.486251413822
doppler: -0.159006148577
snr: 298
noise: 377
frame_num: 7894
point_id: 28
x: -0.732868134975
y: 1.56466281414
z: 0.913280904293
doppler_bin: 30
target_idx: 10
posX: -0.62016493082
posY: 1.72853648663
posZ: 1.06487107277
velX: 0.0617953240871
velY: -0.15218706429
velZ: 0.959276914597
accX: 0.0
accY: 0.0
accZ: 0.0
---
header: 
  seq: 65414
  stamp: 
    secs: 1596523630
    nsecs: 851075189
  frame_id: "node1_radarinterface_radarscan"
range: 1.79796981812
angle: -0.324642807245
elev: 0.201761364937
doppler: -0.0795030742884
snr: 224
noise: 425
frame_num: 7894
point_id: 32
x: -0.561865568161
y: 1.66948580742
z: 0.360304653645
doppler_bin: 31
target_idx: 10
posX: -0.62016493082
posY: 1.72853648663
posZ: 1.06487107277
velX: 0.0617953240871
velY: -0.15218706429
velZ: 0.959276914597
accX: 0.0
accY: 0.0
accZ: 0.0
---
header: 
  seq: 65415
  stamp: 
    secs: 1596523630
    nsecs: 851088869
  frame_id: "node1_radarinterface_radarscan"
range: 1.87614250183
angle: -0.360712230206
elev: 0.228710353374
doppler: -0.0795030742884
snr: 253
noise: 431
frame_num: 7894
point_id: 33
x: -0.644923985004
y: 1.70969319344
z: 0.425362110138
doppler_bin: 31
target_idx: 10
posX: -0.62016493082
posY: 1.72853648663
posZ: 1.06487107277
velX: 0.0617953240871
velY: -0.15218706429
velZ: 0.959276914597
accX: 0.0
accY: 0.0
accZ: 0.0
---
header: 
  seq: 65416
  stamp: 
    secs: 1596523630
    nsecs: 948951577
  frame_id: "node1_radarinterface_radarscan"
range: 2.5015232563
angle: -0.194224759936
elev: 0.239432498813
doppler: -2.30558919907
snr: 213
noise: 389
frame_num: 7895
point_id: 12
x: -0.469035565853
y: 2.38446855545
z: 0.593239605427
doppler_bin: 3
target_idx: 10
posX: -0.585801422596
posY: 1.75263881683
posZ: 1.07926666737
velX: 0.209478914738
velY: -0.120161280036
velZ: 0.70110553503
accX: 0.0
accY: 0.0
accZ: 0.0
---
header: 
  seq: 65417
  stamp: 
    secs: 1596523630
    nsecs: 949014082
  frame_id: "node1_radarinterface_radarscan"
range: 2.42335057259
angle: -0.228566303849
elev: 0.263681828976
doppler: -2.22608613968
snr: 238
noise: 383
frame_num: 7895
point_id: 13
x: -0.530107915401
y: 2.27874445915
z: 0.631614565849
doppler_bin: 4
target_idx: 10
posX: -0.585801422596
posY: 1.75263881683
posZ: 1.07926666737
velX: 0.209478914738
velY: -0.120161280036
velZ: 0.70110553503
accX: 0.0
accY: 0.0
accZ: 0.0
---
header: 
  seq: 65418
  stamp: 
    secs: 1596523630
    nsecs: 949026558
  frame_id: "node1_radarinterface_radarscan"
range: 2.03248763084
angle: -0.396565020084
elev: 0.473533391953
doppler: -0.0795030742884
snr: 118
noise: 473
frame_num: 7895
point_id: 23
x: -0.69866758585
y: 1.66845965385
z: 0.926882863045
doppler_bin: 31
target_idx: 10
posX: -0.585801422596
posY: 1.75263881683
posZ: 1.07926666737
velX: 0.209478914738
velY: -0.120161280036
velZ: 0.70110553503
accX: 0.0
accY: 0.0
accZ: 0.0
---
header: 
  seq: 65419
  stamp: 
    secs: 1596523631
    nsecs:  49440226
  frame_id: "node1_radarinterface_radarscan"
range: 1.87614250183
angle: -0.334266901016
elev: 0.309384852648
doppler: 0.0
snr: 242
noise: 430
frame_num: 7896
point_id: 2
x: -0.586294531822
y: 1.6881531477
z: 0.571234285831
doppler_bin: 32
target_idx: 10
posX: -0.651339828968
posY: 1.8496876955
posZ: 0.808316528797
velX: -0.018251568079
velY: 0.154602825642
velZ: -0.201693534851
accX: 0.0
accY: 0.0
accZ: 0.0
---
header: 
  seq: 65420
  stamp: 
    secs: 1596523631
    nsecs:  49503653
  frame_id: "node1_radarinterface_radarscan"
range: 2.5015232563
angle: -0.330911576748
elev: 0.277224600315
doppler: 0.0
snr: 120
noise: 481
frame_num: 7896
point_id: 6
x: -0.781725943089
y: 2.27547740936
z: 0.684635102749
doppler_bin: 32
target_idx: 10
posX: -0.651339828968
posY: 1.8496876955
posZ: 0.808316528797
velX: -0.018251568079
velY: 0.154602825642
velZ: -0.201693534851
accX: 0.0
accY: 0.0
accZ: 0.0
---
header: 
  seq: 65421
  stamp: 
    secs: 1596523631
    nsecs:  49534262
  frame_id: "node1_radarinterface_radarscan"
range: 2.57969594002
angle: -0.32655197382
elev: 0.227689474821
doppler: 0.0
snr: 118
noise: 477
frame_num: 7896
point_id: 7
x: -0.806154966354
y: 2.38030743599
z: 0.582307636738
doppler_bin: 32
target_idx: 10
posX: -0.651339828968
posY: 1.8496876955
posZ: 0.808316528797
velX: -0.018251568079
velY: 0.154602825642
velZ: -0.201693534851
accX: 0.0
accY: 0.0
accZ: 0.0
---
header: 
  seq: 65422
  stamp: 
    secs: 1596523631
    nsecs:  49575529
  frame_id: "node1_radarinterface_radarscan"
range: 1.71979725361
angle: -0.368629723787
elev: 0.304601281881
doppler: 0.0795030742884
snr: 124
noise: 434
frame_num: 7896
point_id: 11
x: -0.59118026495
y: 1.53041493893
z: 0.515789270401
doppler_bin: 33
target_idx: 10
posX: -0.651339828968
posY: 1.8496876955
posZ: 0.808316528797
velX: -0.018251568079
velY: 0.154602825642
velZ: -0.201693534851
accX: 0.0
accY: 0.0
accZ: 0.0
---
header: 
  seq: 65423
  stamp: 
    secs: 1596523631
    nsecs:  49634806
  frame_id: "node1_radarinterface_radarscan"
range: 1.79796981812
angle: -0.373052000999
elev: 0.338727533817
doppler: 0.0795030742884
snr: 236
noise: 446
frame_num: 7896
point_id: 12
x: -0.618052124977
y: 1.57916736603
z: 0.59744232893
doppler_bin: 33
target_idx: 10
posX: -0.651339828968
posY: 1.8496876955
posZ: 0.808316528797
velX: -0.018251568079
velY: 0.154602825642
velZ: -0.201693534851
accX: 0.0
accY: 0.0
accZ: 0.0
---
header: 
  seq: 65424
  stamp: 
    secs: 1596523631
    nsecs:  49654238
  frame_id: "node1_radarinterface_radarscan"
range: 1.87614250183
angle: -0.374382436275
elev: 0.348213613033
doppler: 0.0795030742884
snr: 269
noise: 454
frame_num: 7896
point_id: 13
x: -0.644923985004
y: 1.64138925076
z: 0.640175819397
doppler_bin: 33
target_idx: 10
posX: -0.651339828968
posY: 1.8496876955
posZ: 0.808316528797
velX: -0.018251568079
velY: 0.154602825642
velZ: -0.201693534851
accX: 0.0
accY: 0.0
accZ: 0.0
---
header: 
  seq: 65425
  stamp: 
    secs: 1596523631
    nsecs:  49670588
  frame_id: "node1_radarinterface_radarscan"
range: 2.5015232563
angle: -0.337122559547
elev: 0.333944857121
doppler: 0.0795030742884
snr: 115
noise: 523
frame_num: 7896
point_id: 16
x: -0.781726002693
y: 2.23029971123
z: 0.819930553436
doppler_bin: 33
target_idx: 10
posX: -0.651339828968
posY: 1.8496876955
posZ: 0.808316528797
velX: -0.018251568079
velY: 0.154602825642
velZ: -0.201693534851
accX: 0.0
accY: 0.0
accZ: 0.0
---
header: 
  seq: 65426
  stamp: 
    secs: 1596523631
    nsecs:  49682865
  frame_id: "node1_radarinterface_radarscan"
range: 1.79796981812
angle: -0.398874729872
elev: 0.484124034643
doppler: 0.159006148577
snr: 204
noise: 417
frame_num: 7896
point_id: 19
x: -0.618052124977
y: 1.46642911434
z: 0.836834907532
doppler_bin: 34
target_idx: 10
posX: -0.651339828968
posY: 1.8496876955
posZ: 0.808316528797
velX: -0.018251568079
velY: 0.154602825642
velZ: -0.201693534851
accX: 0.0
accY: 0.0
accZ: 0.0
---
header: 
  seq: 65427
  stamp: 
    secs: 1596523631
    nsecs:  49700724
  frame_id: "node1_radarinterface_radarscan"
range: 1.87614250183
angle: -0.38649854064
elev: 0.42283192277
doppler: 0.159006148577
snr: 244
noise: 424
frame_num: 7896
point_id: 20
x: -0.644923985004
y: 1.5847055912
z: 0.769864976406
doppler_bin: 34
target_idx: 10
posX: -0.651339828968
posY: 1.8496876955
posZ: 0.808316528797
velX: -0.018251568079
velY: 0.154602825642
velZ: -0.201693534851
accX: 0.0
accY: 0.0
accZ: 0.0
---
header: 
  seq: 65428
  stamp: 
    secs: 1596523631
    nsecs:  49720817
  frame_id: "node1_radarinterface_radarscan"
range: 1.95431506634
angle: -0.377750605345
elev: 0.370905160904
doppler: 0.159006148577
snr: 217
noise: 429
frame_num: 7896
point_id: 21
x: -0.671795785427
y: 1.69300460815
z: 0.708359479904
doppler_bin: 34
target_idx: 10
posX: -0.651339828968
posY: 1.8496876955
posZ: 0.808316528797
velX: -0.018251568079
velY: 0.154602825642
velZ: -0.201693534851
accX: 0.0
accY: 0.0
accZ: 0.0
---
header: 
  seq: 65429
  stamp: 
    secs: 1596523631
    nsecs:  49747345
  frame_id: "node1_radarinterface_radarscan"
range: 1.79796981812
angle: -0.358741402626
elev: 0.20492208004
doppler: -0.159006148577
snr: 253
noise: 366
frame_num: 7896
point_id: 23
x: -0.618052124977
y: 1.64828574657
z: 0.365870445967
doppler_bin: 30
target_idx: 10
posX: -0.651339828968
posY: 1.8496876955
posZ: 0.808316528797
velX: -0.018251568079
velY: 0.154602825642
velZ: -0.201693534851
accX: 0.0
accY: 0.0
accZ: 0.0
---
header: 
  seq: 65430
  stamp: 
    secs: 1596523631
    nsecs:  49772105
  frame_id: "node1_radarinterface_radarscan"
range: 1.71979725361
angle: -0.356403052807
elev: 0.172121971846
doppler: -0.0795030742884
snr: 205
noise: 373
frame_num: 7896
point_id: 28
x: -0.59118026495
y: 1.587906003
z: 0.294555425644
doppler_bin: 31
target_idx: 10
posX: -0.651339828968
posY: 1.8496876955
posZ: 0.808316528797
velX: -0.018251568079
velY: 0.154602825642
velZ: -0.201693534851
accX: 0.0
accY: 0.0
accZ: 0.0
---
header: 
  seq: 65431
  stamp: 
    secs: 1596523631
    nsecs:  49836371
  frame_id: "node1_radarinterface_radarscan"
range: 1.87614250183
angle: -0.363078534603
elev: 0.254097104073
doppler: -0.0795030742884
snr: 317
noise: 386
frame_num: 7896
point_id: 30
x: -0.644923985004
y: 1.6975184679
z: 0.471608966589
doppler_bin: 31
target_idx: 10
posX: -0.651339828968
posY: 1.8496876955
posZ: 0.808316528797
velX: -0.018251568079
velY: 0.154602825642
velZ: -0.201693534851
accX: 0.0
accY: 0.0
accZ: 0.0
---
header: 
  seq: 65432
  stamp: 
    secs: 1596523631
    nsecs:  49860209
  frame_id: "node1_radarinterface_radarscan"
range: 2.11066031456
angle: -0.32145228982
elev: 0.147803843021
doppler: -0.0795030742884
snr: 227
noise: 429
frame_num: 7896
point_id: 33
x: -0.659581363201
y: 1.98071312904
z: 0.310829073191
doppler_bin: 31
target_idx: 10
posX: -0.651339828968
posY: 1.8496876955
posZ: 0.808316528797
velX: -0.018251568079
velY: 0.154602825642
velZ: -0.201693534851
accX: 0.0
accY: 0.0
accZ: 0.0
---
header: 
  seq: 65433
  stamp: 
    secs: 1596523631
    nsecs: 149876714
  frame_id: "node1_radarinterface_radarscan"
range: 1.79796981812
angle: -0.36313405633
elev: 0.254658937454
doppler: 0.0
snr: 131
noise: 449
frame_num: 7897
point_id: 2
x: -0.618052184582
y: 1.62651646137
z: 0.452936202288
doppler_bin: 32
target_idx: 10
posX: -0.665186583996
posY: 1.83766031265
posZ: 0.681150972843
velX: -0.0665950253606
velY: 0.0714563652873
velZ: -0.61035078764
accX: 0.0
accY: 0.0
accZ: 0.0
---
header: 
  seq: 65434
  stamp: 
    secs: 1596523631
    nsecs: 149944399
  frame_id: "node1_radarinterface_radarscan"
range: 1.79796981812
angle: -0.363224714994
elev: 0.255573779345
doppler: 0.0795030742884
snr: 180
noise: 472
frame_num: 7897
point_id: 9
x: -0.618052124977
y: 1.62607240677
z: 0.454527825117
doppler_bin: 33
target_idx: 10
posX: -0.665186583996
posY: 1.83766031265
posZ: 0.681150972843
velX: -0.0665950253606
velY: 0.0714563652873
velZ: -0.61035078764
accX: 0.0
accY: 0.0
accZ: 0.0
---
header: 
  seq: 65435
  stamp: 
    secs: 1596523631
    nsecs: 150014279
  frame_id: "node1_radarinterface_radarscan"
range: 1.95431506634
angle: -0.360416918993
elev: 0.225319698453
doppler: 0.0795030742884
snr: 171
noise: 491
frame_num: 7897
point_id: 11
x: -0.671795785427
y: 1.7825242281
z: 0.436629146338
doppler_bin: 33
target_idx: 10
posX: -0.665186583996
posY: 1.83766031265
posZ: 0.681150972843
velX: -0.0665950253606
velY: 0.0714563652873
velZ: -0.61035078764
accX: 0.0
accY: 0.0
accZ: 0.0
---
header: 
  seq: 65436
  stamp: 
    secs: 1596523631
    nsecs: 150028414
  frame_id: "node1_radarinterface_radarscan"
range: 1.95431506634
angle: -0.36594876647
elev: 0.281509429216
doppler: -0.159006148577
snr: 239
noise: 390
frame_num: 7897
point_id: 20
x: -0.671795785427
y: 1.7530759573
z: 0.542920410633
doppler_bin: 30
target_idx: 10
posX: -0.665186583996
posY: 1.83766031265
posZ: 0.681150972843
velX: -0.0665950253606
velY: 0.0714563652873
velZ: -0.61035078764
accX: 0.0
accY: 0.0
accZ: 0.0
---
header: 
  seq: 65437
  stamp: 
    secs: 1596523631
    nsecs: 150043556
  frame_id: "node1_radarinterface_radarscan"
range: 2.03248763084
angle: -0.354624480009
elev: 0.141862675548
doppler: -0.159006148577
snr: 210
noise: 391
frame_num: 7897
point_id: 21
x: -0.698667645454
y: 1.8868727684
z: 0.287367969751
doppler_bin: 30
target_idx: 10
posX: -0.665186583996
posY: 1.83766031265
posZ: 0.681150972843
velX: -0.0665950253606
velY: 0.0714563652873
velZ: -0.61035078764
accX: 0.0
accY: 0.0
accZ: 0.0
---
header: 
  seq: 65438
  stamp: 
    secs: 1596523631
    nsecs: 150087084
  frame_id: "node1_radarinterface_radarscan"
range: 1.79796981812
angle: -0.38534194231
elev: 0.416451215744
doppler: -0.0795030742884
snr: 207
noise: 418
frame_num: 7897
point_id: 22
x: -0.618052065372
y: 1.52372133732
z: 0.727310299873
doppler_bin: 31
target_idx: 10
posX: -0.665186583996
posY: 1.83766031265
posZ: 0.681150972843
velX: -0.0665950253606
velY: 0.0714563652873
velZ: -0.61035078764
accX: 0.0
accY: 0.0
accZ: 0.0
---
header: 
  seq: 65439
  stamp: 
    secs: 1596523631
    nsecs: 150110986
  frame_id: "node1_radarinterface_radarscan"
range: 1.87614250183
angle: -0.376010090113
elev: 0.359402507544
doppler: -0.0795030742884
snr: 255
noise: 429
frame_num: 7897
point_id: 23
x: -0.644923985004
