header: 
  seq: 18236
  stamp: 
    secs: 1596613547
    nsecs: 103108859
  frame_id: "node1_radarinterface_radarscan"
range: 1.79796981812
angle: -0.125992313027
elev: 0.102477997541
doppler: 0.0
snr: 201
noise: 471
frame_num: 1265
point_id: 7
x: -0.224746227264
y: 1.7743601799
z: 0.183930024505
doppler_bin: 32
target_idx: 4
posX: -0.246487110853
posY: 1.87129712105
posZ: 0.240856453776
velX: 0.032289467752
velY: -0.0472850315273
velZ: -0.396643340588
accX: 0.0
accY: 0.0
accZ: 0.0
---
header: 
  seq: 18237
  stamp: 
    secs: 1596613547
    nsecs: 103173527
  frame_id: "node1_radarinterface_radarscan"
range: 1.87614250183
angle: -0.125542774796
elev: 0.0583719089627
doppler: 0.0
snr: 217
noise: 496
frame_num: 1265
point_id: 8
x: -0.234517797828
y: 1.85820674896
z: 0.109451837838
doppler_bin: 32
target_idx: 4
posX: -0.246487110853
posY: 1.87129712105
posZ: 0.240856453776
velX: 0.032289467752
velY: -0.0472850315273
velZ: -0.396643340588
accX: 0.0
accY: 0.0
accZ: 0.0
---
header: 
  seq: 18238
  stamp: 
    secs: 1596613547
    nsecs: 103219669
  frame_id: "node1_radarinterface_radarscan"
range: 1.95431506634
angle: -0.125384896994
elev: 0.0300927311182
doppler: 0.0
snr: 190
noise: 515
frame_num: 1265
point_id: 9
x: -0.244289383292
y: 1.93809509277
z: 0.0588018037379
doppler_bin: 32
target_idx: 4
posX: -0.246487110853
posY: 1.87129712105
posZ: 0.240856453776
velX: 0.032289467752
velY: -0.0472850315273
velZ: -0.396643340588
accX: 0.0
accY: 0.0
accZ: 0.0
---
header: 
  seq: 18239
  stamp: 
    secs: 1596613547
    nsecs: 103232220
  frame_id: "node1_radarinterface_radarscan"
range: 1.71979725361
angle: -0.126566544175
elev: 0.139651820064
doppler: -0.238509222865
snr: 254
noise: 363
frame_num: 1265
point_id: 23
x: -0.214974656701
y: 1.68943166733
z: 0.239392906427
doppler_bin: 29
target_idx: 4
posX: -0.246487110853
posY: 1.87129712105
posZ: 0.240856453776
velX: 0.032289467752
velY: -0.0472850315273
velZ: -0.396643340588
accX: 0.0
accY: 0.0
accZ: 0.0
---
header: 
  seq: 18240
  stamp: 
    secs: 1596613547
    nsecs: 103241763
  frame_id: "node1_radarinterface_radarscan"
range: 1.79796981812
angle: -0.126586481929
elev: 0.140762269497
doppler: -0.238509222865
snr: 256
noise: 367
frame_num: 1265
point_id: 24
x: -0.224746212363
y: 1.76594269276
z: 0.25225135684
doppler_bin: 29
target_idx: 4
posX: -0.246487110853
posY: 1.87129712105
posZ: 0.240856453776
velX: 0.032289467752
velY: -0.0472850315273
velZ: -0.396643340588
accX: 0.0
accY: 0.0
accZ: 0.0
---
header: 
  seq: 18241
  stamp: 
    secs: 1596613547
    nsecs: 103251618
  frame_id: "node1_radarinterface_radarscan"
range: 1.95431506634
angle: -0.0944373011589
elev: 0.107762113214
doppler: -0.238509222865
snr: 202
noise: 372
frame_num: 1265
point_id: 25
x: -0.183217033744
y: 1.93432092667
z: 0.210193753242
doppler_bin: 29
target_idx: 4
posX: -0.246487110853
posY: 1.87129712105
posZ: 0.240856453776
velX: 0.032289467752
velY: -0.0472850315273
velZ: -0.396643340588
accX: 0.0
accY: 0.0
accZ: 0.0
---
header: 
  seq: 18242
  stamp: 
    secs: 1596613547
    nsecs: 103261570
  frame_id: "node1_radarinterface_radarscan"
range: 1.6416246891
angle: -0.128296598792
elev: 0.214969873428
doppler: -0.159006148577
snr: 202
noise: 364
frame_num: 1265
point_id: 26
x: -0.205203086138
y: 1.59065759182
z: 0.350188076496
doppler_bin: 30
target_idx: 4
posX: -0.246487110853
posY: 1.87129712105
posZ: 0.240856453776
velX: 0.032289467752
velY: -0.0472850315273
velZ: -0.396643340588
accX: 0.0
accY: 0.0
accZ: 0.0
---
header: 
  seq: 18243
  stamp: 
    secs: 1596613547
    nsecs: 103305116
  frame_id: "node1_radarinterface_radarscan"
range: 1.95431506634
angle: -0.125382781029
elev: 0.0295280180871
doppler: -0.159006148577
snr: 331
noise: 392
frame_num: 1265
point_id: 30
x: -0.244289398193
y: 1.93812823296
z: 0.0576986633241
doppler_bin: 30
target_idx: 4
posX: -0.246487110853
posY: 1.87129712105
posZ: 0.240856453776
velX: 0.032289467752
velY: -0.0472850315273
velZ: -0.396643340588
accX: 0.0
accY: 0.0
accZ: 0.0
---
header: 
  seq: 18244
  stamp: 
    secs: 1596613547
    nsecs: 103323325
  frame_id: "node1_radarinterface_radarscan"
range: 1.6416246891
angle: -0.130777090788
elev: 0.288910448551
doppler: -0.0795030742884
snr: 157
noise: 384
frame_num: 1265
point_id: 36
x: -0.205203086138
y: 1.56015026569
z: 0.467712014914
doppler_bin: 31
target_idx: 4
posX: -0.246487110853
posY: 1.87129712105
posZ: 0.240856453776
velX: 0.032289467752
velY: -0.0472850315273
velZ: -0.396643340588
accX: 0.0
accY: 0.0
accZ: 0.0
---
header: 
  seq: 18245
  stamp: 
    secs: 1596613547
    nsecs: 103336012
  frame_id: "node1_radarinterface_radarscan"
range: 1.79796981812
angle: -0.125667840242
elev: 0.0733839049935
doppler: -0.0795030742884
snr: 299
noise: 416
frame_num: 1265
point_id: 38
x: -0.224746227264
y: 1.77899050713
z: 0.131823658943
doppler_bin: 31
target_idx: 4
posX: -0.246487110853
posY: 1.87129712105
posZ: 0.240856453776
velX: 0.032289467752
velY: -0.0472850315273
velZ: -0.396643340588
accX: 0.0
accY: 0.0
accZ: 0.0
---
header: 
  seq: 18246
  stamp: 
    secs: 1596613547
    nsecs: 103346060
  frame_id: "node1_radarinterface_radarscan"
range: 2.03248763084
angle: -0.126352205873
elev: -0.127086922526
doppler: -0.0795030742884
snr: 212
noise: 480
frame_num: 1265
point_id: 41
x: -0.254060953856
y: 2.0000243187
z: -0.257607847452
doppler_bin: 31
target_idx: 4
posX: -0.246487110853
posY: 1.87129712105
posZ: 0.240856453776
velX: 0.032289467752
velY: -0.0472850315273
velZ: -0.396643340588
accX: 0.0
accY: 0.0
accZ: 0.0
---
header: 
  seq: 18247
  stamp: 
    secs: 1596613547
    nsecs: 103356463
  frame_id: "node1_radarinterface_radarscan"
range: 2.11066031456
angle: -0.074964441359
elev: 0.583553433418
doppler: -0.0795030742884
snr: 173
noise: 511
frame_num: 1265
point_id: 42
x: -0.13191626966
y: 1.75642037392
z: 1.16295862198
doppler_bin: 31
target_idx: 4
posX: -0.246487110853
posY: 1.87129712105
posZ: 0.240856453776
velX: 0.032289467752
velY: -0.0472850315273
velZ: -0.396643340588
accX: 0.0
accY: 0.0
accZ: 0.0
---
header: 
  seq: 18248
  stamp: 
    secs: 1596613547
    nsecs: 203355326
  frame_id: "node1_radarinterface_radarscan"
range: 1.87614250183
angle: -0.136242613196
elev: 0.401884436607
doppler: 0.0
snr: 170
noise: 469
frame_num: 1266
point_id: 7
x: -0.234517812729
y: 1.71066141129
z: 0.733859360218
doppler_bin: 32
target_idx: 4
posX: -0.236021339893
posY: 1.85465729237
posZ: 0.374613285065
velX: 0.0556596517563
velY: -0.0792611390352
velZ: 0.060066640377
accX: 0.0
accY: 0.0
accZ: 0.0
---
header: 
  seq: 18249
  stamp: 
    secs: 1596613547
    nsecs: 203429780
  frame_id: "node1_radarinterface_radarscan"
range: 1.95431506634
angle: -0.134653866291
elev: 0.373332023621
doppler: 0.0
snr: 160
noise: 487
frame_num: 1266
point_id: 8
x: -0.244289383292
y: 1.80322444439
z: 0.712777733803
doppler_bin: 32
target_idx: 4
posX: -0.236021339893
posY: 1.85465729237
posZ: 0.374613285065
velX: 0.0556596517563
velY: -0.0792611390352
velZ: 0.060066640377
accX: 0.0
accY: 0.0
accZ: 0.0
---
header: 
  seq: 18250
  stamp: 
    secs: 1596613547
    nsecs: 203441739
  frame_id: "node1_radarinterface_radarscan"
range: 1.6416246891
angle: -0.160902902484
elev: 0.222787126899
doppler: 0.0795030742884
snr: 185
noise: 405
frame_num: 1266
point_id: 14
x: -0.256503850222
y: 1.58037185669
z: 0.362714886665
doppler_bin: 33
target_idx: 4
posX: -0.236021339893
posY: 1.85465729237
posZ: 0.374613285065
velX: 0.0556596517563
velY: -0.0792611390352
velZ: 0.060066640377
accX: 0.0
accY: 0.0
accZ: 0.0
---
header: 
  seq: 18251
  stamp: 
    secs: 1596613547
    nsecs: 203455354
  frame_id: "node1_radarinterface_radarscan"
range: 1.71979725361
angle: -0.160604000092
elev: 0.214491024613
doppler: 0.0795030742884
snr: 248
noise: 435
frame_num: 1266
point_id: 15
x: -0.268718332052
y: 1.65876269341
z: 0.366059094667
doppler_bin: 33
target_idx: 4
posX: -0.236021339893
posY: 1.85465729237
posZ: 0.374613285065
velX: 0.0556596517563
velY: -0.0792611390352
velZ: 0.060066640377
accX: 0.0
accY: 0.0
accZ: 0.0
---
header: 
  seq: 18252
  stamp: 
    secs: 1596613547
    nsecs: 203472234
  frame_id: "node1_radarinterface_radarscan"
range: 1.87614250183
angle: -0.130810573697
elev: 0.289765626192
doppler: 0.0795030742884
snr: 162
noise: 496
frame_num: 1266
point_id: 17
x: -0.234517797828
y: 1.78256714344
z: 0.536065757275
doppler_bin: 33
target_idx: 4
posX: -0.236021339893
posY: 1.85465729237
posZ: 0.374613285065
velX: 0.0556596517563
velY: -0.0792611390352
velZ: 0.060066640377
accX: 0.0
accY: 0.0
accZ: 0.0
---
header: 
  seq: 18253
  stamp: 
    secs: 1596613547
    nsecs: 203520891
  frame_id: "node1_radarinterface_radarscan"
range: 1.6416246891
angle: -0.162325158715
elev: 0.258343964815
doppler: 0.159006148577
snr: 116
noise: 424
frame_num: 1266
point_id: 25
x: -0.256503850222
y: 1.56628203392
z: 0.419401973486
doppler_bin: 34
target_idx: 4
posX: -0.236021339893
posY: 1.85465729237
posZ: 0.374613285065
velX: 0.0556596517563
velY: -0.0792611390352
velZ: 0.060066640377
accX: 0.0
accY: 0.0
accZ: 0.0
---
header: 
  seq: 18254
  stamp: 
    secs: 1596613547
    nsecs: 203531874
  frame_id: "node1_radarinterface_radarscan"
range: 1.71979725361
angle: -0.161401107907
elev: 0.235914573073
doppler: 0.159006148577
snr: 181
noise: 454
frame_num: 1266
point_id: 26
x: -0.26871830225
y: 1.65042757988
z: 0.401972204447
doppler_bin: 34
target_idx: 4
posX: -0.236021339893
posY: 1.85465729237
posZ: 0.374613285065
velX: 0.0556596517563
velY: -0.0792611390352
velZ: 0.060066640377
accX: 0.0
accY: 0.0
accZ: 0.0
---
header: 
  seq: 18255
  stamp: 
    secs: 1596613547
    nsecs: 203542316
  frame_id: "node1_radarinterface_radarscan"
range: 2.03248763084
angle: -0.0991284698248
elev: 0.32611811161
doppler: -0.159006148577
snr: 245
noise: 385
frame_num: 1266
point_id: 35
x: -0.190545722842
y: 1.91590952873
z: 0.651144325733
doppler_bin: 30
target_idx: 4
posX: -0.236021339893
posY: 1.85465729237
posZ: 0.374613285065
velX: 0.0556596517563
velY: -0.0792611390352
velZ: 0.060066640377
accX: 0.0
accY: 0.0
accZ: 0.0
---
header: 
  seq: 18256
  stamp: 
    secs: 1596613547
    nsecs: 203551719
  frame_id: "node1_radarinterface_radarscan"
range: 2.11066031456
angle: -0.0697472244501
elev: 0.458268225193
doppler: -0.159006148577
snr: 250
noise: 399
frame_num: 1266
point_id: 36
x: -0.13191626966
y: 1.88828003407
z: 0.933746993542
doppler_bin: 30
target_idx: 4
posX: -0.236021339893
posY: 1.85465729237
posZ: 0.374613285065
velX: 0.0556596517563
velY: -0.0792611390352
velZ: 0.060066640377
accX: 0.0
accY: 0.0
accZ: 0.0
---
header: 
  seq: 18257
  stamp: 
    secs: 1596613547
    nsecs: 203561603
  frame_id: "node1_radarinterface_radarscan"
range: 2.26700544357
angle: -0.101609125733
elev: 0.391748517752
doppler: -0.159006148577
snr: 114
noise: 460
frame_num: 1266
point_id: 38
x: -0.212531760335
y: 2.08445692062
z: 0.865554153919
doppler_bin: 30
target_idx: 4
posX: -0.236021339893
posY: 1.85465729237
posZ: 0.374613285065
velX: 0.0556596517563
velY: -0.0792611390352
velZ: 0.060066640377
accX: 0.0
accY: 0.0
accZ: 0.0
---
header: 
  seq: 18258
  stamp: 
    secs: 1596613547
    nsecs: 203570735
  frame_id: "node1_radarinterface_radarscan"
range: 1.79796981812
angle: -0.0650068074465
elev: 0.276139110327
doppler: -0.0795030742884
snr: 165
noise: 403
frame_num: 1266
point_id: 41
x: -0.112373113632
y: 1.72620046139
z: 0.490204006433
doppler_bin: 31
target_idx: 4
posX: -0.236021339893
posY: 1.85465729237
posZ: 0.374613285065
velX: 0.0556596517563
velY: -0.0792611390352
velZ: 0.060066640377
accX: 0.0
accY: 0.0
accZ: 0.0
---
header: 
  seq: 18259
  stamp: 
    secs: 1596613547
    nsecs: 203579561
  frame_id: "node1_radarinterface_radarscan"
range: 1.87614250183
angle: -0.134969711304
elev: 0.379225701094
doppler: -0.0795030742884
snr: 255
noise: 420
frame_num: 1266
point_id: 42
x: -0.234517812729
y: 1.72699511051
z: 0.694550395012
doppler_bin: 31
target_idx: 4
posX: -0.236021339893
posY: 1.85465729237
posZ: 0.374613285065
velX: 0.0556596517563
velY: -0.0792611390352
velZ: 0.060066640377
accX: 0.0
accY: 0.0
accZ: 0.0
---
header: 
  seq: 18260
  stamp: 
    secs: 1596613547
    nsecs: 304974004
  frame_id: "node1_radarinterface_radarscan"
range: 2.11066031456
angle: -0.0701835155487
elev: 0.470693528652
doppler: 0.0
snr: 151
noise: 508
frame_num: 1267
point_id: 7
x: -0.13191626966
y: 1.87650334835
z: 0.95719397068
doppler_bin: 32
target_idx: 4
posX: -0.249420315027
posY: 1.81896615028
posZ: 0.365352839231
velX: 0.00844589620829
velY: -0.237576141953
velZ: 0.0259173773229
accX: 0.0
accY: 0.0
accZ: 0.0
---
header: 
  seq: 18261
  stamp: 
    secs: 1596613547
    nsecs: 305056780
  frame_id: "node1_radarinterface_radarscan"
range: 1.6416246891
angle: -0.160246640444
elev: 0.204093635082
doppler: -0.715527653694
snr: 197
noise: 367
frame_num: 1267
point_id: 23
x: -0.256503850222
y: 1.58695685863
z: 0.332723975182
doppler_bin: 23
target_idx: 4
posX: -0.249420315027
posY: 1.81896615028
posZ: 0.365352839231
velX: 0.00844589620829
velY: -0.237576141953
velZ: 0.0259173773229
accX: 0.0
accY: 0.0
accZ: 0.0
---
header: 
  seq: 18262
  stamp: 
    secs: 1596613547
    nsecs: 305111601
  frame_id: "node1_radarinterface_radarscan"
range: 1.71979725361
angle: -0.159722492099
elev: 0.187726303935
doppler: -0.715527653694
snr: 281
noise: 364
frame_num: 1267
point_id: 24
x: -0.268718332052
y: 1.66807639599
z: 0.320958256721
doppler_bin: 23
target_idx: 4
posX: -0.249420315027
posY: 1.81896615028
posZ: 0.365352839231
velX: 0.00844589620829
velY: -0.237576141953
velZ: 0.0259173773229
accX: 0.0
accY: 0.0
accZ: 0.0
---
header: 
  seq: 18263
  stamp: 
    secs: 1596613547
    nsecs: 305132015
  frame_id: "node1_radarinterface_radarscan"
range: 1.79796981812
angle: -0.159251987934
elev: 0.171622484922
doppler: -0.715527653694
snr: 296
noise: 362
frame_num: 1267
point_id: 25
x: -0.280932784081
y: 1.74913883209
z: 0.307059496641
doppler_bin: 23
target_idx: 4
posX: -0.249420315027
posY: 1.81896615028
posZ: 0.365352839231
velX: 0.00844589620829
velY: -0.237576141953
velZ: 0.0259173773229
accX: 0.0
accY: 0.0
accZ: 0.0
---
header: 
  seq: 18264
  stamp: 
    secs: 1596613547
    nsecs: 305177379
  frame_id: "node1_radarinterface_radarscan"
range: 1.87614250183
angle: -0.158732071519
elev: 0.151743710041
doppler: -0.715527653694
snr: 242
noise: 363
frame_num: 1267
point_id: 26
x: -0.293147265911
y: 1.83126878738
z: 0.283601522446
doppler_bin: 23
target_idx: 4
posX: -0.249420315027
posY: 1.81896615028
posZ: 0.365352839231
velX: 0.00844589620829
velY: -0.237576141953
velZ: 0.0259173773229
accX: 0.0
accY: 0.0
accZ: 0.0
---
header: 
  seq: 18265
  stamp: 
    secs: 1596613547
    nsecs: 305196795
  frame_id: "node1_radarinterface_radarscan"
range: 1.87614250183
angle: -0.159561410546
elev: 0.182382300496
doppler: -0.636024594307
snr: 308
noise: 367
frame_num: 1267
point_id: 30
x: -0.293147265911
y: 1.82158827782
z: 0.340281367302
doppler_bin: 24
target_idx: 4
posX: -0.249420315027
posY: 1.81896615028
posZ: 0.365352839231
velX: 0.00844589620829
velY: -0.237576141953
velZ: 0.0259173773229
accX: 0.0
accY: 0.0
accZ: 0.0
---
header: 
  seq: 18266
  stamp: 
    secs: 1596613547
    nsecs: 305214068
  frame_id: "node1_radarinterface_radarscan"
range: 1.6416246891
angle: -0.16102617979
elev: 0.226112693548
doppler: -0.47701844573
snr: 247
noise: 359
frame_num: 1267
point_id: 35
x: -0.256503880024
y: 1.57914090157
z: 0.368037283421
doppler_bin: 26
target_idx: 4
posX: -0.249420315027
posY: 1.81896615028
posZ: 0.365352839231
velX: 0.00844589620829
velY: -0.237576141953
velZ: 0.0259173773229
accX: 0.0
accY: 0.0
accZ: 0.0
---
header: 
  seq: 18267
  stamp: 
    secs: 1596613547
    nsecs: 305239521
  frame_id: "node1_radarinterface_radarscan"
range: 1.71979725361
angle: -0.160569325089
elev: 0.213505849242
doppler: -0.47701844573
snr: 327
noise: 362
frame_num: 1267
point_id: 36
x: -0.268718332052
y: 1.65912723541
z: 0.364403426647
doppler_bin: 26
target_idx: 4
posX: -0.249420315027
posY: 1.81896615028
posZ: 0.365352839231
velX: 0.00844589620829
velY: -0.237576141953
velZ: 0.0259173773229
accX: 0.0
accY: 0.0
accZ: 0.0
---
header: 
  seq: 18268
  stamp: 
    secs: 1596613547
    nsecs: 305291725
  frame_id: "node1_radarinterface_radarscan"
range: 1.95431506634
angle: -0.188619211316
elev: -0.00544155109674
doppler: -0.159006148577
snr: 267
noise: 377
frame_num: 1267
point_id: 38
x: -0.366434067488
y: 1.91962504387
z: -0.0106344530359
doppler_bin: 30
target_idx: 4
posX: -0.249420315027
posY: 1.81896615028
posZ: 0.365352839231
velX: 0.00844589620829
velY: -0.237576141953
velZ: 0.0259173773229
accX: 0.0
accY: 0.0
accZ: 0.0
---
header: 
  seq: 18269
  stamp: 
    secs: 1596613547
    nsecs: 305309061
  frame_id: "node1_radarinterface_radarscan"
range: 2.18883275986
angle: -0.106066949666
elev: 0.483151555061
doppler: -0.159006148577
snr: 186
noise: 453
frame_num: 1267
point_id: 41
x: -0.205203071237
y: 1.9273955822
z: 1.0168710947
doppler_bin: 30
target_idx: 4
posX: -0.249420315027
posY: 1.81896615028
posZ: 0.365352839231
velX: 0.00844589620829
velY: -0.237576141953
velZ: 0.0259173773229
accX: 0.0
accY: 0.0
accZ: 0.0
---
header: 
  seq: 18270
  stamp: 
    secs: 1596613547
    nsecs: 305326525
  frame_id: "node1_radarinterface_radarscan"
range: 1.79796981812
angle: -0.126692935824
elev: 0.146542698145
doppler: -0.0795030742884
snr: 306
noise: 410
frame_num: 1267
point_id: 42
x: -0.224746212363
y: 1.76444280148
z: 0.262537330389
doppler_bin: 31
target_idx: 4
posX: -0.249420315027
posY: 1.81896615028
posZ: 0.365352839231
velX: 0.00844589620829
velY: -0.237576141953
velZ: 0.0259173773229
accX: 0.0
accY: 0.0
accZ: 0.0
---
header: 
  seq: 18271
  stamp: 
    secs: 1596613547
    nsecs: 305342244
  frame_id: "node1_radarinterface_radarscan"
range: 2.18883275986
angle: -0.106836020947
elev: 0.496648162603
doppler: -0.0795030742884
snr: 151
noise: 523
frame_num: 1267
point_id: 47
x: -0.205203086138
y: 1.91341602802
z: 1.042937994
doppler_bin: 31
target_idx: 4
posX: -0.249420315027
posY: 1.81896615028
posZ: 0.365352839231
velX: 0.00844589620829
velY: -0.237576141953
velZ: 0.0259173773229
accX: 0.0
accY: 0.0
accZ: 0.0
---
header: 
  seq: 18272
  stamp: 
    secs: 1596613547
    nsecs: 403040093
  frame_id: "node1_radarinterface_radarscan"
range: 2.03248763084
angle: -0.0707393214107
elev: 0.48588308692
doppler: 0.0
snr: 144
noise: 509
frame_num: 1268
point_id: 7
x: -0.127030476928
y: 1.79275846481
z: 0.949150204659
doppler_bin: 32
target_idx: 4
posX: -0.242173030972
posY: 1.82662463188
posZ: 0.368038624525
velX: 0.0295555889606
velY: -0.177883252501
velZ: 0.0398462787271
accX: 0.0
accY: 0.0
accZ: 0.0
---
header: 
  seq: 18273
  stamp: 
    secs: 1596613547
    nsecs: 403104565
  frame_id: "node1_radarinterface_radarscan"
range: 2.11066031456
angle: -0.0687467381358
elev: 0.427872538567
doppler: 0.0
snr: 162
noise: 507
frame_num: 1268
point_id: 8
x: -0.13191626966
y: 1.91584932804
z: 0.875789105892
doppler_bin: 32
target_idx: 4
posX: -0.242173030972
posY: 1.82662463188
posZ: 0.368038624525
velX: 0.0295555889606
velY: -0.177883252501
velZ: 0.0398462787271
accX: 0.0
accY: 0.0
accZ: 0.0
---
header: 
  seq: 18274
  stamp: 
    secs: 1596613547
    nsecs: 403127262
  frame_id: "node1_radarinterface_radarscan"
range: 2.18883275986
angle: -0.0670565888286
elev: 0.368836551905
doppler: 0.0
snr: 132
noise: 510
frame_num: 1268
point_id: 9
x: -0.13680203259
y: 2.03703975677
z: 0.789140939713
doppler_bin: 32
target_idx: 4
posX: -0.242173030972
posY: 1.82662463188
posZ: 0.368038624525
velX: 0.0295555889606
velY: -0.177883252501
velZ: 0.0398462787271
accX: 0.0
accY: 0.0
accZ: 0.0
---
header: 
  seq: 18275
  stamp: 
    secs: 1596613547
    nsecs: 403179268
  frame_id: "node1_radarinterface_radarscan"
range: 1.87614250183
angle: -0.125380963087
elev: 0.0290372204036
doppler: 0.0795030742884
snr: 134
noise: 504
frame_num: 1268
point_id: 20
x: -0.234517812729
y: 1.86063039303
z: 0.054470308125
doppler_bin: 33
target_idx: 4
posX: -0.242173030972
posY: 1.82662463188
posZ: 0.368038624525
velX: 0.0295555889606
velY: -0.177883252501
velZ: 0.0398462787271
accX: 0.0
accY: 0.0
accZ: 0.0
---
header: 
  seq: 18276
  stamp: 
    secs: 1596613547
    nsecs: 403203897
  frame_id: "node1_radarinterface_radarscan"
range: 1.71979725361
angle: -0.157666072249
elev: 0.0986666455865
doppler: -0.159006148577
snr: 280
noise: 367
frame_num: 1268
point_id: 50
x: -0.268718332052
y: 1.69020497799
z: 0.169411435723
doppler_bin: 30
target_idx: 4
posX: -0.242173030972
posY: 1.82662463188
posZ: 0.368038624525
velX: 0.0295555889606
velY: -0.177883252501
velZ: 0.0398462787271
accX: 0.0
accY: 0.0
accZ: 0.0
---
header: 
  seq: 18277
  stamp: 
    secs: 1596613547
    nsecs: 403246162
  frame_id: "node1_radarinterface_radarscan"
range: 1.79796981812
angle: -0.157310336828
elev: 0.0725684314966
doppler: -0.159006148577
snr: 334
noise: 371
frame_num: 1268
point_id: 51
x: -0.280932784081
y: 1.77109515667
z: 0.130361363292
doppler_bin: 30
target_idx: 4
posX: -0.242173030972
posY: 1.82662463188
posZ: 0.368038624525
velX: 0.0295555889606
velY: -0.177883252501
velZ: 0.0398462787271
accX: 0.0
accY: 0.0
accZ: 0.0
---
header: 
  seq: 18278
  stamp: 
    secs: 1596613547
    nsecs: 403262676
  frame_id: "node1_radarinterface_radarscan"
range: 1.87614250183
angle: -0.156985715032
elev: 0.0342514961958
doppler: -0.159006148577
snr: 322
noise: 375
frame_num: 1268
point_id: 52
x: -0.293147265911
y: 1.8519847393
z: 0.0642481222749
doppler_bin: 30
target_idx: 4
posX: -0.242173030972
posY: 1.82662463188
posZ: 0.368038624525
velX: 0.0295555889606
velY: -0.177883252501
velZ: 0.0398462787271
accX: 0.0
accY: 0.0
accZ: 0.0
---
header: 
  seq: 18279
  stamp: 
    secs: 1596613547
    nsecs: 403278895
  frame_id: "node1_radarinterface_radarscan"
range: 1.95431506634
angle: -0.125338956714
elev: -0.0132929729298
doppler: -0.159006148577
snr: 238
noise: 379
frame_num: 1268
point_id: 53
x: -0.244289383292
y: 1.93881285191
z: -0.0259778928012
doppler_bin: 30
target_idx: 4
posX: -0.242173030972
posY: 1.82662463188
posZ: 0.368038624525
velX: 0.0295555889606
velY: -0.177883252501
velZ: 0.0398462787271
accX: 0.0
accY: 0.0
accZ: 0.0
---
header: 
  seq: 18280
  stamp: 
    secs: 1596613547
    nsecs: 403297359
  frame_id: "node1_radarinterface_radarscan"
range: 2.03248763084
angle: -0.0697119757533
elev: 0.457243770361
doppler: -0.159006148577
snr: 266
noise: 394
frame_num: 1268
point_id: 54
x: -0.127030476928
y: 1.81926608086
z: 0.897295951843
doppler_bin: 30
target_idx: 4
posX: -0.242173030972
posY: 1.82662463188
posZ: 0.368038624525
velX: 0.0295555889606
velY: -0.177883252501
velZ: 0.0398462787271
accX: 0.0
accY: 0.0
accZ: 0.0
---
header: 
  seq: 18281
  stamp: 
    secs: 1596613547
    nsecs: 403339743
  frame_id: "node1_radarinterface_radarscan"
range: 2.26700544357
angle: -0.126904860139
elev: 0.157396882772
doppler: -0.159006148577
snr: 121
noise: 510
frame_num: 1268
point_id: 57
x: -0.283375680447
y: 2.22097706795
z: 0.355348110199
doppler_bin: 30
target_idx: 4
posX: -0.242173030972
posY: 1.82662463188
posZ: 0.368038624525
velX: 0.0295555889606
velY: -0.177883252501
velZ: 0.0398462787271
accX: 0.0
accY: 0.0
accZ: 0.0
---
header: 
  seq: 18282
  stamp: 
    secs: 1596613547
    nsecs: 403355812
  frame_id: "node1_radarinterface_radarscan"
range: 1.71979725361
angle: -0.157775953412
elev: 0.105413861573
doppler: -0.0795030742884
snr: 337
noise: 366
frame_num: 1268
point_id: 59
x: -0.268718332052
y: 1.68900811672
z: 0.180954903364
doppler_bin: 31
target_idx: 4
posX: -0.242173030972
posY: 1.82662463188
posZ: 0.368038624525
velX: 0.0295555889606
velY: -0.177883252501
velZ: 0.0398462787271
accX: 0.0
accY: 0.0
accZ: 0.0
---
header: 
  seq: 18283
  stamp: 
    secs: 1596613547
    nsecs: 403371702
  frame_id: "node1_radarinterface_radarscan"
range: 1.87614250183
angle: -0.15689560771
elev: 0.00587835581973
doppler: -0.0795030742884
snr: 353
noise: 393
frame_num: 1268
point_id: 61
x: -0.293147265911
y: 1.85306596756
z: 0.011028570123
doppler_bin: 31
target_idx: 4
posX: -0.242173030972
posY: 1.82662463188
posZ: 0.368038624525
velX: 0.0295555889606
velY: -0.177883252501
velZ: 0.0398462787271
accX: 0.0
accY: 0.0
accZ: 0.0
---
header: 
  seq: 18284
  stamp: 
    secs: 1596613547
    nsecs: 403387590
  frame_id: "node1_radarinterface_radarscan"
range: 2.11066031456
angle: -0.0683361887932
elev: 0.414523988962
doppler: -0.0795030742884
snr: 249
noise: 468
frame_num: 1268
point_id: 64
x: -0.13191626966
y: 1.92739546299
z: 0.850077450275
doppler_bin: 31
target_idx: 4
posX: -0.242173030972
posY: 1.82662463188
posZ: 0.368038624525
velX: 0.0295555889606
velY: -0.177883252501
velZ: 0.0398462787271
accX: 0.0
accY: 0.0
accZ: 0.0
---
header: 
  seq: 18285
  stamp: 
    secs: 1596613547
    nsecs: 403410740
  frame_id: "node1_radarinterface_radarscan"
range: 2.26700544357
angle: -0.12687844038
elev: 0.156086400151
doppler: -0.0795030742884
snr: 121
noise: 563
frame_num: 1268
point_id: 66
x: -0.283375680447
y: 2.22144460678
z: 0.352413654327
doppler_bin: 31
target_idx: 4
posX: -0.242173030972
posY: 1.82662463188
posZ: 0.368038624525
velX: 0.0295555889606
velY: -0.177883252501
velZ: 0.0398462787271
accX: 0.0
accY: 0.0
accZ: 0.0
---
header: 
  seq: 18286
  stamp: 
    secs: 1596613547
    nsecs: 503903330
  frame_id: "node1_radarinterface_radarscan"
range: 2.11066031456
angle: -0.0699625685811
elev: 0.464458912611
doppler: 0.0
snr: 180
noise: 525
frame_num: 1269
point_id: 7
x: -0.13191626966
y: 1.88244903088
z: 0.945447266102
doppler_bin: 32
target_idx: 4
posX: -0.213452532887
posY: 1.82132434845
posZ: 0.445658445358
velX: 0.119609847665
velY: -0.181337654591
velZ: 0.263230890036
accX: 0.0
accY: 0.0
accZ: 0.0
---
header: 
  seq: 18287
  stamp: 
    secs: 1596613547
    nsecs: 503988299
  frame_id: "node1_radarinterface_radarscan"
range: 2.18883275986
angle: -0.0693154335022
elev: 0.445494800806
doppler: 0.0
snr: 137
noise: 523
frame_num: 1269
point_id: 8
x: -0.136802047491
y: 1.970454216
z: 0.943177759647
doppler_bin: 32
target_idx: 4
posX: -0.213452532887
posY: 1.82132434845
posZ: 0.445658445358
velX: 0.119609847665
velY: -0.181337654591
velZ: 0.263230890036
accX: 0.0
accY: 0.0
accZ: 0.0
---
header: 
  seq: 18288
  stamp: 
    secs: 1596613547
    nsecs: 504009927
  frame_id: "node1_radarinterface_radarscan"
range: 1.79796981812
angle: -0.126468211412
elev: 0.134037971497
doppler: 0.0795030742884
snr: 250
noise: 437
frame_num: 1269
point_id: 14
x: -0.224746227264
y: 1.76761209965
z: 0.240275248885
doppler_bin: 33
target_idx: 4
posX: -0.213452532887
posY: 1.82132434845
posZ: 0.445658445358
velX: 0.119609847665
velY: -0.181337654591
velZ: 0.263230890036
accX: 0.0
accY: 0.0
accZ: 0.0
---
header: 
  seq: 18289
  stamp: 
    secs: 1596613547
    nsecs: 504059740
  frame_id: "node1_radarinterface_radarscan"
range: 2.5015232563
angle: -0.0660182908177
elev: 0.325798749924
doppler: 0.238509222865
snr: 114
noise: 493
frame_num: 1269
point_id: 24
x: -0.156345203519
y: 2.36476874352
z: 0.800651609898
doppler_bin: 35
target_idx: 4
posX: -0.213452532887
posY: 1.82132434845
posZ: 0.445658445358
velX: 0.119609847665
velY: -0.181337654591
velZ: 0.263230890036
accX: 0.0
accY: 0.0
accZ: 0.0
---
header: 
  seq: 18290
  stamp: 
    secs: 1596613547
    nsecs: 504078643
  frame_id: "node1_radarinterface_radarscan"
range: 2.57969594002
angle: -0.0657380074263
elev: 0.312951952219
doppler: 0.238509222865
snr: 130
noise: 476
frame_num: 1269
point_id: 25
x: -0.161230996251
y: 2.44909572601
z: 0.794207215309
doppler_bin: 35
target_idx: 4
posX: -0.213452532887
posY: 1.82132434845
posZ: 0.445658445358
velX: 0.119609847665
velY: -0.181337654591
velZ: 0.263230890036
accX: 0.0
accY: 0.0
accZ: 0.0
---
header: 
  seq: 18291
  stamp: 
    secs: 1596613547
    nsecs: 504096293
  frame_id: "node1_radarinterface_radarscan"
range: 1.87614250183
angle: -0.098594352603
elev: 0.309755504131
doppler: -0.238509222865
snr: 363
noise: 354
frame_num: 1269
point_id: 35
x: -0.175888359547
y: 1.77817547321
z: 0.571896612644
doppler_bin: 29
target_idx: 4
posX: -0.213452532887
posY: 1.82132434845
posZ: 0.445658445358
velX: 0.119609847665
velY: -0.181337654591
velZ: 0.263230890036
accX: 0.0
accY: 0.0
accZ: 0.0
---
header: 
  seq: 18292
  stamp: 
    secs: 1596613547
    nsecs: 504172003
  frame_id: "node1_radarinterface_radarscan"
range: 1.95431506634
angle: -0.0986738428473
elev: 0.312254697084
doppler: -0.238509222865
snr: 382
noise: 357
frame_num: 1269
point_id: 36
x: -0.183217033744
y: 1.8507642746
z: 0.600375533104
doppler_bin: 29
target_idx: 4
posX: -0.213452532887
posY: 1.82132434845
posZ: 0.445658445358
velX: 0.119609847665
velY: -0.181337654591
velZ: 0.263230890036
accX: 0.0
accY: 0.0
accZ: 0.0
---
header: 
  seq: 18293
  stamp: 
    secs: 1596613547
    nsecs: 504195535
  frame_id: "node1_radarinterface_radarscan"
range: 1.71979725361
angle: -0.0950971543789
elev: 0.159408271313
doppler: -0.159006148577
snr: 227
noise: 369
frame_num: 1269
point_id: 38
x: -0.161230996251
y: 1.69032049179
z: 0.272990316153
doppler_bin: 30
target_idx: 4
posX: -0.213452532887
posY: 1.82132434845
posZ: 0.445658445358
velX: 0.119609847665
velY: -0.181337654591
velZ: 0.263230890036
accX: 0.0
accY: 0.0
accZ: 0.0
---
header: 
  seq: 18294
  stamp: 
    secs: 1596613547
    nsecs: 504237651
  frame_id: "node1_radarinterface_radarscan"
range: 2.03248763084
angle: -0.0688900575042
elev: 0.432404607534
doppler: -0.159006148577
snr: 311
noise: 393
frame_num: 1269
point_id: 41
x: -0.127030476928
y: 1.84104168415
z: 0.851724743843
doppler_bin: 30
target_idx: 4
posX: -0.213452532887
posY: 1.82132434845
posZ: 0.445658445358
velX: 0.119609847665
velY: -0.181337654591
velZ: 0.263230890036
accX: 0.0
accY: 0.0
accZ: 0.0
---
header: 
  seq: 18295
  stamp: 
    secs: 1596613547
    nsecs: 504251873
  frame_id: "node1_radarinterface_radarscan"
range: 2.11066031456
angle: -0.0694007724524
elev: 0.448059052229
doppler: -0.159006148577
snr: 296
noise: 420
frame_num: 1269
point_id: 42
x: -0.13191626966
y: 1.89773690701
z: 0.914373934269
doppler_bin: 30
target_idx: 4
posX: -0.213452532887
posY: 1.82132434845
posZ: 0.445658445358
velX: 0.119609847665
velY: -0.181337654591
velZ: 0.263230890036
accX: 0.0
accY: 0.0
accZ: 0.0
---
header: 
  seq: 18296
  stamp: 
    secs: 1596613547
    nsecs: 504272564
  frame_id: "node1_radarinterface_radarscan"
range: 1.95431506634
angle: -0.188664034009
elev: 0.0223427675664
doppler: -0.0795030742884
snr: 255
noise: 434
frame_num: 1269
point_id: 47
x: -0.366434067488
y: 1.91915786266
z: 0.0436611734331
doppler_bin: 31
target_idx: 4
posX: -0.213452532887
posY: 1.82132434845
posZ: 0.445658445358
velX: 0.119609847665
velY: -0.181337654591
velZ: 0.263230890036
accX: 0.0
accY: 0.0
accZ: 0.0
---
header: 
  seq: 18297
  stamp: 
    secs: 1596613547
    nsecs: 504324405
  frame_id: "node1_radarinterface_radarscan"
range: 2.18883275986
angle: -0.0690476745367
elev: 0.437316715717
doppler: -0.0795030742884
snr: 175
noise: 527
frame_num: 1269
point_id: 50
x: -0.136802047491
y: 1.97811973095
z: 0.926993072033
doppler_bin: 31
target_idx: 4
posX: -0.213452532887
posY: 1.82132434845
posZ: 0.445658445358
velX: 0.119609847665
velY: -0.181337654591
velZ: 0.263230890036
accX: 0.0
accY: 0.0
accZ: 0.0
---
header: 
  seq: 18298
  stamp: 
    secs: 1596613547
    nsecs: 601880046
  frame_id: "node1_radarinterface_radarscan"
range: 1.95431506634
angle: -0.167529910803
elev: 0.356722444296
doppler: 0.55652153492
snr: 272
noise: 371
frame_num: 1270
point_id: 20
x: -0.305361747742
y: 1.80564534664
z: 0.682456374168
doppler_bin: 39
target_idx: 4
posX: -0.218053489923
posY: 1.83038854599
posZ: 0.441751778126
velX: 0.0764209032059
velY: -0.0665150284767
velZ: 0.236932352185
accX: 0.0
accY: 0.0
accZ: 0.0
---
header: 
  seq: 18299
  stamp: 
    secs: 1596613547
    nsecs: 601945661
  frame_id: "node1_radarinterface_radarscan"
range: 2.03248763084
angle: -0.166815236211
elev: 0.345154047012
doppler: 0.55652153492
snr: 254
noise: 370
frame_num: 1270
point_id: 21
x: -0.31757619977
y: 1.88606846333
z: 0.687675178051
doppler_bin: 39
target_idx: 4
posX: -0.218053489923
posY: 1.83038854599
posZ: 0.441751778126
velX: 0.0764209032059
velY: -0.0665150284767
velZ: 0.236932352185
accX: 0.0
accY: 0.0
accZ: 0.0
---
header: 
  seq: 18300
  stamp: 
    secs: 1596613547
    nsecs: 601958591
  frame_id: "node1_radarinterface_radarscan"
range: 1.95431506634
angle: -0.167142629623
elev: 0.350511461496
doppler: 0.636024594307
snr: 248
noise: 384
frame_num: 1270
point_id: 23
x: -0.305361717939
y: 1.80990815163
z: 0.671069204807
doppler_bin: 40
target_idx: 4
posX: -0.218053489923
posY: 1.83038854599
posZ: 0.441751778126
velX: 0.0764209032059
velY: -0.0665150284767
velZ: 0.236932352185
accX: 0.0
accY: 0.0
accZ: 0.0
---
header: 
  seq: 18301
  stamp: 
    secs: 1596613547
    nsecs: 601974561
  frame_id: "node1_radarinterface_radarscan"
range: 2.03248763084
angle: -0.133068040013
elev: 0.341817319393
doppler: 0.636024594307
snr: 229
noise: 382
frame_num: 1270
point_id: 24
x: -0.254060953856
y: 1.89797353745
z: 0.681289494038
doppler_bin: 40
target_idx: 4
posX: -0.218053489923
posY: 1.83038854599
posZ: 0.441751778126
velX: 0.0764209032059
velY: -0.0665150284767
velZ: 0.236932352185
accX: 0.0
accY: 0.0
accZ: 0.0
---
header: 
  seq: 18302
  stamp: 
    secs: 1596613547
    nsecs: 601989436
  frame_id: "node1_radarinterface_radarscan"
range: 2.34517812729
angle: 0.189406841993
elev: 0.0908454880118
doppler: 2.30558919907
snr: 138
noise: 389
frame_num: 1270
point_id: 26
x: 0.439720928669
y: 2.29373955727
z: 0.212755933404
doppler_bin: 61
target_idx: 4
posX: -0.218053489923
posY: 1.83038854599
posZ: 0.441751778126
velX: 0.0764209032059
velY: -0.0665150284767
velZ: 0.236932352185
accX: 0.0
accY: 0.0
accZ: 0.0
---
header: 
  seq: 18303
  stamp: 
    secs: 1596613547
    nsecs: 602006543
  frame_id: "node1_radarinterface_radarscan"
range: 1.71979725361
angle: -0.157632425427
elev: 0.0965048000216
doppler: -0.159006148577
snr: 270
noise: 367
frame_num: 1270
point_id: 30
x: -0.268718332052
y: 1.69057178497
z: 0.165711194277
doppler_bin: 30
target_idx: 4
posX: -0.218053489923
posY: 1.83038854599
posZ: 0.441751778126
velX: 0.0764209032059
velY: -0.0665150284767
velZ: 0.236932352185
accX: 0.0
accY: 0.0
accZ: 0.0
---
header: 
  seq: 18304
  stamp: 
    secs: 1596613547
    nsecs: 602089476
  frame_id: "node1_radarinterface_radarscan"
range: 1.87614250183
angle: -0.157852038741
elev: 0.109839431942
doppler: -0.0795030742884
snr: 328
noise: 422
frame_num: 1270
point_id: 35
x: -0.293147265911
y: 1.84165120125
z: 0.205660298467
doppler_bin: 31
target_idx: 4
posX: -0.218053489923
posY: 1.83038854599
posZ: 0.441751778126
velX: 0.0764209032059
velY: -0.0665150284767
velZ: 0.236932352185
accX: 0.0
accY: 0.0
accZ: 0.0
---
header: 
  seq: 18305
  stamp: 
    secs: 1596613547
    nsecs: 602118741
  frame_id: "node1_radarinterface_radarscan"
range: 1.95431506634
angle: -0.126237392426
elev: 0.11979854852
doppler: -0.0795030742884
snr: 254
noise: 438
frame_num: 1270
point_id: 36
x: -0.244289383292
y: 1.92486822605
z: 0.23356449604
doppler_bin: 31
target_idx: 4
posX: -0.218053489923
posY: 1.83038854599
posZ: 0.441751778126
velX: 0.0764209032059
velY: -0.0665150284767
velZ: 0.236932352185
accX: 0.0
accY: 0.0
accZ: 0.0
---
header: 
  seq: 18306
  stamp: 
    secs: 1596613547
    nsecs: 704070780
  frame_id: "node1_radarinterface_radarscan"
range: 2.11066031456
angle: -0.108614891768
elev: 0.525963187218
doppler: 0.159006148577
snr: 122
noise: 492
frame_num: 1271
point_id: 17
x: -0.197874411941
y: 1.81462848186
z: 1.05964910984
doppler_bin: 34
target_idx: 4
posX: -0.219755470753
posY: 1.8278131485
posZ: 0.581271052361
velX: 0.0560779087245
velY: -0.12035214901
velZ: 0.585833191872
accX: 0.0
accY: 0.0
accZ: 0.0
---
header: 
  seq: 18307
  stamp: 
    secs: 1596613547
    nsecs: 704154364
  frame_id: "node1_radarinterface_radarscan"
range: 1.6416246891
angle: -0.0840781480074
elev: 0.731411159039
doppler: 2.46459531784
snr: 179
noise: 360
frame_num: 1271
point_id: 21
x: -0.102601543069
y: 1.21743476391
z: 1.09647488594
doppler_bin: 63
target_idx: 4
posX: -0.219755470753
posY: 1.8278131485
posZ: 0.581271052361
velX: 0.0560779087245
velY: -0.12035214901
velZ: 0.585833191872
accX: 0.0
accY: 0.0
accZ: 0.0
---
header: 
  seq: 18308
  stamp: 
    secs: 1596613547
    nsecs: 704170340
  frame_id: "node1_radarinterface_radarscan"
range: 2.57969594002
angle: -0.0337374210358
elev: 0.385934889317
doppler: -1.90807378292
snr: 187
noise: 405
frame_num: 1271
point_id: 30
x: -0.0806155055761
y: 2.38859152794
z: 0.971063137054
doppler_bin: 8
target_idx: 4
posX: -0.219755470753
posY: 1.8278131485
posZ: 0.581271052361
velX: 0.0560779087245
velY: -0.12035214901
velZ: 0.585833191872
accX: 0.0
accY: 0.0
accZ: 0.0
---
header: 
  seq: 18309
  stamp: 
    secs: 1596613547
    nsecs: 704191122
  frame_id: "node1_radarinterface_radarscan"
range: 2.89238619804
angle: -0.0656686648726
elev: 0.309677004814
doppler: -1.11304306984
snr: 171
noise: 385
frame_num: 1271
point_id: 35
x: -0.180774122477
y: 2.74886345863
z: 0.88145762682
doppler_bin: 18
target_idx: 4
posX: -0.219755470753
posY: 1.8278131485
posZ: 0.581271052361
velX: 0.0560779087245
velY: -0.12035214901
velZ: 0.585833191872
accX: 0.0
accY: 0.0
accZ: 0.0
---
header: 
  seq: 18310
  stamp: 
    secs: 1596613547
    nsecs: 704210103
  frame_id: "node1_radarinterface_radarscan"
range: 1.79796981812
angle: -0.158672168851
elev: 0.149276033044
doppler: -0.0795030742884
snr: 262
noise: 418
frame_num: 1271
point_id: 48
x: -0.280932784081
y: 1.75563967228
z: 0.267398118973
doppler_bin: 31
target_idx: 4
posX: -0.219755470753
posY: 1.8278131485
posZ: 0.581271052361
velX: 0.0560779087245
velY: -0.12035214901
velZ: 0.585833191872
accX: 0.0
accY: 0.0
accZ: 0.0
---
header: 
  seq: 18311
  stamp: 
    secs: 1596613547
    nsecs: 704233177
  frame_id: "node1_radarinterface_radarscan"
range: 1.87614250183
angle: -0.161129072309
elev: 0.228848189116
doppler: -0.0795030742884
snr: 263
noise: 433
frame_num: 1271
point_id: 49
x: -0.293147265911
y: 1.80355978012
z: 0.425613969564
doppler_bin: 31
target_idx: 4
posX: -0.219755470753
posY: 1.8278131485
posZ: 0.581271052361
velX: 0.0560779087245
velY: -0.12035214901
velZ: 0.585833191872
accX: 0.0
accY: 0.0
accZ: 0.0
---
header: 
  seq: 18312
  stamp: 
    secs: 1596613547
    nsecs: 802617566
  frame_id: "node1_radarinterface_radarscan"
range: 2.11066031456
angle: -0.0691021829844
elev: 0.43899834156
doppler: 0.0
snr: 158
noise: 497
frame_num: 1272
point_id: 7
x: -0.131916254759
y: 1.90596330166
z: 0.897100269794
doppler_bin: 32
target_idx: 4
posX: -0.218831807375
posY: 1.79398334026
posZ: 0.674034774303
velX: 0.0422451384366
velY: -0.20566624403
velZ: 0.750541687012
accX: 0.0
accY: 0.0
accZ: 0.0
---
header: 
  seq: 18313
  stamp: 
    secs: 1596613547
    nsecs: 802687417
  frame_id: "node1_radarinterface_radarscan"
range: 2.18883275986
angle: -0.0692596286535
elev: 0.443807154894
doppler: 0.0
snr: 114
noise: 496
frame_num: 1272
point_id: 8
x: -0.136802047491
y: 1.97204697132
z: 0.939842998981
doppler_bin: 32
target_idx: 4
posX: -0.218831807375
posY: 1.79398334026
posZ: 0.674034774303
velX: 0.0422451384366
velY: -0.20566624403
velZ: 0.750541687012
accX: 0.0
accY: 0.0
accZ: 0.0
---
header: 
  seq: 18314
  stamp: 
    secs: 1596613547
    nsecs: 802705947
  frame_id: "node1_radarinterface_radarscan"
range: 1.56345200539
angle: -0.108549878001
elev: 0.524934649467
doppler: 0.0795030742884
snr: 144
noise: 371
frame_num: 1272
point_id: 14
x: -0.146573618054
y: 1.3449805975
z: 0.783534049988
doppler_bin: 33
target_idx: 4
posX: -0.218831807375
posY: 1.79398334026
posZ: 0.674034774303
velX: 0.0422451384366
velY: -0.20566624403
velZ: 0.750541687012
accX: 0.0
accY: 0.0
accZ: 0.0
---
header: 
  seq: 18315
  stamp: 
    secs: 1596613547
    nsecs: 802724534
  frame_id: "node1_radarinterface_radarscan"
range: 1.71979725361
angle: -0.137311339378
elev: 0.419710576534
doppler: 0.0795030742884
snr: 172
noise: 431
frame_num: 1272
point_id: 17
x: -0.214974656701
y: 1.55574834347
z: 0.700810790062
doppler_bin: 33
target_idx: 4
posX: -0.218831807375
posY: 1.79398334026
posZ: 0.674034774303
velX: 0.0422451384366
velY: -0.20566624403
velZ: 0.750541687012
accX: 0.0
accY: 0.0
accZ: 0.0
---
header: 
  seq: 18316
  stamp: 
    secs: 1596613547
    nsecs: 802742517
  frame_id: "node1_radarinterface_radarscan"
range: 2.03248763084
angle: -0.105519630015
elev: 0.473207235336
doppler: 0.0795030742884
snr: 190
noise: 518
frame_num: 1272
point_id: 20
x: -0.190545722842
y: 1.79907751083
z: 0.926292836666
doppler_bin: 33
target_idx: 4
posX: -0.218831807375
posY: 1.79398334026
posZ: 0.674034774303
velX: 0.0422451384366
velY: -0.20566624403
velZ: 0.750541687012
accX: 0.0
accY: 0.0
accZ: 0.0
---
header: 
  seq: 18317
  stamp: 
    secs: 1596613547
    nsecs: 802790768
  frame_id: "node1_radarinterface_radarscan"
range: 2.11066031456
angle: -0.0706639513373
elev: 0.483862936497
doppler: 0.0795030742884
snr: 170
noise: 546
frame_num: 1272
point_id: 21
x: -0.13191626966
y: 1.86370325089
z: 0.981883645058
doppler_bin: 33
target_idx: 4
posX: -0.218831807375
posY: 1.79398334026
posZ: 0.674034774303
velX: 0.0422451384366
velY: -0.20566624403
velZ: 0.750541687012
accX: 0.0
accY: 0.0
accZ: 0.0
---
header: 
  seq: 18318
  stamp: 
    secs: 1596613547
    nsecs: 802810093
  frame_id: "node1_radarinterface_radarscan"
range: 1.6416246891
angle: -0.154349163175
elev: 0.621378481388
doppler: 0.159006148577
snr: 147
noise: 391
frame_num: 1272
point_id: 26
x: -0.205203101039
y: 1.31889891624
z: 0.955682516098
doppler_bin: 34
target_idx: 4
posX: -0.218831807375
posY: 1.79398334026
posZ: 0.674034774303
velX: 0.0422451384366
velY: -0.20566624403
velZ: 0.750541687012
accX: 0.0
accY: 0.0
accZ: 0.0
---
header: 
  seq: 18319
  stamp: 
    secs: 1596613547
    nsecs: 802822355
  frame_id: "node1_radarinterface_radarscan"
range: 2.11066031456
angle: -0.0708364248276
elev: 0.488468170166
doppler: 0.159006148577
snr: 168
noise: 495
frame_num: 1272
point_id: 30
x: -0.13191626966
y: 1.85915017128
z: 0.990477502346
doppler_bin: 34
target_idx: 4
posX: -0.218831807375
posY: 1.79398334026
posZ: 0.674034774303
velX: 0.0422451384366
velY: -0.20566624403
velZ: 0.750541687012
accX: 0.0
accY: 0.0
accZ: 0.0
---
header: 
  seq: 18320
  stamp: 
    secs: 1596613547
    nsecs: 802839539
  frame_id: "node1_radarinterface_radarscan"
range: 1.79796981812
angle: -0.159348666668
elev: 0.175059586763
doppler: -0.159006148577
snr: 216
noise: 366
frame_num: 1272
point_id: 35
x: -0.280932784081
y: 1.74805927277
z: 0.313146680593
doppler_bin: 30
target_idx: 4
posX: -0.218831807375
posY: 1.79398334026
posZ: 0.674034774303
velX: 0.0422451384366
velY: -0.20566624403
velZ: 0.750541687012
accX: 0.0
accY: 0.0
accZ: 0.0
---
header: 
  seq: 18321
  stamp: 
    secs: 1596613547
    nsecs: 802857466
  frame_id: "node1_radarinterface_radarscan"
range: 1.87614250183
angle: -0.128081277013
elev: 0.207173347473
doppler: -0.159006148577
snr: 239
noise: 371
frame_num: 1272
point_id: 36
x: -0.234517812729
y: 1.82098436356
z: 0.385912239552
doppler_bin: 30
target_idx: 4
posX: -0.218831807375
posY: 1.79398334026
posZ: 0.674034774303
velX: 0.0422451384366
velY: -0.20566624403
velZ: 0.750541687012
accX: 0.0
accY: 0.0
accZ: 0.0
---
header: 
  seq: 18322
  stamp: 
    secs: 1596613547
    nsecs: 802875835
  frame_id: "node1_radarinterface_radarscan"
range: 1.87614250183
angle: -0.15989163518
elev: 0.193169951439
doppler: -0.0795030742884
snr: 258
noise: 416
frame_num: 1272
point_id: 40
x: -0.293147265911
y: 1.81776154041
z: 0.360164672136
doppler_bin: 31
target_idx: 4
posX: -0.218831807375
posY: 1.79398334026
posZ: 0.674034774303
velX: 0.0422451384366
velY: -0.20566624403
velZ: 0.750541687012
accX: 0.0
accY: 0.0
accZ: 0.0
---
header: 
  seq: 18323
  stamp: 
    secs: 1596613547
    nsecs: 802893175
  frame_id: "node1_radarinterface_radarscan"
range: 2.11066031456
angle: -0.109464742243
elev: 0.539135336876
doppler: -0.0795030742884
snr: 159
noise: 462
frame_num: 1272
point_id: 43
x: -0.197874397039
y: 1.80042827129
z: 1.08360075951
doppler_bin: 31
target_idx: 4
posX: -0.218831807375
posY: 1.79398334026
posZ: 0.674034774303
velX: 0.0422451384366
velY: -0.20566624403
velZ: 0.750541687012
accX: 0.0
accY: 0.0
accZ: 0.0
---
header: 
  seq: 18324
  stamp: 
    secs: 1596613547
    nsecs: 904596776
  frame_id: "node1_radarinterface_radarscan"
range: 1.71979725361
angle: -0.160790815949
elev: 0.219715923071
doppler: 0.0
snr: 201
noise: 410
frame_num: 1273
point_id: 1
x: -0.26871830225
y: 1.6568018198
z: 0.374833911657
doppler_bin: 32
target_idx: 4
posX: -0.235209330916
posY: 1.77866518497
posZ: 0.685524404049
velX: -0.0227223858237
velY: -0.217304348946
velZ: 0.641817331314
accX: 0.0
accY: 0.0
accZ: 0.0
---
header: 
  seq: 18325
  stamp: 
    secs: 1596613547
    nsecs: 904691306
  frame_id: "node1_radarinterface_radarscan"
range: 2.18883275986
angle: -0.108366601169
elev: 0.522018373013
doppler: 0.0
snr: 146
noise: 483
frame_num: 1273
point_id: 7
x: -0.205203086138
y: 1.88618254662
z: 1.09141921997
doppler_bin: 32
target_idx: 4
posX: -0.235209330916
posY: 1.77866518497
posZ: 0.685524404049
velX: -0.0227223858237
velY: -0.217304348946
velZ: 0.641817331314
accX: 0.0
accY: 0.0
accZ: 0.0
---
header: 
  seq: 18326
  stamp: 
    secs: 1596613547
    nsecs: 904721288
  frame_id: "node1_radarinterface_radarscan"
range: 1.79796981812
angle: -0.160408109426
elev: 0.208860725164
doppler: 0.0795030742884
snr: 300
noise: 446
frame_num: 1273
point_id: 14
x: -0.280932754278
y: 1.73631548882
z: 0.372800976038
doppler_bin: 33
target_idx: 4
posX: -0.235209330916
posY: 1.77866518497
posZ: 0.685524404049
velX: -0.0227223858237
velY: -0.217304348946
velZ: 0.641817331314
accX: 0.0
accY: 0.0
accZ: 0.0
---
header: 
  seq: 18327
  stamp: 
    secs: 1596613547
    nsecs: 904749404
  frame_id: "node1_radarinterface_radarscan"
range: 1.87614250183
angle: -0.160764038563
elev: 0.21897508204
doppler: 0.0795030742884
snr: 273
noise: 471
frame_num: 1273
point_id: 15
x: -0.293147295713
y: 1.80772674084
z: 0.407553106546
doppler_bin: 33
target_idx: 4
posX: -0.235209330916
posY: 1.77866518497
posZ: 0.685524404049
velX: -0.0227223858237
velY: -0.217304348946
velZ: 0.641817331314
accX: 0.0
accY: 0.0
accZ: 0.0
---
header: 
  seq: 18328
  stamp: 
    secs: 1596613547
    nsecs: 904831093
  frame_id: "node1_radarinterface_radarscan"
range: 1.87614250183
angle: -0.162140399218
elev: 0.254034548998
doppler: 0.159006148577
snr: 254
noise: 424
frame_num: 1273
point_id: 20
x: -0.293147265911
y: 1.79211258888
z: 0.471495360136
doppler_bin: 34
target_idx: 4
posX: -0.235209330916
posY: 1.77866518497
posZ: 0.685524404049
velX: -0.0227223858237
velY: -0.217304348946
velZ: 0.641817331314
accX: 0.0
accY: 0.0
accZ: 0.0
---
header: 
  seq: 18329
  stamp: 
    secs: 1596613547
    nsecs: 904853157
  frame_id: "node1_radarinterface_radarscan"
range: 1.95431506634
angle: -0.16303011775
elev: 0.274094760418
doppler: 0.159006148577
snr: 174
noise: 444
frame_num: 1273
point_id: 21
x: -0.305361717939
y: 1.85641491413
z: 0.528985381126
doppler_bin: 34
target_idx: 4
posX: -0.235209330916
posY: 1.77866518497
posZ: 0.685524404049
velX: -0.0227223858237
velY: -0.217304348946
velZ: 0.641817331314
accX: 0.0
accY: 0.0
accZ: 0.0
---
header: 
  seq: 18330
  stamp: 
    secs: 1596613547
    nsecs: 904919561
  frame_id: "node1_radarinterface_radarscan"
range: 1.6416246891
angle: -0.147170722485
elev: 0.550185441971
doppler: -0.238509222865
snr: 183
noise: 370
frame_num: 1273
point_id: 23
x: -0.205203086138
y: 1.38423883915
z: 0.858315765858
doppler_bin: 29
target_idx: 4
posX: -0.235209330916
posY: 1.77866518497
posZ: 0.685524404049
velX: -0.0227223858237
velY: -0.217304348946
velZ: 0.641817331314
accX: 0.0
accY: 0.0
accZ: 0.0
---
header: 
  seq: 18331
  stamp: 
    secs: 1596613547
    nsecs: 904940569
  frame_id: "node1_radarinterface_radarscan"
range: 1.95431506634
angle: -0.169397324324
elev: 0.384958833456
doppler: -0.159006148577
snr: 221
noise: 394
frame_num: 1273
point_id: 24
x: -0.305361747742
y: 1.78536057472
z: 0.733886301517
doppler_bin: 30
target_idx: 4
posX: -0.235209330916
posY: 1.77866518497
posZ: 0.685524404049
velX: -0.0227223858237
velY: -0.217304348946
velZ: 0.641817331314
accX: 0.0
accY: 0.0
accZ: 0.0
---
header: 
  seq: 18332
  stamp: 
    secs: 1596613547
    nsecs: 904959123
  frame_id: "node1_radarinterface_radarscan"
range: 2.11066031456
angle: -0.106479384005
elev: 0.490456134081
doppler: -0.159006148577
snr: 236
noise: 412
frame_num: 1273
point_id: 25
x: -0.197874411941
y: 1.85130691528
z: 0.994180738926
doppler_bin: 30
target_idx: 4
posX: -0.235209330916
posY: 1.77866518497
posZ: 0.685524404049
velX: -0.0227223858237
velY: -0.217304348946
velZ: 0.641817331314
accX: 0.0
accY: 0.0
accZ: 0.0
---
header: 
  seq: 18333
  stamp: 
    secs: 1596613547
    nsecs: 904976698
  frame_id: "node1_radarinterface_radarscan"
range: 2.18883275986
angle: -0.105408780277
elev: 0.471156954765
doppler: -0.159006148577
snr: 174
noise: 440
frame_num: 1273
point_id: 26
x: -0.205203056335
y: 1.93952047825
z: 0.993549466133
doppler_bin: 30
target_idx: 4
posX: -0.235209330916
posY: 1.77866518497
posZ: 0.685524404049
velX: -0.0227223858237
velY: -0.217304348946
velZ: 0.641817331314
accX: 0.0
accY: 0.0
accZ: 0.0
---
header: 
  seq: 18334
  stamp: 
    secs: 1596613547
    nsecs: 904997532
  frame_id: "node1_radarinterface_radarscan"
range: 1.87614250183
angle: -0.156904384494
elev: 0.0120616657659
doppler: -0.0795030742884
snr: 230
noise: 428
frame_num: 1273
point_id: 30
x: -0.293147265911
y: 1.85296070576
z: 0.0226288549602
doppler_bin: 31
target_idx: 4
posX: -0.235209330916
posY: 1.77866518497
posZ: 0.685524404049
velX: -0.0227223858237
velY: -0.217304348946
velZ: 0.641817331314
accX: 0.0
accY: 0.0
accZ: 0.0
---
header: 
  seq: 18335
  stamp: 
    secs: 1596613548
    nsecs:   4435196
  frame_id: "node1_radarinterface_radarscan"
range: 2.11066031456
angle: -0.108717247844
elev: 0.527576446533
doppler: 0.0
snr: 149
noise: 486
frame_num: 1274
point_id: 7
x: -0.197874397039
y: 1.81290650368
z: 1.06259250641
doppler_bin: 32
target_idx: 4
posX: -0.229180648923
posY: 1.72208237648
posZ: 0.724655926228
velX: 0.000843595713377
velY: -0.381224572659
velZ: 0.595879554749
accX: 0.0
accY: 0.0
accZ: 0.0
---
header: 
  seq: 18336
  stamp: 
    secs: 1596613548
    nsecs:   4529024
  frame_id: "node1_radarinterface_radarscan"
range: 2.18883275986
angle: -0.107141204178
elev: 0.501858949661
doppler: 0.0
snr: 123
noise: 482
frame_num: 1274
point_id: 8
x: -0.205203071237
y: 1.90792405605
z: 1.05295133591
doppler_bin: 32
target_idx: 4
posX: -0.229180648923
posY: 1.72208237648
posZ: 0.724655926228
velX: 0.000843595713377
velY: -0.381224572659
velZ: 0.595879554749
accX: 0.0
accY: 0.0
accZ: 0.0
---
header: 
  seq: 18337
  stamp: 
    secs: 1596613548
    nsecs:   4551853
  frame_id: "node1_radarinterface_radarscan"
range: 1.71979725361
angle: -0.125327825546
elev: -7.09558444214e-05
doppler: 0.0795030742884
snr: 181
noise: 425
frame_num: 1274
point_id: 14
x: -0.2149746418
y: 1.70630848408
z: -0.000122029669001
doppler_bin: 33
target_idx: 4
posX: -0.229180648923
posY: 1.72208237648
posZ: 0.724655926228
velX: 0.000843595713377
velY: -0.381224572659
velZ: 0.595879554749
accX: 0.0
accY: 0.0
accZ: 0.0
---
header: 
  seq: 18338
  stamp: 
    secs: 1596613548
    nsecs:   4571109
  frame_id: "node1_radarinterface_radarscan"
range: 1.79796981812
angle: -0.126291275024
elev: 0.123273916543
doppler: 0.0795030742884
snr: 243
noise: 453
frame_num: 1274
point_id: 15
x: -0.224746227264
y: 1.7701151371
z: 0.221081838012
doppler_bin: 33
target_idx: 4
posX: -0.229180648923
posY: 1.72208237648
posZ: 0.724655926228
velX: 0.000843595713377
velY: -0.381224572659
velZ: 0.595879554749
accX: 0.0
accY: 0.0
accZ: 0.0
---
header: 
  seq: 18339
  stamp: 
    secs: 1596613548
    nsecs:   4589354
  frame_id: "node1_radarinterface_radarscan"
range: 1.95431506634
angle: -0.129068553448
elev: 0.240698188543
doppler: 0.0795030742884
snr: 206
noise: 489
frame_num: 1274
point_id: 17
x: -0.244289398193
y: 1.88218867779
z: 0.465871095657
doppler_bin: 33
target_idx: 4
posX: -0.229180648923
posY: 1.72208237648
posZ: 0.724655926228
velX: 0.000843595713377
velY: -0.381224572659
velZ: 0.595879554749
accX: 0.0
accY: 0.0
accZ: 0.0
---
header: 
  seq: 18340
  stamp: 
    secs: 1596613548
    nsecs:   4607735
  frame_id: "node1_radarinterface_radarscan"
range: 1.71979725361
angle: -0.15905354917
elev: 0.164332345128
doppler: 0.159006148577
snr: 159
noise: 397
frame_num: 1274
point_id: 24
x: -0.268718332052
y: 1.67521238327
z: 0.281348019838
doppler_bin: 34
target_idx: 4
posX: -0.229180648923
posY: 1.72208237648
posZ: 0.724655926228
velX: 0.000843595713377
velY: -0.381224572659
velZ: 0.595879554749
accX: 0.0
accY: 0.0
accZ: 0.0
---
header: 
  seq: 18341
  stamp: 
    secs: 1596613548
    nsecs:   4621989
  frame_id: "node1_radarinterface_radarscan"
range: 1.79796981812
angle: -0.128029122949
elev: 0.205236837268
doppler: 0.159006148577
snr: 221
noise: 418
frame_num: 1274
point_id: 25
x: -0.224746227264
y: 1.74582862854
z: 0.366424500942
doppler_bin: 34
target_idx: 4
posX: -0.229180648923
posY: 1.72208237648
posZ: 0.724655926228
velX: 0.000843595713377
velY: -0.381224572659
velZ: 0.595879554749
accX: 0.0
accY: 0.0
accZ: 0.0
---
header: 
  seq: 18342
  stamp: 
    secs: 1596613548
    nsecs:   4638962
  frame_id: "node1_radarinterface_radarscan"
range: 1.87614250183
angle: -0.129798099399
elev: 0.262502551079
doppler: 0.159006148577
snr: 230
noise: 440
frame_num: 1274
point_id: 26
x: -0.234517812729
y: 1.796631217
z: 0.486855566502
doppler_bin: 34
target_idx: 4
posX: -0.229180648923
posY: 1.72208237648
posZ: 0.724655926228
velX: 0.000843595713377
velY: -0.381224572659
velZ: 0.595879554749
accX: 0.0
accY: 0.0
accZ: 0.0
---
header: 
  seq: 18343
  stamp: 
    secs: 1596613548
    nsecs:   4656794
  frame_id: "node1_radarinterface_radarscan"
range: 2.42335057259
angle: -0.0676452964544
elev: 0.390701442957
doppler: 2.14658308029
snr: 158
noise: 396
frame_num: 1274
point_id: 30
x: -0.151459425688
y: 2.23560738564
z: 0.922901809216
doppler_bin: 59
target_idx: 4
posX: -0.229180648923
posY: 1.72208237648
posZ: 0.724655926228
velX: 0.000843595713377
velY: -0.381224572659
velZ: 0.595879554749
accX: 0.0
accY: 0.0
accZ: 0.0
---
header: 
  seq: 18344
  stamp: 
    secs: 1596613548
    nsecs:   4674455
  frame_id: "node1_radarinterface_radarscan"
range: 2.5015232563
angle: -0.033816639334
elev: 0.391658008099
doppler: 2.30558919907
snr: 174
noise: 385
frame_num: 1274
point_id: 35
x: -0.0781726017594
y: 2.31077980995
z: 0.954884946346
doppler_bin: 61
target_idx: 4
posX: -0.229180648923
posY: 1.72208237648
posZ: 0.724655926228
velX: 0.000843595713377
velY: -0.381224572659
velZ: 0.595879554749
accX: 0.0
accY: 0.0
accZ: 0.0
---
header: 
  seq: 18345
  stamp: 
    secs: 1596613548
    nsecs:   4691546
  frame_id: "node1_radarinterface_radarscan"
range: 1.56345200539
angle: -0.145573809743
elev: 0.532163619995
doppler: -1.27204918861
snr: 271
noise: 359
frame_num: 1274
point_id: 36
x: -0.195431515574
y: 1.33299422264
z: 0.793293893337
doppler_bin: 16
target_idx: 4
posX: -0.229180648923
posY: 1.72208237648
posZ: 0.724655926228
velX: 0.000843595713377
velY: -0.381224572659
velZ: 0.595879554749
accX: 0.0
accY: 0.0
accZ: 0.0
---
header: 
  seq: 18346
  stamp: 
    secs: 1596613548
    nsecs:   4708775
  frame_id: "node1_radarinterface_radarscan"
range: 1.48527944088
angle: -0.151314049959
elev: 0.593019008636
doppler: -1.19254612923
snr: 176
noise: 353
frame_num: 1274
point_id: 39
x: -0.185659915209
y: 1.2176053524
z: 0.830073833466
doppler_bin: 17
target_idx: 4
posX: -0.229180648923
posY: 1.72208237648
posZ: 0.724655926228
velX: 0.000843595713377
velY: -0.381224572659
velZ: 0.595879554749
accX: 0.0
accY: 0.0
accZ: 0.0
---
header: 
  seq: 18347
  stamp: 
    secs: 1596613548
    nsecs:   4726119
  frame_id: "node1_radarinterface_radarscan"
range: 1.6416246891
angle: -0.144522204995
elev: 0.519762396812
doppler: -1.19254612923
snr: 325
noise: 355
frame_num: 1274
point_id: 41
x: -0.205203086138
y: 1.40997314453
z: 0.815352201462
doppler_bin: 17
target_idx: 4
posX: -0.229180648923
posY: 1.72208237648
posZ: 0.724655926228
velX: 0.000843595713377
velY: -0.381224572659
velZ: 0.595879554749
accX: 0.0
accY: 0.0
accZ: 0.0
---
header: 
  seq: 18348
  stamp: 
    secs: 1596613548
    nsecs:   4740696
  frame_id: "node1_radarinterface_radarscan"
range: 1.79796981812
angle: -0.141070857644
elev: 0.475584208965
doppler: -1.19254612923
snr: 172
noise: 360
frame_num: 1274
point_id: 43
x: -0.224746227264
y: 1.58256185055
z: 0.823214709759
doppler_bin: 17
target_idx: 4
posX: -0.229180648923
posY: 1.72208237648
posZ: 0.724655926228
velX: 0.000843595713377
velY: -0.381224572659
velZ: 0.595879554749
accX: 0.0
accY: 0.0
accZ: 0.0
---
header: 
  seq: 18349
  stamp: 
    secs: 1596613548
    nsecs:   4799330
  frame_id: "node1_radarinterface_radarscan"
range: 1.56345200539
angle: -0.145849943161
elev: 0.535347640514
doppler: -1.11304306984
snr: 291
noise: 360
frame_num: 1274
point_id: 45
x: -0.195431500673
y: 1.33043444157
z: 0.797579526901
doppler_bin: 18
target_idx: 4
posX: -0.229180648923
posY: 1.72208237648
posZ: 0.724655926228
velX: 0.000843595713377
velY: -0.381224572659
velZ: 0.595879554749
accX: 0.0
accY: 0.0
accZ: 0.0
---
header: 
  seq: 18350
  stamp: 
    secs: 1596613548
    nsecs:   4811184
  frame_id: "node1_radarinterface_radarscan"
range: 1.6416246891
angle: -0.144231036305
elev: 0.51624840498
doppler: -1.11304306984
snr: 328
noise: 358
frame_num: 1274
point_id: 46
x: -0.205203071237
y: 1.41285943985
z: 0.810340344906
doppler_bin: 18
target_idx: 4
posX: -0.229180648923
posY: 1.72208237648
posZ: 0.724655926228
velX: 0.000843595713377
velY: -0.381224572659
velZ: 0.595879554749
accX: 0.0
accY: 0.0
accZ: 0.0
---
header: 
  seq: 18351
  stamp: 
    secs: 1596613548
    nsecs:   4822942
  frame_id: "node1_radarinterface_radarscan"
range: 1.79796981812
angle: -0.14094312489
elev: 0.473833292723
doppler: -1.11304306984
snr: 183
noise: 364
frame_num: 1274
point_id: 48
x: -0.224746227264
y: 1.58401525021
z: 0.820414662361
doppler_bin: 18
target_idx: 4
posX: -0.229180648923
posY: 1.72208237648
posZ: 0.724655926228
velX: 0.000843595713377
velY: -0.381224572659
velZ: 0.595879554749
accX: 0.0
accY: 0.0
accZ: 0.0
---
header: 
  seq: 18352
  stamp: 
    secs: 1596613548
    nsecs:   4834171
  frame_id: "node1_radarinterface_radarscan"
range: 1.6416246891
angle: -0.144067242742
elev: 0.5142557621
doppler: -1.03354001045
snr: 317
noise: 356
frame_num: 1274
point_id: 50
x: -0.205203086138
y: 1.41448831558
z: 0.80749386549
doppler_bin: 19
target_idx: 4
posX: -0.229180648923
posY: 1.72208237648
posZ: 0.724655926228
velX: 0.000843595713377
velY: -0.381224572659
velZ: 0.595879554749
accX: 0.0
accY: 0.0
accZ: 0.0
---
header: 
  seq: 18353
  stamp: 
    secs: 1596613548
    nsecs:   4844839
  frame_id: "node1_radarinterface_radarscan"
range: 1.71979725361
angle: -0.142459616065
elev: 0.494056403637
doppler: -1.03354001045
snr: 288
noise: 357
frame_num: 1274
point_id: 51
x: -0.2149746418
y: 1.49879944324
z: 0.815529763699
doppler_bin: 19
target_idx: 4
posX: -0.229180648923
posY: 1.72208237648
posZ: 0.724655926228
velX: 0.000843595713377
velY: -0.381224572659
velZ: 0.595879554749
accX: 0.0
accY: 0.0
accZ: 0.0
---
header: 
  seq: 18354
  stamp: 
    secs: 1596613548
    nsecs:   4855384
  frame_id: "node1_radarinterface_radarscan"
range: 1.79796981812
angle: -0.139200776815
elev: 0.448980569839
doppler: -1.03354001045
snr: 180
noise: 358
frame_num: 1274
point_id: 52
x: -0.224746227264
y: 1.60410547256
z: 0.780404090881
doppler_bin: 19
target_idx: 4
posX: -0.229180648923
posY: 1.72208237648
posZ: 0.724655926228
velX: 0.000843595713377
velY: -0.381224572659
velZ: 0.595879554749
accX: 0.0
accY: 0.0
accZ: 0.0
---
header: 
  seq: 18355
  stamp: 
    secs: 1596613548
    nsecs:   4867030
  frame_id: "node1_radarinterface_radarscan"
range: 2.11066031456
angle: -0.102988861501
elev: 0.422897070646
