header: 
  seq: 110651
  stamp: 
    secs: 1596524150
    nsecs: 673075022
  frame_id: "node1_radarinterface_radarscan"
range: 2.18883275986
angle: -0.335987895727
elev: 0.324451625347
doppler: 0.0
snr: 228
noise: 411
frame_num: 12859
point_id: 0
x: -0.684010267258
y: 1.95862901211
z: 0.697775959969
doppler_bin: 32
target_idx: 13
posX: -0.680468797684
posY: 2.1290564537
posZ: 0.719213008881
velX: -0.100900426507
velY: -0.077676191926
velZ: 0.528369903564
accX: 0.0
accY: 0.0
accZ: 0.0
---
header: 
  seq: 110652
  stamp: 
    secs: 1596524150
    nsecs: 673142724
  frame_id: "node1_radarinterface_radarscan"
range: 2.26700544357
angle: -0.301285803318
elev: 0.324617594481
doppler: 0.0
snr: 296
noise: 400
frame_num: 12859
point_id: 1
x: -0.637595295906
y: 2.05182361603
z: 0.72305315733
doppler_bin: 32
target_idx: 13
posX: -0.680468797684
posY: 2.1290564537
posZ: 0.719213008881
velX: -0.100900426507
velY: -0.077676191926
velZ: 0.528369903564
accX: 0.0
accY: 0.0
accZ: 0.0
---
header: 
  seq: 110653
  stamp: 
    secs: 1596524150
    nsecs: 673159646
  frame_id: "node1_radarinterface_radarscan"
range: 2.18883275986
angle: -0.340784102678
elev: 0.362549871206
doppler: 0.0795030742884
snr: 247
noise: 432
frame_num: 12859
point_id: 10
x: -0.684010267258
y: 1.92885768414
z: 0.776290357113
doppler_bin: 33
target_idx: 13
posX: -0.680468797684
posY: 2.1290564537
posZ: 0.719213008881
velX: -0.100900426507
velY: -0.077676191926
velZ: 0.528369903564
accX: 0.0
accY: 0.0
accZ: 0.0
---
header: 
  seq: 110654
  stamp: 
    secs: 1596524150
    nsecs: 673174390
  frame_id: "node1_radarinterface_radarscan"
range: 2.26700544357
angle: -0.340671420097
elev: 0.361710995436
doppler: 0.0795030742884
snr: 323
noise: 414
frame_num: 12859
point_id: 11
x: -0.708439171314
y: 1.99846041203
z: 0.802236616611
doppler_bin: 33
target_idx: 13
posX: -0.680468797684
posY: 2.1290564537
posZ: 0.719213008881
velX: -0.100900426507
velY: -0.077676191926
velZ: 0.528369903564
accX: 0.0
accY: 0.0
accZ: 0.0
---
header: 
  seq: 110655
  stamp: 
    secs: 1596524150
    nsecs: 673189202
  frame_id: "node1_radarinterface_radarscan"
range: 2.57969594002
angle: -0.326831966639
elev: 0.231227204204
doppler: 0.0795030742884
snr: 158
noise: 444
frame_num: 12859
point_id: 15
x: -0.806155025959
y: 2.37811565399
z: 0.591194689274
doppler_bin: 33
target_idx: 13
posX: -0.680468797684
posY: 2.1290564537
posZ: 0.719213008881
velX: -0.100900426507
velY: -0.077676191926
velZ: 0.528369903564
accX: 0.0
accY: 0.0
accZ: 0.0
---
header: 
  seq: 110656
  stamp: 
    secs: 1596524150
    nsecs: 673203761
  frame_id: "node1_radarinterface_radarscan"
range: 2.65786838531
angle: -0.311130464077
elev: 0.405988991261
doppler: 0.0795030742884
snr: 127
noise: 489
frame_num: 12859
point_id: 16
x: -0.747525513172
y: 2.32458019257
z: 1.04966545105
doppler_bin: 33
target_idx: 13
posX: -0.680468797684
posY: 2.1290564537
posZ: 0.719213008881
velX: -0.100900426507
velY: -0.077676191926
velZ: 0.528369903564
accX: 0.0
accY: 0.0
accZ: 0.0
---
header: 
  seq: 110657
  stamp: 
    secs: 1596524150
    nsecs: 673220452
  frame_id: "node1_radarinterface_radarscan"
range: 2.18883275986
angle: -0.287470281124
elev: 0.126827374101
doppler: -0.0795030742884
snr: 173
noise: 431
frame_num: 12859
point_id: 43
x: -0.615609169006
y: 2.08215332031
z: 0.276860296726
doppler_bin: 31
target_idx: 13
posX: -0.680468797684
posY: 2.1290564537
posZ: 0.719213008881
velX: -0.100900426507
velY: -0.077676191926
velZ: 0.528369903564
accX: 0.0
accY: 0.0
accZ: 0.0
---
header: 
  seq: 110658
  stamp: 
    secs: 1596524150
    nsecs: 673309355
  frame_id: "node1_radarinterface_radarscan"
range: 2.26700544357
angle: -0.298502922058
elev: 0.296581923962
doppler: -0.0795030742884
snr: 232
noise: 415
frame_num: 12859
point_id: 44
x: -0.637595295906
y: 2.0721552372
z: 0.662539303303
doppler_bin: 31
target_idx: 13
posX: -0.680468797684
posY: 2.1290564537
posZ: 0.719213008881
velX: -0.100900426507
velY: -0.077676191926
velZ: 0.528369903564
accX: 0.0
accY: 0.0
accZ: 0.0
---
header: 
  seq: 110659
  stamp: 
    secs: 1596524150
    nsecs: 673324441
  frame_id: "node1_radarinterface_radarscan"
range: 2.34517812729
angle: -0.30321636796
elev: 0.342486053705
doppler: -0.0795030742884
snr: 252
noise: 405
frame_num: 12859
point_id: 45
x: -0.659581363201
y: 2.10820531845
z: 0.787580668926
doppler_bin: 31
target_idx: 13
posX: -0.680468797684
posY: 2.1290564537
posZ: 0.719213008881
velX: -0.100900426507
velY: -0.077676191926
velZ: 0.528369903564
accX: 0.0
accY: 0.0
accZ: 0.0
---
header: 
  seq: 110660
  stamp: 
    secs: 1596524150
    nsecs: 770548450
  frame_id: "node1_radarinterface_radarscan"
range: 2.18883275986
angle: -0.304536879063
elev: 0.354083567858
doppler: 0.0
snr: 186
noise: 414
frame_num: 12860
point_id: 1
x: -0.615609228611
y: 1.95857858658
z: 0.758936047554
doppler_bin: 32
target_idx: 13
posX: -0.662839591503
posY: 2.12957167625
posZ: 0.731440544128
velX: -0.00146824866533
velY: -0.0632115527987
velZ: 0.472096204758
accX: 0.0
accY: 0.0
accZ: 0.0
---
header: 
  seq: 110661
  stamp: 
    secs: 1596524150
    nsecs: 770640697
  frame_id: "node1_radarinterface_radarscan"
range: 2.26700544357
angle: -0.302996456623
elev: 0.34050771594
doppler: 0.0795030742884
snr: 306
noise: 431
frame_num: 12860
point_id: 10
x: -0.637595236301
y: 2.03950548172
z: 0.757102072239
doppler_bin: 33
target_idx: 13
posX: -0.662839591503
posY: 2.12957167625
posZ: 0.731440544128
velX: -0.00146824866533
velY: -0.0632115527987
velZ: 0.472096204758
accX: 0.0
accY: 0.0
accZ: 0.0
---
header: 
  seq: 110662
  stamp: 
    secs: 1596524150
    nsecs: 770657164
  frame_id: "node1_radarinterface_radarscan"
range: 2.34517812729
angle: -0.305620670319
elev: 0.363263815641
doppler: 0.0795030742884
snr: 326
noise: 416
frame_num: 12860
point_id: 11
x: -0.659581363201
y: 2.09055399895
z: 0.833305001259
doppler_bin: 33
target_idx: 13
posX: -0.662839591503
posY: 2.12957167625
posZ: 0.731440544128
velX: -0.00146824866533
velY: -0.0632115527987
velZ: 0.472096204758
accX: 0.0
accY: 0.0
accZ: 0.0
---
header: 
  seq: 110663
  stamp: 
    secs: 1596524150
    nsecs: 770712665
  frame_id: "node1_radarinterface_radarscan"
range: 2.11066031456
angle: -0.293208867311
elev: 0.232483863831
doppler: 0.159006148577
snr: 150
noise: 440
frame_num: 12860
point_id: 20
x: -0.593623280525
y: 1.96622085571
z: 0.48628616333
doppler_bin: 34
target_idx: 13
posX: -0.662839591503
posY: 2.12957167625
posZ: 0.731440544128
velX: -0.00146824866533
velY: -0.0632115527987
velZ: 0.472096204758
accX: 0.0
accY: 0.0
accZ: 0.0
---
header: 
  seq: 110664
  stamp: 
    secs: 1596524150
    nsecs: 770730215
  frame_id: "node1_radarinterface_radarscan"
range: 2.26700544357
angle: -0.296918302774
elev: 0.279139876366
doppler: 0.159006148577
snr: 324
noise: 411
frame_num: 12860
point_id: 22
x: -0.637595295906
y: 2.08389759064
z: 0.624625563622
doppler_bin: 34
target_idx: 13
posX: -0.662839591503
posY: 2.12957167625
posZ: 0.731440544128
velX: -0.00146824866533
velY: -0.0632115527987
velZ: 0.472096204758
accX: 0.0
accY: 0.0
accZ: 0.0
---
header: 
  seq: 110665
  stamp: 
    secs: 1596524150
    nsecs: 770746637
  frame_id: "node1_radarinterface_radarscan"
range: 2.34517812729
angle: -0.29875856638
elev: 0.299286395311
doppler: 0.159006148577
snr: 331
noise: 402
frame_num: 12860
point_id: 23
x: -0.659581363201
y: 2.14166092873
z: 0.691448569298
doppler_bin: 34
target_idx: 13
posX: -0.662839591503
posY: 2.12957167625
posZ: 0.731440544128
velX: -0.00146824866533
velY: -0.0632115527987
velZ: 0.472096204758
accX: 0.0
accY: 0.0
accZ: 0.0
---
header: 
  seq: 110666
  stamp: 
    secs: 1596524150
    nsecs: 770762361
  frame_id: "node1_radarinterface_radarscan"
range: 2.42335057259
angle: -0.265045374632
elev: 0.303255259991
doppler: 0.159006148577
snr: 288
noise: 404
frame_num: 12860
point_id: 24
x: -0.605837643147
y: 2.23201131821
z: 0.723681569099
doppler_bin: 34
target_idx: 13
posX: -0.662839591503
posY: 2.12957167625
posZ: 0.731440544128
velX: -0.00146824866533
velY: -0.0632115527987
velZ: 0.472096204758
accX: 0.0
accY: 0.0
accZ: 0.0
---
header: 
  seq: 110667
  stamp: 
    secs: 1596524150
    nsecs: 770779018
  frame_id: "node1_radarinterface_radarscan"
range: 2.18883275986
angle: -0.289016276598
elev: 0.162601828575
doppler: 0.238509222865
snr: 226
noise: 386
frame_num: 12860
point_id: 28
x: -0.615609228611
y: 2.07037568092
z: 0.354341953993
doppler_bin: 35
target_idx: 13
posX: -0.662839591503
posY: 2.12957167625
posZ: 0.731440544128
velX: -0.00146824866533
velY: -0.0632115527987
velZ: 0.472096204758
accX: 0.0
accY: 0.0
accZ: 0.0
---
header: 
  seq: 110668
  stamp: 
    secs: 1596524150
    nsecs: 770791377
  frame_id: "node1_radarinterface_radarscan"
range: 2.34517812729
angle: -0.258837729692
elev: 0.21617116034
doppler: 0.238509222865
snr: 286
noise: 386
frame_num: 12860
point_id: 30
x: -0.586294472218
y: 2.21429204941
z: 0.503020703793
doppler_bin: 35
target_idx: 13
posX: -0.662839591503
posY: 2.12957167625
posZ: 0.731440544128
velX: -0.00146824866533
velY: -0.0632115527987
velZ: 0.472096204758
accX: 0.0
accY: 0.0
accZ: 0.0
---
header: 
  seq: 110669
  stamp: 
    secs: 1596524150
    nsecs: 770803414
  frame_id: "node1_radarinterface_radarscan"
range: 2.42335057259
angle: -0.261357009411
elev: 0.25555434823
doppler: 0.238509222865
snr: 267
noise: 388
frame_num: 12860
point_id: 31
x: -0.605837643147
y: 2.2650244236
z: 0.612578928471
doppler_bin: 35
target_idx: 13
posX: -0.662839591503
posY: 2.12957167625
posZ: 0.731440544128
velX: -0.00146824866533
velY: -0.0632115527987
velZ: 0.472096204758
accX: 0.0
accY: 0.0
accZ: 0.0
---
header: 
  seq: 110670
  stamp: 
    secs: 1596524150
    nsecs: 770814881
  frame_id: "node1_radarinterface_radarscan"
range: 2.11066031456
angle: -0.28987377882
elev: 0.179281115532
doppler: -0.0795030742884
snr: 120
noise: 444
frame_num: 12860
point_id: 34
x: -0.593623220921
y: 1.99018537998
z: 0.376377701759
doppler_bin: 31
target_idx: 13
posX: -0.662839591503
posY: 2.12957167625
posZ: 0.731440544128
velX: -0.00146824866533
velY: -0.0632115527987
velZ: 0.472096204758
accX: 0.0
accY: 0.0
accZ: 0.0
---
header: 
  seq: 110671
  stamp: 
    secs: 1596524150
    nsecs: 872963179
  frame_id: "node1_radarinterface_radarscan"
range: 2.11066031456
angle: -0.299919188023
elev: 0.311221510172
doppler: 0.0
snr: 119
noise: 404
frame_num: 12861
point_id: 0
x: -0.593623220921
y: 1.91957187653
z: 0.64632999897
doppler_bin: 32
target_idx: 13
posX: -0.636597156525
posY: 2.12947869301
posZ: 0.747797608376
velX: 0.112603314221
velY: -0.0570991784334
velZ: 0.421398371458
accX: 0.0
accY: 0.0
accZ: 0.0
---
header: 
  seq: 110672
  stamp: 
    secs: 1596524150
    nsecs: 873048222
  frame_id: "node1_radarinterface_radarscan"
range: 2.18883275986
angle: -0.29683598876
elev: 0.27819955349
doppler: 0.0
snr: 240
noise: 396
frame_num: 12861
point_id: 1
x: -0.615609169006
y: 2.01263093948
z: 0.601107895374
doppler_bin: 32
target_idx: 13
posX: -0.636597156525
posY: 2.12947869301
posZ: 0.747797608376
velX: 0.112603314221
velY: -0.0570991784334
velZ: 0.421398371458
accX: 0.0
accY: 0.0
accZ: 0.0
---
header: 
  seq: 110673
  stamp: 
    secs: 1596524150
    nsecs: 873062609
  frame_id: "node1_radarinterface_radarscan"
range: 2.26700544357
angle: -0.29471257329
elev: 0.252561420202
doppler: 0.0
snr: 290
noise: 395
frame_num: 12861
point_id: 2
x: -0.637595295906
y: 2.10044622421
z: 0.566490530968
doppler_bin: 32
target_idx: 13
posX: -0.636597156525
posY: 2.12947869301
posZ: 0.747797608376
velX: 0.112603314221
velY: -0.0570991784334
velZ: 0.421398371458
accX: 0.0
accY: 0.0
accZ: 0.0
---
header: 
  seq: 110674
  stamp: 
    secs: 1596524150
    nsecs: 873092404
  frame_id: "node1_radarinterface_radarscan"
range: 2.42335057259
angle: -0.292987406254
elev: 0.229362681508
doppler: 0.0
snr: 236
noise: 388
frame_num: 12861
point_id: 4
x: -0.681567370892
y: 2.25932097435
z: 0.550965547562
doppler_bin: 32
target_idx: 13
posX: -0.636597156525
posY: 2.12947869301
posZ: 0.747797608376
velX: 0.112603314221
velY: -0.0570991784334
velZ: 0.421398371458
accX: 0.0
accY: 0.0
accZ: 0.0
---
header: 
  seq: 110675
  stamp: 
    secs: 1596524150
    nsecs: 873144776
  frame_id: "node1_radarinterface_radarscan"
range: 2.11066031456
angle: -0.300670206547
elev: 0.318665742874
doppler: 0.0795030742884
snr: 170
noise: 416
frame_num: 12861
point_id: 7
x: -0.593623220921
y: 1.91447675228
z: 0.661269366741
doppler_bin: 33
target_idx: 13
posX: -0.636597156525
posY: 2.12947869301
posZ: 0.747797608376
velX: 0.112603314221
velY: -0.0570991784334
velZ: 0.421398371458
accX: 0.0
accY: 0.0
accZ: 0.0
---
header: 
  seq: 110676
  stamp: 
    secs: 1596524150
    nsecs: 873169617
  frame_id: "node1_radarinterface_radarscan"
range: 2.26700544357
angle: -0.300258219242
elev: 0.314607739449
doppler: 0.0795030742884
snr: 345
noise: 392
frame_num: 12861
point_id: 9
x: -0.637595295906
y: 2.05928874016
z: 0.701510071754
doppler_bin: 33
target_idx: 13
posX: -0.636597156525
posY: 2.12947869301
posZ: 0.747797608376
velX: 0.112603314221
velY: -0.0570991784334
velZ: 0.421398371458
accX: 0.0
accY: 0.0
accZ: 0.0
---
header: 
  seq: 110677
  stamp: 
    secs: 1596524150
    nsecs: 873190245
  frame_id: "node1_radarinterface_radarscan"
range: 2.5015232563
angle: -0.202258035541
elev: 0.36706545949
doppler: 0.0795030742884
snr: 183
noise: 410
frame_num: 12861
point_id: 12
x: -0.469035595655
y: 2.28728747368
z: 0.897741496563
doppler_bin: 33
target_idx: 13
posX: -0.636597156525
posY: 2.12947869301
posZ: 0.747797608376
velX: 0.112603314221
velY: -0.0570991784334
velZ: 0.421398371458
accX: 0.0
accY: 0.0
accZ: 0.0
---
header: 
  seq: 110678
  stamp: 
    secs: 1596524150
    nsecs: 873231757
  frame_id: "node1_radarinterface_radarscan"
range: 2.26700544357
angle: -0.301700055599
elev: 0.328550487757
doppler: 0.159006148577
snr: 313
noise: 383
frame_num: 12861
point_id: 16
x: -0.637595295906
y: 2.048828125
z: 0.731497764587
doppler_bin: 34
target_idx: 13
posX: -0.636597156525
posY: 2.12947869301
posZ: 0.747797608376
velX: 0.112603314221
velY: -0.0570991784334
velZ: 0.421398371458
accX: 0.0
accY: 0.0
accZ: 0.0
---
header: 
  seq: 110679
  stamp: 
    secs: 1596524150
    nsecs: 873252943
  frame_id: "node1_radarinterface_radarscan"
range: 2.34517812729
angle: -0.300720721483
elev: 0.319159299135
doppler: 0.159006148577
snr: 313
noise: 383
frame_num: 12861
point_id: 17
x: -0.659581363201
y: 2.12681651115
z: 0.735842823982
doppler_bin: 34
target_idx: 13
posX: -0.636597156525
posY: 2.12947869301
posZ: 0.747797608376
velX: 0.112603314221
velY: -0.0570991784334
velZ: 0.421398371458
accX: 0.0
accY: 0.0
accZ: 0.0
---
header: 
  seq: 110680
  stamp: 
    secs: 1596524150
    nsecs: 873271283
  frame_id: "node1_radarinterface_radarscan"
range: 2.42335057259
angle: -0.298173010349
elev: 0.29304894805
doppler: 0.159006148577
snr: 259
noise: 383
frame_num: 12861
point_id: 18
x: -0.681567430496
y: 2.21766519547
z: 0.700039386749
doppler_bin: 34
target_idx: 13
posX: -0.636597156525
posY: 2.12947869301
posZ: 0.747797608376
velX: 0.112603314221
velY: -0.0570991784334
velZ: 0.421398371458
accX: 0.0
accY: 0.0
accZ: 0.0
---
header: 
  seq: 110681
  stamp: 
    secs: 1596524150
    nsecs: 873302025
  frame_id: "node1_radarinterface_radarscan"
range: 2.5015232563
angle: -0.244452789426
elev: 0.442157238722
doppler: -0.159006148577
snr: 163
noise: 397
frame_num: 12861
point_id: 19
x: -0.547208189964
y: 2.19373512268
z: 1.07037734985
doppler_bin: 30
target_idx: 13
posX: -0.636597156525
posY: 2.12947869301
posZ: 0.747797608376
velX: 0.112603314221
velY: -0.0570991784334
velZ: 0.421398371458
accX: 0.0
accY: 0.0
accZ: 0.0
---
header: 
  seq: 110682
  stamp: 
    secs: 1596524150
    nsecs: 873330553
  frame_id: "node1_radarinterface_radarscan"
range: 2.26700544357
angle: -0.300102621317
elev: 0.313058823347
doppler: -0.0795030742884
snr: 218
noise: 411
frame_num: 12861
point_id: 22
x: -0.637595295906
y: 2.06042313576
z: 0.698170185089
doppler_bin: 31
target_idx: 13
posX: -0.636597156525
posY: 2.12947869301
posZ: 0.747797608376
velX: 0.112603314221
velY: -0.0570991784334
velZ: 0.421398371458
accX: 0.0
accY: 0.0
accZ: 0.0
---
header: 
  seq: 110683
  stamp: 
    secs: 1596524150
    nsecs: 873343514
  frame_id: "node1_radarinterface_radarscan"
range: 2.34517812729
angle: -0.28031039238
elev: 0.442565381527
doppler: -0.0795030742884
snr: 199
noise: 403
frame_num: 12861
point_id: 23
x: -0.586294531822
y: 2.03651976585
z: 1.0043438673
doppler_bin: 31
target_idx: 13
posX: -0.636597156525
posY: 2.12947869301
posZ: 0.747797608376
velX: 0.112603314221
velY: -0.0570991784334
velZ: 0.421398371458
accX: 0.0
accY: 0.0
accZ: 0.0
---
header: 
  seq: 110684
  stamp: 
    secs: 1596524150
    nsecs: 873355671
  frame_id: "node1_radarinterface_radarscan"
range: 2.57969594002
angle: -0.167344331741
elev: 0.353762865067
doppler: -0.0795030742884
snr: 167
noise: 438
frame_num: 12861
point_id: 27
x: -0.403077483177
y: 2.38614487648
z: 0.893684327602
doppler_bin: 31
target_idx: 13
posX: -0.636597156525
posY: 2.12947869301
posZ: 0.747797608376
velX: 0.112603314221
velY: -0.0570991784334
velZ: 0.421398371458
accX: 0.0
accY: 0.0
accZ: 0.0
---
header: 
  seq: 110685
  stamp: 
    secs: 1596524150
    nsecs: 970484764
  frame_id: "node1_radarinterface_radarscan"
range: 2.57969594002
angle: -0.240581467748
elev: 0.407571315765
doppler: 0.0
snr: 119
noise: 423
frame_num: 12862
point_id: 5
x: -0.564308464527
y: 2.30017280579
z: 1.02254188061
doppler_bin: 32
target_idx: 13
posX: -0.640980601311
posY: 2.12045288086
posZ: 0.835131168365
velX: 0.0844402983785
velY: -0.0894700214267
velZ: 0.585735440254
accX: 0.0
accY: 0.0
accZ: 0.0
---
header: 
  seq: 110686
  stamp: 
    secs: 1596524150
    nsecs: 970577883
  frame_id: "node1_radarinterface_radarscan"
range: 2.11066031456
angle: -0.292704254389
elev: 0.225303247571
doppler: 0.0795030742884
snr: 117
noise: 436
frame_num: 12862
point_id: 9
x: -0.593623220921
y: 1.96981263161
z: 0.471525639296
doppler_bin: 33
target_idx: 13
posX: -0.640980601311
posY: 2.12045288086
posZ: 0.835131168365
velX: 0.0844402983785
velY: -0.0894700214267
velZ: 0.585735440254
accX: 0.0
accY: 0.0
accZ: 0.0
---
header: 
  seq: 110687
  stamp: 
    secs: 1596524150
    nsecs: 970592863
  frame_id: "node1_radarinterface_radarscan"
range: 2.18883275986
angle: -0.2889778018
elev: 0.161811009049
doppler: 0.0795030742884
snr: 234
noise: 417
frame_num: 12862
point_id: 10
x: -0.615609228611
y: 2.07066750526
z: 0.352633714676
doppler_bin: 33
target_idx: 13
posX: -0.640980601311
posY: 2.12045288086
posZ: 0.835131168365
velX: 0.0844402983785
velY: -0.0894700214267
velZ: 0.585735440254
accX: 0.0
accY: 0.0
accZ: 0.0
---
header: 
  seq: 110688
  stamp: 
    secs: 1596524150
    nsecs: 970634619
  frame_id: "node1_radarinterface_radarscan"
range: 2.42335057259
angle: -0.296775668859
elev: 0.277508020401
doppler: 0.0795030742884
snr: 260
noise: 385
frame_num: 12862
point_id: 13
x: -0.681567370892
y: 2.22875070572
z: 0.663900792599
doppler_bin: 33
target_idx: 13
posX: -0.640980601311
posY: 2.12045288086
posZ: 0.835131168365
velX: 0.0844402983785
velY: -0.0894700214267
velZ: 0.585735440254
accX: 0.0
accY: 0.0
accZ: 0.0
---
header: 
  seq: 110689
  stamp: 
    secs: 1596524150
    nsecs: 970649120
  frame_id: "node1_radarinterface_radarscan"
range: 2.5015232563
angle: -0.298200488091
elev: 0.553067266941
doppler: 0.0795030742884
snr: 195
noise: 401
frame_num: 12862
point_id: 14
x: -0.625380814075
y: 2.03464770317
z: 1.31404936314
doppler_bin: 33
target_idx: 13
posX: -0.640980601311
posY: 2.12045288086
posZ: 0.835131168365
velX: 0.0844402983785
velY: -0.0894700214267
velZ: 0.585735440254
accX: 0.0
accY: 0.0
accZ: 0.0
---
header: 
  seq: 110690
  stamp: 
    secs: 1596524150
    nsecs: 970662734
  frame_id: "node1_radarinterface_radarscan"
range: 2.57969594002
angle: -0.245222553611
elev: 0.448611050844
doppler: 0.0795030742884
snr: 148
noise: 433
frame_num: 12862
point_id: 15
x: -0.564308464527
y: 2.25489664078
z: 1.11885142326
doppler_bin: 33
target_idx: 13
posX: -0.640980601311
posY: 2.12045288086
posZ: 0.835131168365
velX: 0.0844402983785
velY: -0.0894700214267
velZ: 0.585735440254
accX: 0.0
accY: 0.0
accZ: 0.0
---
header: 
  seq: 110691
  stamp: 
    secs: 1596524150
    nsecs: 970711663
  frame_id: "node1_radarinterface_radarscan"
range: 2.26700544357
angle: -0.289148926735
elev: 0.165298014879
doppler: 0.159006148577
snr: 242
noise: 373
frame_num: 12862
point_id: 16
x: -0.637595295906
y: 2.14327716827
z: 0.373027324677
doppler_bin: 34
target_idx: 13
posX: -0.640980601311
posY: 2.12045288086
posZ: 0.835131168365
velX: 0.0844402983785
velY: -0.0894700214267
velZ: 0.585735440254
accX: 0.0
accY: 0.0
accZ: 0.0
---
header: 
  seq: 110692
  stamp: 
    secs: 1596524150
    nsecs: 970729508
  frame_id: "node1_radarinterface_radarscan"
range: 2.81421375275
angle: -0.255869328976
elev: 0.526981890202
doppler: 1.74906766415
snr: 161
noise: 390
frame_num: 12862
point_id: 17
x: -0.615609228611
y: 2.35321593285
z: 1.41534411907
doppler_bin: 54
target_idx: 13
posX: -0.640980601311
posY: 2.12045288086
posZ: 0.835131168365
velX: 0.0844402983785
velY: -0.0894700214267
velZ: 0.585735440254
accX: 0.0
accY: 0.0
accZ: 0.0
---
header: 
  seq: 110693
  stamp: 
    secs: 1596524150
    nsecs: 970783560
  frame_id: "node1_radarinterface_radarscan"
range: 2.26700544357
angle: -0.318298906088
elev: 0.453995615244
doppler: -0.159006148577
snr: 281
noise: 397
frame_num: 12862
point_id: 24
x: -0.637595355511
y: 1.93502390385
z: 0.994217634201
doppler_bin: 30
target_idx: 13
posX: -0.640980601311
posY: 2.12045288086
posZ: 0.835131168365
velX: 0.0844402983785
velY: -0.0894700214267
velZ: 0.585735440254
accX: 0.0
accY: 0.0
accZ: 0.0
---
header: 
  seq: 110694
  stamp: 
    secs: 1596524150
    nsecs: 970874687
  frame_id: "node1_radarinterface_radarscan"
range: 2.34517812729
angle: -0.314621657133
elev: 0.43027561903
doppler: -0.0795030742884
snr: 314
noise: 411
frame_num: 12862
point_id: 35
x: -0.659581303596
y: 2.0267932415
z: 0.978223800659
doppler_bin: 31
target_idx: 13
posX: -0.640980601311
posY: 2.12045288086
posZ: 0.835131168365
velX: 0.0844402983785
velY: -0.0894700214267
velZ: 0.585735440254
accX: 0.0
accY: 0.0
accZ: 0.0
---
header: 
  seq: 110695
  stamp: 
    secs: 1596524150
    nsecs: 970916890
  frame_id: "node1_radarinterface_radarscan"
range: 2.5015232563
angle: -0.354040771723
elev: 0.447851479053
doppler: -0.0795030742884
snr: 203
noise: 409
frame_num: 12862
point_id: 37
x: -0.781726002693
y: 2.11497688293
z: 1.08323442936
doppler_bin: 31
target_idx: 13
posX: -0.640980601311
posY: 2.12045288086
posZ: 0.835131168365
velX: 0.0844402983785
velY: -0.0894700214267
velZ: 0.585735440254
accX: 0.0
accY: 0.0
accZ: 0.0
---
header: 
  seq: 110696
  stamp: 
    secs: 1596524151
    nsecs:  72152887
  frame_id: "node1_radarinterface_radarscan"
range: 2.65786838531
angle: -0.285111993551
elev: -0.0103053338826
doppler: 0.0795030742884
snr: 128
noise: 443
frame_num: 12863
point_id: 6
x: -0.747525453568
y: 2.55043530464
z: -0.0273897368461
doppler_bin: 33
target_idx: 13
posX: -0.635547101498
posY: 2.00619006157
posZ: 0.916064679623
velX: 0.118528701365
velY: -0.615831196308
velZ: 0.572472810745
accX: 0.0
accY: 0.0
accZ: 0.0
---
header: 
  seq: 110697
  stamp: 
    secs: 1596524151
    nsecs:  72247729
  frame_id: "node1_radarinterface_radarscan"
range: 2.11066031456
angle: -0.343112170696
elev: 0.580825686455
doppler: -2.22608613968
snr: 223
noise: 368
frame_num: 12863
point_id: 8
x: -0.593623220921
y: 1.66168212891
z: 1.15814971924
doppler_bin: 4
target_idx: 13
posX: -0.635547101498
posY: 2.00619006157
posZ: 0.916064679623
velX: 0.118528701365
velY: -0.615831196308
velZ: 0.572472810745
accX: 0.0
accY: 0.0
accZ: 0.0
---
header: 
  seq: 110698
  stamp: 
    secs: 1596524151
    nsecs:  72264104
  frame_id: "node1_radarinterface_radarscan"
range: 2.18883275986
angle: -0.350905567408
elev: 0.612547814846
doppler: -2.22608613968
snr: 202
noise: 376
frame_num: 12863
point_id: 9
x: -0.615609228611
y: 1.68173933029
z: 1.25847792625
doppler_bin: 4
target_idx: 13
posX: -0.635547101498
posY: 2.00619006157
posZ: 0.916064679623
velX: 0.118528701365
velY: -0.615831196308
velZ: 0.572472810745
accX: 0.0
accY: 0.0
accZ: 0.0
---
header: 
  seq: 110699
  stamp: 
    secs: 1596524151
    nsecs:  72314572
  frame_id: "node1_radarinterface_radarscan"
range: 2.03248763084
angle: -0.331628739834
elev: 0.52796536684
doppler: -2.14658308029
snr: 190
noise: 371
frame_num: 12863
point_id: 10
x: -0.571637153625
y: 1.66006755829
z: 1.0239200592
doppler_bin: 5
target_idx: 13
posX: -0.635547101498
posY: 2.00619006157
posZ: 0.916064679623
velX: 0.118528701365
velY: -0.615831196308
velZ: 0.572472810745
accX: 0.0
accY: 0.0
accZ: 0.0
---
header: 
  seq: 110700
  stamp: 
    secs: 1596524151
    nsecs:  72327077
  frame_id: "node1_radarinterface_radarscan"
range: 2.26700544357
angle: -0.355108946562
elev: 0.628510117531
doppler: -2.14658308029
snr: 161
noise: 375
frame_num: 12863
point_id: 13
x: -0.637595295906
y: 1.71937787533
z: 1.33286368847
doppler_bin: 5
target_idx: 13
posX: -0.635547101498
posY: 2.00619006157
posZ: 0.916064679623
velX: 0.118528701365
velY: -0.615831196308
velZ: 0.572472810745
accX: 0.0
accY: 0.0
accZ: 0.0
---
header: 
  seq: 110701
  stamp: 
    secs: 1596524151
    nsecs:  72346768
  frame_id: "node1_radarinterface_radarscan"
range: 2.03248763084
angle: -0.330437898636
elev: 0.521982967854
doppler: -2.0670800209
snr: 172
noise: 373
frame_num: 12863
point_id: 14
x: -0.571637153625
y: 1.66651153564
z: 1.01339840889
doppler_bin: 6
target_idx: 13
posX: -0.635547101498
posY: 2.00619006157
posZ: 0.916064679623
velX: 0.118528701365
velY: -0.615831196308
velZ: 0.572472810745
accX: 0.0
accY: 0.0
accZ: 0.0
---
header: 
  seq: 110702
  stamp: 
    secs: 1596524151
    nsecs:  72360464
  frame_id: "node1_radarinterface_radarscan"
range: 2.11066031456
angle: -0.339262872934
elev: 0.564002394676
doppler: -2.0670800209
snr: 238
noise: 376
frame_num: 12863
point_id: 15
x: -0.593623220921
y: 1.68209195137
z: 1.12830197811
doppler_bin: 6
target_idx: 13
posX: -0.635547101498
posY: 2.00619006157
posZ: 0.916064679623
velX: 0.118528701365
velY: -0.615831196308
velZ: 0.572472810745
accX: 0.0
accY: 0.0
accZ: 0.0
---
header: 
  seq: 110703
  stamp: 
    secs: 1596524151
    nsecs:  72408138
  frame_id: "node1_radarinterface_radarscan"
range: 2.18883275986
angle: -0.343140512705
elev: 0.580946624279
doppler: -2.0670800209
snr: 236
noise: 376
frame_num: 12863
point_id: 16
x: -0.615609228611
y: 1.72307157516
z: 1.20126533508
doppler_bin: 6
target_idx: 13
posX: -0.635547101498
posY: 2.00619006157
posZ: 0.916064679623
velX: 0.118528701365
velY: -0.615831196308
velZ: 0.572472810745
accX: 0.0
accY: 0.0
accZ: 0.0
---
header: 
  seq: 110704
  stamp: 
    secs: 1596524151
    nsecs:  72426640
  frame_id: "node1_radarinterface_radarscan"
range: 2.26700544357
angle: -0.344456523657
elev: 0.586511671543
doppler: -2.0670800209
snr: 165
noise: 376
frame_num: 12863
point_id: 17
x: -0.637595295906
y: 1.77722454071
z: 1.25469470024
doppler_bin: 6
target_idx: 13
posX: -0.635547101498
posY: 2.00619006157
posZ: 0.916064679623
velX: 0.118528701365
velY: -0.615831196308
velZ: 0.572472810745
accX: 0.0
accY: 0.0
accZ: 0.0
---
header: 
  seq: 110705
  stamp: 
    secs: 1596524151
    nsecs:  72445793
  frame_id: "node1_radarinterface_radarscan"
range: 2.42335057259
angle: -0.281224399805
elev: 0.449196010828
doppler: -0.238509222865
snr: 286
noise: 373
frame_num: 12863
point_id: 24
x: -0.605837643147
y: 2.09719157219
z: 1.05231928825
doppler_bin: 29
target_idx: 13
posX: -0.635547101498
posY: 2.00619006157
posZ: 0.916064679623
velX: 0.118528701365
velY: -0.615831196308
velZ: 0.572472810745
accX: 0.0
accY: 0.0
accZ: 0.0
---
header: 
  seq: 110706
  stamp: 
    secs: 1596524151
    nsecs:  72517293
  frame_id: "node1_radarinterface_radarscan"
range: 2.5015232563
angle: -0.313324064016
elev: 0.421466559172
doppler: -0.159006148577
snr: 242
noise: 388
frame_num: 12863
point_id: 29
x: -0.703553438187
y: 2.17148423195
z: 1.02337098122
doppler_bin: 30
target_idx: 13
posX: -0.635547101498
posY: 2.00619006157
posZ: 0.916064679623
velX: 0.118528701365
velY: -0.615831196308
velZ: 0.572472810745
accX: 0.0
accY: 0.0
accZ: 0.0
---
header: 
  seq: 110707
  stamp: 
    secs: 1596524151
    nsecs:  72539679
  frame_id: "node1_radarinterface_radarscan"
range: 2.18883275986
angle: -0.29724752903
elev: 0.282865643501
doppler: -0.0795030742884
snr: 277
noise: 382
frame_num: 12863
point_id: 33
x: -0.615609228611
y: 2.00967383385
z: 0.610921919346
doppler_bin: 31
target_idx: 13
posX: -0.635547101498
posY: 2.00619006157
posZ: 0.916064679623
velX: 0.118528701365
velY: -0.615831196308
velZ: 0.572472810745
accX: 0.0
accY: 0.0
accZ: 0.0
---
header: 
  seq: 110708
  stamp: 
    secs: 1596524151
    nsecs:  72551420
  frame_id: "node1_radarinterface_radarscan"
range: 2.34517812729
angle: -0.306827068329
elev: 0.373154044151
doppler: -0.0795030742884
snr: 375
noise: 376
frame_num: 12863
point_id: 35
x: -0.659581363201
y: 2.08179807663
z: 0.854944586754
doppler_bin: 31
target_idx: 13
posX: -0.635547101498
posY: 2.00619006157
posZ: 0.916064679623
velX: 0.118528701365
velY: -0.615831196308
velZ: 0.572472810745
accX: 0.0
accY: 0.0
accZ: 0.0
---
header: 
  seq: 110709
  stamp: 
    secs: 1596524151
    nsecs:  72564602
  frame_id: "node1_radarinterface_radarscan"
range: 2.5015232563
angle: -0.316398143768
elev: 0.441953450441
doppler: -0.0795030742884
snr: 240
noise: 389
frame_num: 12863
point_id: 37
x: -0.703553378582
y: 2.14893221855
z: 1.06991660595
doppler_bin: 31
target_idx: 13
posX: -0.635547101498
posY: 2.00619006157
posZ: 0.916064679623
velX: 0.118528701365
velY: -0.615831196308
velZ: 0.572472810745
accX: 0.0
accY: 0.0
accZ: 0.0
---
header: 
  seq: 110710
  stamp: 
    secs: 1596524151
    nsecs: 175140134
  frame_id: "node1_radarinterface_radarscan"
range: 2.18883275986
angle: -0.293463677168
elev: 0.236019134521
doppler: 0.0
snr: 207
noise: 386
frame_num: 12864
point_id: 0
x: -0.615609169006
y: 2.03716731071
z: 0.511823475361
doppler_bin: 32
target_idx: 13
posX: -0.628444552422
posY: 2.02581739426
posZ: 0.850285291672
velX: 0.151011750102
velY: -0.451121479273
velZ: 0.236899673939
accX: 0.0
accY: 0.0
accZ: 0.0
---
header: 
  seq: 110711
  stamp: 
    secs: 1596524151
    nsecs: 175219262
  frame_id: "node1_radarinterface_radarscan"
range: 2.34517812729
angle: -0.297613948584
elev: 0.286947190762
doppler: 0.0
snr: 312
noise: 385
frame_num: 12864
point_id: 2
x: -0.659581303596
y: 2.15040802956
z: 0.663745343685
doppler_bin: 32
target_idx: 13
posX: -0.628444552422
posY: 2.02581739426
posZ: 0.850285291672
velX: 0.151011750102
velY: -0.451121479273
velZ: 0.236899673939
accX: 0.0
accY: 0.0
accZ: 0.0
---
header: 
  seq: 110712
  stamp: 
    secs: 1596524151
    nsecs: 175236994
  frame_id: "node1_radarinterface_radarscan"
range: 2.42335057259
angle: -0.295792907476
elev: 0.265953540802
doppler: 0.0
snr: 274
noise: 387
frame_num: 12864
point_id: 3
x: -0.681567370892
y: 2.23660826683
z: 0.636927783489
doppler_bin: 32
target_idx: 13
posX: -0.628444552422
posY: 2.02581739426
posZ: 0.850285291672
velX: 0.151011750102
velY: -0.451121479273
velZ: 0.236899673939
accX: 0.0
accY: 0.0
accZ: 0.0
---
header: 
  seq: 110713
  stamp: 
    secs: 1596524151
    nsecs: 175255159
  frame_id: "node1_radarinterface_radarscan"
range: 2.18883275986
angle: -0.28603976965
elev: 0.0801201760769
doppler: 0.0795030742884
snr: 144
noise: 419
frame_num: 12864
point_id: 4
x: -0.615609169006
y: 2.09316158295
z: 0.175182104111
doppler_bin: 33
target_idx: 13
posX: -0.628444552422
posY: 2.02581739426
posZ: 0.850285291672
velX: 0.151011750102
velY: -0.451121479273
velZ: 0.236899673939
accX: 0.0
accY: 0.0
accZ: 0.0
---
header: 
  seq: 110714
  stamp: 
    secs: 1596524151
    nsecs: 175273555
  frame_id: "node1_radarinterface_radarscan"
range: 2.26700544357
angle: -0.324235022068
elev: 0.195741504431
doppler: 0.0795030742884
snr: 237
noise: 414
frame_num: 12864
point_id: 5
x: -0.708439230919
y: 2.10784673691
z: 0.440918803215
doppler_bin: 33
target_idx: 13
posX: -0.628444552422
posY: 2.02581739426
posZ: 0.850285291672
velX: 0.151011750102
velY: -0.451121479273
velZ: 0.236899673939
accX: 0.0
accY: 0.0
accZ: 0.0
---
header: 
  seq: 110715
  stamp: 
    secs: 1596524151
    nsecs: 175291642
  frame_id: "node1_radarinterface_radarscan"
range: 2.42335057259
angle: -0.316182225943
elev: 0.440556526184
doppler: -1.27204918861
snr: 170
noise: 371
frame_num: 12864
point_id: 10
x: -0.681567370892
y: 2.08329916
z: 1.03342068195
doppler_bin: 16
target_idx: 13
posX: -0.628444552422
posY: 2.02581739426
posZ: 0.850285291672
velX: 0.151011750102
velY: -0.451121479273
velZ: 0.236899673939
accX: 0.0
accY: 0.0
accZ: 0.0
---
header: 
  seq: 110716
  stamp: 
    secs: 1596524151
    nsecs: 175310011
  frame_id: "node1_radarinterface_radarscan"
range: 2.57969594002
angle: -0.209215641022
elev: 0.4446156919
doppler: -0.715527653694
snr: 164
noise: 390
frame_num: 12864
point_id: 16
x: -0.483693003654
y: 2.27810430527
z: 1.10955548286
doppler_bin: 23
target_idx: 13
posX: -0.628444552422
posY: 2.02581739426
posZ: 0.850285291672
velX: 0.151011750102
velY: -0.451121479273
velZ: 0.236899673939
accX: 0.0
accY: 0.0
accZ: 0.0
---
header: 
  seq: 110717
  stamp: 
    secs: 1596524151
    nsecs: 175327434
  frame_id: "node1_radarinterface_radarscan"
range: 2.81421375275
angle: -0.275392025709
elev: 0.404310643673
doppler: -0.636024594307
snr: 132
noise: 402
frame_num: 12864
point_id: 19
x: -0.703553438187
y: 2.48982095718
z: 1.10706973076
doppler_bin: 24
target_idx: 13
posX: -0.628444552422
posY: 2.02581739426
posZ: 0.850285291672
velX: 0.151011750102
velY: -0.451121479273
velZ: 0.236899673939
accX: 0.0
accY: 0.0
accZ: 0.0
---
header: 
  seq: 110718
  stamp: 
    secs: 1596524151
    nsecs: 175348414
  frame_id: "node1_radarinterface_radarscan"
range: 2.42335057259
angle: -0.292361319065
elev: 0.220277249813
doppler: -0.159006148577
snr: 268
noise: 367
frame_num: 12864
point_id: 22
x: -0.681567370892
y: 2.26444721222
z: 0.529502570629
doppler_bin: 30
target_idx: 13
posX: -0.628444552422
posY: 2.02581739426
posZ: 0.850285291672
velX: 0.151011750102
velY: -0.451121479273
velZ: 0.236899673939
accX: 0.0
accY: 0.0
accZ: 0.0
---
header: 
  seq: 110719
  stamp: 
    secs: 1596524151
    nsecs: 175366262
  frame_id: "node1_radarinterface_radarscan"
range: 2.34517812729
angle: -0.293841034174
elev: 0.241149887443
doppler: -0.0795030742884
snr: 330
noise: 392
frame_num: 12864
point_id: 25
x: -0.659581303596
y: 2.17970871925
z: 0.560074031353
doppler_bin: 31
target_idx: 13
posX: -0.628444552422
posY: 2.02581739426
posZ: 0.850285291672
velX: 0.151011750102
velY: -0.451121479273
velZ: 0.236899673939
accX: 0.0
accY: 0.0
accZ: 0.0
---
header: 
  seq: 110720
  stamp: 
    secs: 1596524151
    nsecs: 175383525
  frame_id: "node1_radarinterface_radarscan"
range: 2.42335057259
angle: -0.293041288853
elev: 0.230126366019
doppler: -0.0795030742884
snr: 290
noise: 389
frame_num: 12864
point_id: 26
x: -0.681567370892
y: 2.25888061523
z: 0.552767634392
doppler_bin: 31
target_idx: 13
posX: -0.628444552422
posY: 2.02581739426
posZ: 0.850285291672
velX: 0.151011750102
velY: -0.451121479273
velZ: 0.236899673939
accX: 0.0
accY: 0.0
accZ: 0.0
---
header: 
  seq: 110721
  stamp: 
    secs: 1596524151
    nsecs: 271093021
  frame_id: "node1_radarinterface_radarscan"
range: 2.11066031456
angle: -0.294111162424
elev: 0.244749978185
doppler: 0.0795030742884
snr: 195
noise: 409
frame_num: 12865
point_id: 0
x: -0.593623220921
y: 1.95982801914
z: 0.511442065239
doppler_bin: 33
target_idx: 13
posX: -0.612050414085
posY: 1.98165285587
posZ: 0.862281501293
velX: 0.185777544975
velY: -0.515478134155
velZ: 0.179479882121
accX: 0.0
accY: 0.0
accZ: 0.0
---
header: 
  seq: 110722
  stamp: 
    secs: 1596524151
    nsecs: 370320529
  frame_id: "node1_radarinterface_radarscan"
range: 2.11066031456
angle: -0.288253873587
elev: 0.146099179983
doppler: 0.0
snr: 168
noise: 389
frame_num: 12866
point_id: 0
x: -0.593623220921
y: 2.0020198822
z: 0.307269901037
doppler_bin: 32
target_idx: 13
posX: -0.799581408501
posY: 2.01512145996
posZ: 0.586190402508
velX: -0.475708305836
velY: -0.357376456261
velZ: -0.675182580948
accX: 0.0
accY: 0.0
accZ: 0.0
---
header: 
  seq: 110723
  stamp: 
    secs: 1596524151
    nsecs: 370415359
  frame_id: "node1_radarinterface_radarscan"
range: 2.03248763084
angle: -0.600980222225
elev: 0.102213412523
doppler: -1.19254612923
snr: 263
noise: 374
frame_num: 12866
point_id: 9
x: -1.14327430725
y: 1.6676094532
z: 0.20738594234
doppler_bin: 17
target_idx: 13
posX: -0.799581408501
posY: 2.01512145996
posZ: 0.586190402508
velX: -0.475708305836
velY: -0.357376456261
velZ: -0.675182580948
accX: 0.0
accY: 0.0
accZ: 0.0
---
header: 
  seq: 110724
  stamp: 
    secs: 1596524151
    nsecs: 370438462
  frame_id: "node1_radarinterface_radarscan"
range: 2.11066031456
angle: -0.601078510284
elev: 0.103601314127
doppler: -1.19254612923
snr: 282
noise: 374
frame_num: 12866
point_id: 11
x: -1.18724644184
y: 1.73138332367
z: 0.21827621758
doppler_bin: 17
target_idx: 13
posX: -0.799581408501
posY: 2.01512145996
posZ: 0.586190402508
velX: -0.475708305836
velY: -0.357376456261
velZ: -0.675182580948
accX: 0.0
accY: 0.0
accZ: 0.0
---
header: 
  seq: 110725
  stamp: 
    secs: 1596524151
    nsecs: 370455240
  frame_id: "node1_radarinterface_radarscan"
range: 2.18883275986
angle: -0.600808084011
elev: 0.0997344627976
doppler: -1.19254612923
snr: 233
noise: 378
frame_num: 12866
point_id: 13
x: -1.23121845722
y: 1.79655003548
z: 0.217940330505
doppler_bin: 17
target_idx: 13
posX: -0.799581408501
posY: 2.01512145996
posZ: 0.586190402508
velX: -0.475708305836
velY: -0.357376456261
velZ: -0.675182580948
accX: 0.0
accY: 0.0
accZ: 0.0
---
header: 
  seq: 110726
  stamp: 
    secs: 1596524151
    nsecs: 370478612
  frame_id: "node1_radarinterface_radarscan"
range: 1.95431506634
angle: -0.602612137794
elev: 0.123205631971
doppler: -1.11304306984
snr: 192
noise: 380
frame_num: 12866
point_id: 15
x: -1.09930217266
y: 1.5978730917
z: 0.240173920989
doppler_bin: 18
target_idx: 13
posX: -0.799581408501
posY: 2.01512145996
posZ: 0.586190402508
velX: -0.475708305836
velY: -0.357376456261
velZ: -0.675182580948
accX: 0.0
accY: 0.0
accZ: 0.0
---
header: 
  seq: 110727
  stamp: 
    secs: 1596524151
    nsecs: 370499991
  frame_id: "node1_radarinterface_radarscan"
range: 2.18883275986
angle: -0.602024376392
elev: 0.116095207632
doppler: -1.11304306984
snr: 234
noise: 392
frame_num: 12866
point_id: 21
x: -1.23121845722
y: 1.79187238216
z: 0.253542542458
doppler_bin: 18
target_idx: 13
posX: -0.799581408501
posY: 2.01512145996
posZ: 0.586190402508
velX: -0.475708305836
velY: -0.357376456261
velZ: -0.675182580948
accX: 0.0
accY: 0.0
accZ: 0.0
---
header: 
  seq: 110728
  stamp: 
    secs: 1596524151
    nsecs: 370553576
  frame_id: "node1_radarinterface_radarscan"
range: 2.03248763084
angle: -0.60220092535
elev: 0.118277400732
doppler: -1.03354001045
snr: 250
noise: 381
frame_num: 12866
point_id: 23
x: -1.14327430725
y: 1.66325223446
z: 0.239837244153
doppler_bin: 19
target_idx: 13
posX: -0.799581408501
posY: 2.01512145996
posZ: 0.586190402508
velX: -0.475708305836
velY: -0.357376456261
velZ: -0.675182580948
accX: 0.0
accY: 0.0
accZ: 0.0
---
header: 
  seq: 110729
  stamp: 
    secs: 1596524151
    nsecs: 370566416
  frame_id: "node1_radarinterface_radarscan"
range: 2.11066031456
angle: -0.602034091949
elev: 0.116216063499
doppler: -1.03354001045
snr: 260
noise: 383
frame_num: 12866
point_id: 25
x: -1.18724644184
y: 1.72784113884
z: 0.244740843773
doppler_bin: 19
target_idx: 13
posX: -0.799581408501
posY: 2.01512145996
posZ: 0.586190402508
velX: -0.475708305836
velY: -0.357376456261
velZ: -0.675182580948
accX: 0.0
accY: 0.0
accZ: 0.0
---
header: 
  seq: 110730
  stamp: 
    secs: 1596524151
    nsecs: 370580121
  frame_id: "node1_radarinterface_radarscan"
range: 2.5015232563
angle: -0.2427495718
elev: 0.427401542664
doppler: -0.159006148577
snr: 199
noise: 418
frame_num: 12866
point_id: 29
x: -0.547208189964
y: 2.2097556591
z: 1.0369001627
doppler_bin: 30
target_idx: 13
posX: -0.799581408501
posY: 2.01512145996
posZ: 0.586190402508
velX: -0.475708305836
velY: -0.357376456261
velZ: -0.675182580948
accX: 0.0
accY: 0.0
accZ: 0.0
---
header: 
  seq: 110731
  stamp: 
    secs: 1596524151
    nsecs: 370596924
  frame_id: "node1_radarinterface_radarscan"
range: 2.11066031456
angle: -0.288465201855
elev: 0.150862246752
doppler: -0.0795030742884
snr: 209
noise: 415
frame_num: 12866
point_id: 31
x: -0.593623220921
y: 2.00046849251
z: 0.317212492228
doppler_bin: 31
target_idx: 13
posX: -0.799581408501
posY: 2.01512145996
posZ: 0.586190402508
velX: -0.475708305836
velY: -0.357376456261
velZ: -0.675182580948
accX: 0.0
accY: 0.0
accZ: 0.0
---
header: 
  seq: 110732
  stamp: 
    secs: 1596524151
    nsecs: 370617108
  frame_id: "node1_radarinterface_radarscan"
range: 2.5015232563
angle: -0.240497395396
elev: 0.406776666641
doppler: -0.0795030742884
snr: 243
noise: 420
frame_num: 12866
point_id: 35
x: -0.547208189964
y: 2.2312810421
z: 0.989730358124
doppler_bin: 31
target_idx: 13
posX: -0.799581408501
posY: 2.01512145996
posZ: 0.586190402508
velX: -0.475708305836
velY: -0.357376456261
velZ: -0.675182580948
accX: 0.0
accY: 0.0
accZ: 0.0
---
header: 
  seq: 110733
  stamp: 
    secs: 1596524151
    nsecs: 370643725
  frame_id: "node1_radarinterface_radarscan"
range: 2.57969594002
angle: -0.253152877092
elev: 0.0604566857219
doppler: -0.0795030742884
snr: 155
noise: 459
frame_num: 12866
point_id: 36
x: -0.644923985004
y: 2.49291181564
z: 0.155864879489
doppler_bin: 31
target_idx: 13
posX: -0.799581408501
posY: 2.01512145996
posZ: 0.586190402508
velX: -0.475708305836
velY: -0.357376456261
velZ: -0.675182580948
accX: 0.0
accY: 0.0
accZ: 0.0
---
header: 
  seq: 110734
  stamp: 
    secs: 1596524151
    nsecs: 475088331
  frame_id: "node1_radarinterface_radarscan"
range: 2.11066031456
angle: -0.289357364178
elev: 0.169443264604
doppler: 0.0
snr: 235
noise: 399
frame_num: 12867
point_id: 0
x: -0.593623220921
y: 1.99394416809
z: 0.355928272009
doppler_bin: 32
target_idx: 13
posX: -0.767904102802
posY: 2.07948064804
posZ: 0.456026941538
velX: -0.271612435579
velY: -0.032604008913
velZ: -0.976614236832
accX: 0.0
accY: 0.0
accZ: 0.0
---
header: 
  seq: 110735
  stamp: 
    secs: 1596524151
    nsecs: 475166573
  frame_id: "node1_radarinterface_radarscan"
range: 2.42335057259
angle: -0.286901384592
elev: 0.110683679581
doppler: 0.0
snr: 232
noise: 394
frame_num: 12867
point_id: 2
x: -0.681567370892
y: 2.31007409096
z: 0.267678022385
doppler_bin: 32
target_idx: 13
posX: -0.767904102802
posY: 2.07948064804
posZ: 0.456026941538
velX: -0.271612435579
velY: -0.032604008913
velZ: -0.976614236832
accX: 0.0
accY: 0.0
accZ: 0.0
---
header: 
  seq: 110736
  stamp: 
    secs: 1596524151
    nsecs: 475233109
  frame_id: "node1_radarinterface_radarscan"
range: 2.26700544357
angle: -0.291208893061
elev: 0.202393710613
doppler: 0.0795030742884
snr: 373
noise: 400
frame_num: 12867
point_id: 8
x: -0.637595236301
y: 2.12723326683
z: 0.45570152998
doppler_bin: 33
target_idx: 13
posX: -0.767904102802
posY: 2.07948064804
posZ: 0.456026941538
velX: -0.271612435579
velY: -0.032604008913
velZ: -0.976614236832
accX: 0.0
accY: 0.0
accZ: 0.0
---
header: 
  seq: 110737
  stamp: 
    secs: 1596524151
    nsecs: 475333031
  frame_id: "node1_radarinterface_radarscan"
range: 2.34517812729
angle: -0.294338971376
elev: 0.247740849853
doppler: 0.0795030742884
snr: 342
noise: 389
frame_num: 12867
point_id: 9
x: -0.659581363201
y: 2.17580008507
z: 0.575071454048
doppler_bin: 33
target_idx: 13
posX: -0.767904102802
posY: 2.07948064804
posZ: 0.456026941538
velX: -0.271612435579
velY: -0.032604008913
velZ: -0.976614236832
accX: 0.0
accY: 0.0
accZ: 0.0
---
header: 
  seq: 110738
  stamp: 
    secs: 1596524151
    nsecs: 475387636
  frame_id: "node1_radarinterface_radarscan"
range: 2.11066031456
angle: -0.289113014936
elev: 0.16457273066
doppler: 0.159006148577
snr: 273
noise: 387
frame_num: 12867
point_id: 11
x: -0.593623220921
y: 1.99572730064
z: 0.34579128027
doppler_bin: 34
target_idx: 13
posX: -0.767904102802
posY: 2.07948064804
posZ: 0.456026941538
velX: -0.271612435579
velY: -0.032604008913
velZ: -0.976614236832
accX: 0.0
accY: 0.0
accZ: 0.0
---
header: 
  seq: 110739
  stamp: 
    secs: 1596524151
    nsecs: 475416096
  frame_id: "node1_radarinterface_radarscan"
range: 2.26700544357
angle: -0.289149284363
elev: 0.165305137634
doppler: 0.159006148577
snr: 357
noise: 378
frame_num: 12867
point_id: 13
x: -0.637595295906
y: 2.14327430725
z: 0.373043268919
doppler_bin: 34
target_idx: 13
posX: -0.767904102802
posY: 2.07948064804
posZ: 0.456026941538
velX: -0.271612435579
velY: -0.032604008913
velZ: -0.976614236832
accX: 0.0
accY: 0.0
accZ: 0.0
---
header: 
  seq: 110740
  stamp: 
    secs: 1596524151
    nsecs: 475435030
  frame_id: "node1_radarinterface_radarscan"
range: 2.34517812729
angle: -0.29113510251
elev: 0.201190173626
doppler: 0.159006148577
snr: 301
noise: 376
frame_num: 12867
point_id: 14
x: -0.659581303596
y: 2.20117688179
z: 0.46865016222
doppler_bin: 34
target_idx: 13
posX: -0.767904102802
posY: 2.07948064804
posZ: 0.456026941538
velX: -0.271612435579
velY: -0.032604008913
velZ: -0.976614236832
accX: 0.0
accY: 0.0
accZ: 0.0
---
header: 
  seq: 110741
  stamp: 
    secs: 1596524151
    nsecs: 475453029
  frame_id: "node1_radarinterface_radarscan"
range: 2.42335057259
angle: -0.288184404373
elev: 0.144498303533
doppler: 0.159006148577
snr: 235
noise: 388
frame_num: 12867
point_id: 15
x: -0.681567370892
y: 2.29920125008
z: 0.348952740431
doppler_bin: 34
target_idx: 13
posX: -0.767904102802
posY: 2.07948064804
posZ: 0.456026941538
velX: -0.271612435579
velY: -0.032604008913
velZ: -0.976614236832
accX: 0.0
accY: 0.0
accZ: 0.0
---
header: 
  seq: 110742
  stamp: 
    secs: 1596524151
    nsecs: 475470424
  frame_id: "node1_radarinterface_radarscan"
range: 2.5015232563
angle: -0.286981105804
elev: 0.113088391721
doppler: 0.159006148577
snr: 188
noise: 428
frame_num: 12867
point_id: 16
x: -0.703553438187
y: 2.38389253616
z: 0.282290637493
doppler_bin: 34
target_idx: 13
posX: -0.767904102802
posY: 2.07948064804
posZ: 0.456026941538
velX: -0.271612435579
velY: -0.032604008913
velZ: -0.976614236832
accX: 0.0
accY: 0.0
accZ: 0.0
---
header: 
  seq: 110743
  stamp: 
    secs: 1596524151
    nsecs: 579985465
  frame_id: "node1_radarinterface_radarscan"
range: 2.11066031456
angle: -0.366433233023
elev: 0.511106133461
doppler: 0.0
snr: 169
noise: 386
frame_num: 12868
point_id: 0
x: -0.659581303596
y: 1.71870946884
z: 1.03241324425
doppler_bin: 32
target_idx: 13
posX: -0.735298633575
posY: 2.06951737404
posZ: 0.488611280918
velX: -0.11945822835
velY: 0.0179850421846
velZ: -0.748555719852
accX: 0.0
accY: 0.0
accZ: 0.0
---
header: 
  seq: 110744
  stamp: 
    secs: 1596524151
    nsecs: 580124491
  frame_id: "node1_radarinterface_radarscan"
range: 2.18883275986
angle: -0.311490386724
elev: 0.408581852913
doppler: 0.0
snr: 277
noise: 382
frame_num: 12868
point_id: 1
x: -0.615609169006
y: 1.91199839115
z: 0.86964148283
doppler_bin: 32
target_idx: 13
posX: -0.735298633575
posY: 2.06951737404
posZ: 0.488611280918
velX: -0.11945822835
velY: 0.0179850421846
velZ: -0.748555719852
accX: 0.0
accY: 0.0
accZ: 0.0
---
header: 
  seq: 110745
  stamp: 
    secs: 1596524151
    nsecs: 580160677
  frame_id: "node1_radarinterface_radarscan"
range: 2.26700544357
angle: -0.303535431623
elev: 0.345331937075
doppler: 0.0
snr: 326
noise: 380
frame_num: 12868
point_id: 2
x: -0.637595236301
y: 2.03565216064
z: 0.767401814461
doppler_bin: 32
target_idx: 13
posX: -0.735298633575
posY: 2.06951737404
posZ: 0.488611280918
velX: -0.11945822835
velY: 0.0179850421846
velZ: -0.748555719852
accX: 0.0
accY: 0.0
accZ: 0.0
---
header: 
  seq: 110746
  stamp: 
    secs: 1596524151
    nsecs: 580214358
  frame_id: "node1_radarinterface_radarscan"
range: 2.11066031456
angle: -0.29384881258
elev: 0.241254553199
doppler: 0.0795030742884
snr: 180
noise: 402
frame_num: 12868
point_id: 4
x: -0.593623161316
y: 1.96168255806
z: 0.504281163216
doppler_bin: 33
target_idx: 13
posX: -0.735298633575
posY: 2.06951737404
posZ: 0.488611280918
velX: -0.11945822835
velY: 0.0179850421846
velZ: -0.748555719852
accX: 0.0
accY: 0.0
accZ: 0.0
---
header: 
  seq: 110747
  stamp: 
    secs: 1596524151
    nsecs: 580242823
  frame_id: "node1_radarinterface_radarscan"
range: 2.18883275986
angle: -0.307803958654
elev: 0.380927056074
doppler: -0.0795030742884
snr: 309
noise: 398
frame_num: 12868
point_id: 10
x: -0.615609228611
y: 1.93643939495
z: 0.813766956329
doppler_bin: 31
target_idx: 13
posX: -0.735298633575
posY: 2.06951737404
posZ: 0.488611280918
velX: -0.11945822835
velY: 0.0179850421846
velZ: -0.748555719852
accX: 0.0
accY: 0.0
accZ: 0.0
---
header: 
  seq: 110748
  stamp: 
    secs: 1596524151
    nsecs: 580268251
  frame_id: "node1_radarinterface_radarscan"
range: 2.26700544357
angle: -0.305462419987
elev: 0.36194139719
doppler: -0.0795030742884
snr: 347
noise: 392
frame_num: 12868
point_id: 11
x: -0.637595295906
y: 2.02198386192
z: 0.80272513628
doppler_bin: 31
target_idx: 13
posX: -0.735298633575
posY: 2.06951737404
posZ: 0.488611280918
velX: -0.11945822835
velY: 0.0179850421846
velZ: -0.748555719852
accX: 0.0
accY: 0.0
accZ: 0.0
---
header: 
  seq: 110749
  stamp: 
    secs: 1596524151
    nsecs: 580329788
  frame_id: "node1_radarinterface_radarscan"
range: 2.34517812729
angle: -0.337387382984
elev: 0.336114197969
doppler: -0.0795030742884
snr: 328
noise: 388
frame_num: 12868
point_id: 12
x: -0.732868134975
y: 2.08913350105
z: 0.773489534855
doppler_bin: 31
target_idx: 13
posX: -0.735298633575
posY: 2.06951737404
posZ: 0.488611280918
velX: -0.11945822835
velY: 0.0179850421846
velZ: -0.748555719852
accX: 0.0
accY: 0.0
accZ: 0.0
---
header: 
  seq: 110750
  stamp: 
    secs: 1596524151
    nsecs: 580352139
  frame_id: "node1_radarinterface_radarscan"
range: 2.5015232563
angle: -0.224428519607
elev: 0.185042157769
doppler: -0.0795030742884
snr: 170
noise: 425
frame_num: 12868
point_id: 13
x: -0.547208189964
y: 2.39715480804
z: 0.460250198841
doppler_bin: 31
target_idx: 13
posX: -0.735298633575
posY: 2.06951737404
posZ: 0.488611280918
velX: -0.11945822835
velY: 0.0179850421846
velZ: -0.748555719852
accX: 0.0
accY: 0.0
accZ: 0.0
---
header: 
  seq: 110751
  stamp: 
    secs: 1596524151
    nsecs: 670039882
  frame_id: "node1_radarinterface_radarscan"
range: 2.11066031456
angle: -0.290649443865
elev: 0.193067833781
doppler: 0.0
snr: 186
noise: 403
frame_num: 12869
point_id: 0
x: -0.593623220921
y: 1.98456418514
z: 0.404973715544
doppler_bin: 32
target_idx: 13
posX: -0.699496626854
posY: 2.07041096687
posZ: 0.463715583086
velX: 0.0277518928051
velY: 0.0725180879235
velZ: -0.700132846832
accX: 0.0
accY: 0.0
accZ: 0.0
---
header: 
  seq: 110752
  stamp: 
    secs: 1596524151
    nsecs: 670165218
  frame_id: "node1_radarinterface_radarscan"
range: 2.18883275986
angle: -0.287431925535
elev: 0.125805228949
doppler: 0.0
snr: 247
noise: 405
frame_num: 12869
point_id: 1
x: -0.615609228611
y: 2.08244729042
z: 0.274640798569
doppler_bin: 32
target_idx: 13
posX: -0.699496626854
posY: 2.07041096687
posZ: 0.463715583086
velX: 0.0277518928051
velY: 0.0725180879235
velZ: -0.700132846832
accX: 0.0
accY: 0.0
accZ: 0.0
---
header: 
  seq: 110753
  stamp: 
    secs: 1596524151
    nsecs: 670185218
  frame_id: "node1_radarinterface_radarscan"
range: 2.11066031456
angle: -0.292842537165
elev: 0.22729589045
doppler: 0.0795030742884
snr: 163
noise: 429
frame_num: 12869
point_id: 2
x: -0.593623161316
y: 1.9688270092
z: 0.475624203682
doppler_bin: 33
target_idx: 13
posX: -0.699496626854
posY: 2.07041096687
posZ: 0.463715583086
velX: 0.0277518928051
velY: 0.0725180879235
velZ: -0.700132846832
accX: 0.0
accY: 0.0
accZ: 0.0
---
header: 
  seq: 110754
  stamp: 
    secs: 1596524151
    nsecs: 670209894
  frame_id: "node1_radarinterface_radarscan"
range: 2.34517812729
angle: -0.295789062977
elev: 0.2659073174
doppler: 0.0795030742884
snr: 262
noise: 409
frame_num: 12869
point_id: 4
x: -0.659581363201
y: 2.16448974609
z: 0.61627715826
doppler_bin: 33
target_idx: 13
posX: -0.699496626854
posY: 2.07041096687
posZ: 0.463715583086
velX: 0.0277518928051
velY: 0.0725180879235
velZ: -0.700132846832
accX: 0.0
accY: 0.0
accZ: 0.0
---
header: 
  seq: 110755
  stamp: 
    secs: 1596524151
    nsecs: 670229620
  frame_id: "node1_radarinterface_radarscan"
range: 1.79796981812
angle: -0.37343904376
elev: 0.341520518064
doppler: -0.874533832073
snr: 226
noise: 373
frame_num: 12869
point_id: 10
x: -0.618052124977
y: 1.57736825943
z: 0.602176368237
doppler_bin: 21
target_idx: 13
posX: -0.699496626854
posY: 2.07041096687
posZ: 0.463715583086
velX: 0.0277518928051
velY: 0.0725180879235
velZ: -0.700132846832
accX: 0.0
accY: 0.0
accZ: 0.0
---
header: 
  seq: 110756
  stamp: 
    secs: 1596524151
    nsecs: 670247502
  frame_id: "node1_radarinterface_radarscan"
range: 2.11066031456
angle: -0.289786636829
elev: 0.177661553025
doppler: -0.0795030742884
snr: 246
noise: 405
frame_num: 12869
point_id: 11
x: -0.593623220921
y: 1.99081885815
z: 0.373013675213
doppler_bin: 31
target_idx: 13
posX: -0.699496626854
posY: 2.07041096687
posZ: 0.463715583086
velX: 0.0277518928051
velY: 0.0725180879235
velZ: -0.700132846832
accX: 0.0
accY: 0.0
accZ: 0.0
---
header: 
  seq: 110757
  stamp: 
    secs: 1596524151
    nsecs: 670267666
  frame_id: "node1_radarinterface_radarscan"
range: 2.18883275986
angle: -0.287570238113
elev: 0.129450529814
doppler: -0.0795030742884
snr: 316
noise: 394
frame_num: 12869
point_id: 12
x: -0.615609169006
y: 2.08138823509
z: 0.282554864883
doppler_bin: 31
target_idx: 13
posX: -0.699496626854
posY: 2.07041096687
posZ: 0.463715583086
velX: 0.0277518928051
velY: 0.0725180879235
velZ: -0.700132846832
accX: 0.0
accY: 0.0
accZ: 0.0
---
header: 
  seq: 110758
  stamp: 
    secs: 1596524151
    nsecs: 670368633
  frame_id: "node1_radarinterface_radarscan"
range: 2.42335057259
angle: -0.255275905132
elev: 0.141181364655
doppler: -0.0795030742884
snr: 267
noise: 399
frame_num: 12869
point_id: 13
x: -0.605837643147
y: 2.32148885727
z: 0.34099650383
doppler_bin: 31
target_idx: 13
posX: -0.699496626854
posY: 2.07041096687
posZ: 0.463715583086
velX: 0.0277518928051
velY: 0.0725180879235
velZ: -0.700132846832
accX: 0.0
accY: 0.0
accZ: 0.0
---
header: 
  seq: 110759
  stamp: 
    secs: 1596524151
    nsecs: 771921039
  frame_id: "node1_radarinterface_radarscan"
range: 2.26700544357
angle: -0.293030112982
elev: 0.229968205094
doppler: 0.159006148577
snr: 301
noise: 374
frame_num: 12870
point_id: 4
x: -0.637595355511
y: 2.11323189735
z: 0.516756117344
doppler_bin: 34
target_idx: 13
posX: -0.68302822113
posY: 2.12295484543
posZ: 0.557453036308
velX: 0.0616445094347
velY: 0.330895841122
velZ: -0.3065289855
accX: 0.0
accY: 0.0
accZ: 0.0
---
header: 
  seq: 110760
  stamp: 
    secs: 1596524151
    nsecs: 772056524
  frame_id: "node1_radarinterface_radarscan"
range: 2.34517812729
angle: -0.301116317511
elev: 0.322992026806
doppler: 0.318012297153
snr: 271
noise: 377
frame_num: 12870
point_id: 10
x: -0.659581303596
y: 2.1238462925
z: 0.744371950626
doppler_bin: 36
target_idx: 13
posX: -0.68302822113
posY: 2.12295484543
posZ: 0.557453036308
velX: 0.0616445094347
velY: 0.330895841122
velZ: -0.3065289855
accX: 0.0
accY: 0.0
accZ: 0.0
---
header: 
  seq: 110761
  stamp: 
    secs: 1596524151
    nsecs: 772098474
  frame_id: "node1_radarinterface_radarscan"
range: 2.34517812729
angle: -0.310480058193
elev: 0.401247799397
doppler: 1.03354001045
snr: 180
noise: 374
frame_num: 12870
point_id: 12
x: -0.659581303596
y: 2.05568671227
z: 0.915950000286
doppler_bin: 45
target_idx: 13
posX: -0.68302822113
posY: 2.12295484543
posZ: 0.557453036308
velX: 0.0616445094347
velY: 0.330895841122
velZ: -0.3065289855
accX: 0.0
accY: 0.0
accZ: 0.0
---
header: 
  seq: 110762
  stamp: 
    secs: 1596524151
    nsecs: 772175547
  frame_id: "node1_radarinterface_radarscan"
range: 2.42335057259
angle: -0.309860616922
elev: 0.396663218737
doppler: 1.03354001045
snr: 205
noise: 376
frame_num: 12870
point_id: 13
x: -0.681567370892
y: 2.12874174118
z: 0.93624407053
doppler_bin: 45
target_idx: 13
posX: -0.68302822113
posY: 2.12295484543
posZ: 0.557453036308
velX: 0.0616445094347
velY: 0.330895841122
velZ: -0.3065289855
accX: 0.0
accY: 0.0
accZ: 0.0
---
header: 
  seq: 110763
  stamp: 
    secs: 1596524151
    nsecs: 772203147
  frame_id: "node1_radarinterface_radarscan"
range: 2.34517812729
angle: -0.317966282368
elev: 0.451920360327
doppler: 1.11304306984
snr: 167
noise: 379
frame_num: 12870
point_id: 15
x: -0.659581363201
y: 2.00399112701
z: 1.02412497997
doppler_bin: 46
target_idx: 13
posX: -0.68302822113
posY: 2.12295484543
posZ: 0.557453036308
velX: 0.0616445094347
velY: 0.330895841122
velZ: -0.3065289855
accX: 0.0
accY: 0.0
accZ: 0.0
---
header: 
  seq: 110764
  stamp: 
    secs: 1596524151
    nsecs: 772270694
  frame_id: "node1_radarinterface_radarscan"
range: 2.42335057259
angle: -0.313372910023
elev: 0.421802520752
doppler: 1.11304306984
snr: 193
noise: 381
frame_num: 12870
point_id: 16
x: -0.681567370892
y: 2.10327482224
z: 0.992133438587
doppler_bin: 46
target_idx: 13
posX: -0.68302822113
posY: 2.12295484543
posZ: 0.557453036308
velX: 0.0616445094347
velY: 0.330895841122
velZ: -0.3065289855
accX: 0.0
accY: 0.0
accZ: 0.0
---
header: 
  seq: 110765
  stamp: 
    secs: 1596524151
    nsecs: 772299511
  frame_id: "node1_radarinterface_radarscan"
range: 2.5015232563
angle: -0.312364608049
elev: 0.414790987968
doppler: 1.11304306984
snr: 154
noise: 382
frame_num: 12870
point_id: 17
x: -0.703553438187
y: 2.1786108017
z: 1.00811052322
doppler_bin: 46
target_idx: 13
posX: -0.68302822113
posY: 2.12295484543
posZ: 0.557453036308
velX: 0.0616445094347
velY: 0.330895841122
velZ: -0.3065289855
accX: 0.0
accY: 0.0
accZ: 0.0
---
header: 
  seq: 110766
  stamp: 
    secs: 1596524151
    nsecs: 872046109
  frame_id: "node1_radarinterface_radarscan"
range: 2.26700544357
angle: -0.296093851328
elev: 0.269551455975
doppler: 0.0
snr: 276
noise: 396
frame_num: 12871
point_id: 0
x: -0.637595295906
y: 2.09005522728
z: 0.603701531887
doppler_bin: 32
target_idx: 13
posX: -0.679674506187
posY: 2.14810299873
posZ: 0.626640319824
velX: 0.0855540335178
velY: 0.313385307789
velZ: -0.0444027781487
accX: 0.0
accY: 0.0
accZ: 0.0
---
header: 
  seq: 110767
  stamp: 
    secs: 1596524151
    nsecs: 872103285
  frame_id: "node1_radarinterface_radarscan"
range: 2.34517812729
angle: -0.297538071871
elev: 0.286107361317
doppler: 0.0
snr: 291
noise: 391
frame_num: 12871
point_id: 1
x: -0.659581363201
y: 2.15099024773
z: 0.661856114864
doppler_bin: 32
target_idx: 13
posX: -0.679674506187
posY: 2.14810299873
posZ: 0.626640319824
velX: 0.0855540335178
velY: 0.313385307789
velZ: -0.0444027781487
accX: 0.0
accY: 0.0
accZ: 0.0
---
header: 
  seq: 110768
  stamp: 
    secs: 1596524151
    nsecs: 872204927
  frame_id: "node1_radarinterface_radarscan"
range: 2.42335057259
angle: -0.302333444357
elev: 0.334456920624
doppler: 0.0
snr: 263
noise: 388
frame_num: 12871
point_id: 2
x: -0.681567311287
y: 2.18524742126
z: 0.795479953289
doppler_bin: 32
target_idx: 13
posX: -0.679674506187
posY: 2.14810299873
posZ: 0.626640319824
velX: 0.0855540335178
velY: 0.313385307789
velZ: -0.0444027781487
accX: 0.0
accY: 0.0
accZ: 0.0
---
header: 
  seq: 110769
  stamp: 
    secs: 1596524151
    nsecs: 872222336
  frame_id: "node1_radarinterface_radarscan"
range: 2.5015232563
angle: -0.307708024979
elev: 0.380172789097
doppler: 0.0
snr: 209
noise: 400
frame_num: 12871
point_id: 3
x: -0.703553378582
y: 2.21380901337
z: 0.928267598152
doppler_bin: 32
target_idx: 13
posX: -0.679674506187
posY: 2.14810299873
posZ: 0.626640319824
velX: 0.0855540335178
velY: 0.313385307789
velZ: -0.0444027781487
accX: 0.0
accY: 0.0
accZ: 0.0
---
header: 
  seq: 110770
  stamp: 
    secs: 1596524151
    nsecs: 872274575
