header: 
  seq: 69766
  stamp: 
    secs: 1596523662
    nsecs: 450317454
  frame_id: "node1_radarinterface_radarscan"
range: 1.87614250183
angle: -0.357546359301
elev: 0.467014759779
doppler: 0.0
snr: 162
noise: 401
frame_num: 8210
point_id: 0
x: -0.586294531822
y: 1.56929337978
z: 0.844681978226
doppler_bin: 32
target_idx: 19
posX: -0.564217150211
posY: 1.61444938183
posZ: 0.657998919487
velX: 0.0243745651096
velY: -0.108525671065
velZ: 0.444226294756
accX: 0.0
accY: 0.0
accZ: 0.0
---
header: 
  seq: 69767
  stamp: 
    secs: 1596523662
    nsecs: 450400842
  frame_id: "node1_radarinterface_radarscan"
range: 1.6416246891
angle: -0.329002678394
elev: 0.256851106882
doppler: 0.0795030742884
snr: 161
noise: 405
frame_num: 8210
point_id: 4
x: -0.513007700443
y: 1.50261068344
z: 0.417032122612
doppler_bin: 33
target_idx: 19
posX: -0.564217150211
posY: 1.61444938183
posZ: 0.657998919487
velX: 0.0243745651096
velY: -0.108525671065
velZ: 0.444226294756
accX: 0.0
accY: 0.0
accZ: 0.0
---
header: 
  seq: 69768
  stamp: 
    secs: 1596523662
    nsecs: 450414894
  frame_id: "node1_radarinterface_radarscan"
range: 1.79796981812
angle: -0.351807594299
elev: 0.0700557008386
doppler: 0.0795030742884
snr: 188
noise: 425
frame_num: 8210
point_id: 6
x: -0.618052124977
y: 1.68370652199
z: 0.125855028629
doppler_bin: 33
target_idx: 19
posX: -0.564217150211
posY: 1.61444938183
posZ: 0.657998919487
velX: 0.0243745651096
velY: -0.108525671065
velZ: 0.444226294756
accX: 0.0
accY: 0.0
accZ: 0.0
---
header: 
  seq: 69769
  stamp: 
    secs: 1596523662
    nsecs: 450426189
  frame_id: "node1_radarinterface_radarscan"
range: 1.87614250183
angle: -0.357096970081
elev: 0.182511821389
doppler: 0.0795030742884
snr: 172
noise: 433
frame_num: 8210
point_id: 7
x: -0.644923985004
y: 1.72859179974
z: 0.340520322323
doppler_bin: 33
target_idx: 19
posX: -0.564217150211
posY: 1.61444938183
posZ: 0.657998919487
velX: 0.0243745651096
velY: -0.108525671065
velZ: 0.444226294756
accX: 0.0
accY: 0.0
accZ: 0.0
---
header: 
  seq: 69770
  stamp: 
    secs: 1596523662
    nsecs: 450439909
  frame_id: "node1_radarinterface_radarscan"
range: 2.03248763084
angle: -0.368625313044
elev: 0.521139740944
doppler: 0.0795030742884
snr: 191
noise: 462
frame_num: 8210
point_id: 9
x: -0.63515239954
y: 1.64426910877
z: 1.01191234589
doppler_bin: 33
target_idx: 19
posX: -0.564217150211
posY: 1.61444938183
posZ: 0.657998919487
velX: 0.0243745651096
velY: -0.108525671065
velZ: 0.444226294756
accX: 0.0
accY: 0.0
accZ: 0.0
---
header: 
  seq: 69771
  stamp: 
    secs: 1596523662
    nsecs: 450455861
  frame_id: "node1_radarinterface_radarscan"
range: 1.95431506634
angle: -0.390736222267
elev: 0.608525931835
doppler: 0.159006148577
snr: 180
noise: 396
frame_num: 8210
point_id: 11
x: -0.610723495483
y: 1.48264157772
z: 1.11720108986
doppler_bin: 34
target_idx: 19
posX: -0.564217150211
posY: 1.61444938183
posZ: 0.657998919487
velX: 0.0243745651096
velY: -0.108525671065
velZ: 0.444226294756
accX: 0.0
accY: 0.0
accZ: 0.0
---
header: 
  seq: 69772
  stamp: 
    secs: 1596523662
    nsecs: 450471899
  frame_id: "node1_radarinterface_radarscan"
range: 2.03248763084
angle: -0.294530123472
elev: 0.533156514168
doppler: -0.159006148577
snr: 214
noise: 393
frame_num: 8210
point_id: 14
x: -0.508121907711
y: 1.67501842976
z: 1.03302049637
doppler_bin: 30
target_idx: 19
posX: -0.564217150211
posY: 1.61444938183
posZ: 0.657998919487
velX: 0.0243745651096
velY: -0.108525671065
velZ: 0.444226294756
accX: 0.0
accY: 0.0
accZ: 0.0
---
header: 
  seq: 69773
  stamp: 
    secs: 1596523662
    nsecs: 450488035
  frame_id: "node1_radarinterface_radarscan"
range: 1.6416246891
angle: -0.324477285147
elev: 0.199341192842
doppler: -0.0795030742884
snr: 210
noise: 376
frame_num: 8210
point_id: 16
x: -0.513007700443
y: 1.52514827251
z: 0.32508045435
doppler_bin: 31
target_idx: 19
posX: -0.564217150211
posY: 1.61444938183
posZ: 0.657998919487
velX: 0.0243745651096
velY: -0.108525671065
velZ: 0.444226294756
accX: 0.0
accY: 0.0
accZ: 0.0
---
header: 
  seq: 69774
  stamp: 
    secs: 1596523662
    nsecs: 450510542
  frame_id: "node1_radarinterface_radarscan"
range: 1.71979725361
angle: -0.321451365948
elev: 0.147785186768
doppler: -0.0795030742884
snr: 240
noise: 379
frame_num: 8210
point_id: 17
x: -0.537436664104
y: 1.61391937733
z: 0.253236413002
doppler_bin: 31
target_idx: 19
posX: -0.564217150211
posY: 1.61444938183
posZ: 0.657998919487
velX: 0.0243745651096
velY: -0.108525671065
velZ: 0.444226294756
accX: 0.0
accY: 0.0
accZ: 0.0
---
header: 
  seq: 69775
  stamp: 
    secs: 1596523662
    nsecs: 450565846
  frame_id: "node1_radarinterface_radarscan"
range: 1.87614250183
angle: -0.229296252131
elev: 0.275028914213
doppler: -0.0795030742884
snr: 170
noise: 394
frame_num: 8210
point_id: 19
x: -0.410406202078
y: 1.75837254524
z: 0.509512960911
doppler_bin: 31
target_idx: 19
posX: -0.564217150211
posY: 1.61444938183
posZ: 0.657998919487
velX: 0.0243745651096
velY: -0.108525671065
velZ: 0.444226294756
accX: 0.0
accY: 0.0
accZ: 0.0
---
header: 
  seq: 69776
  stamp: 
    secs: 1596523662
    nsecs: 450587344
  frame_id: "node1_radarinterface_radarscan"
range: 1.95431506634
angle: -0.2743922472
elev: 0.395928889513
doppler: -0.0795030742884
snr: 190
noise: 406
frame_num: 8210
point_id: 20
x: -0.488578796387
y: 1.73567187786
z: 0.753711700439
doppler_bin: 31
target_idx: 19
posX: -0.564217150211
posY: 1.61444938183
posZ: 0.657998919487
velX: 0.0243745651096
velY: -0.108525671065
velZ: 0.444226294756
accX: 0.0
accY: 0.0
accZ: 0.0
---
header: 
  seq: 69777
  stamp: 
    secs: 1596523662
    nsecs: 551931926
  frame_id: "node1_radarinterface_radarscan"
range: 1.6416246891
angle: -0.373919814825
elev: 0.344951450825
doppler: 0.0
snr: 135
noise: 390
frame_num: 8211
point_id: 0
x: -0.564308464527
y: 1.438169837
z: 0.55511701107
doppler_bin: 32
target_idx: 19
posX: -0.562176167965
posY: 1.63024663925
posZ: 0.662037849426
velX: 0.0509445220232
velY: -0.0506186336279
velZ: 0.343949317932
accX: 0.0
accY: 0.0
accZ: 0.0
---
header: 
  seq: 69778
  stamp: 
    secs: 1596523662
    nsecs: 552016828
  frame_id: "node1_radarinterface_radarscan"
range: 1.95431506634
angle: -0.394394278526
elev: 0.463256388903
doppler: 0.0
snr: 176
noise: 394
frame_num: 8211
point_id: 4
x: -0.671795785427
y: 1.61411380768
z: 0.873312354088
doppler_bin: 32
target_idx: 19
posX: -0.562176167965
posY: 1.63024663925
posZ: 0.662037849426
velX: 0.0509445220232
velY: -0.0506186336279
velZ: 0.343949317932
accX: 0.0
accY: 0.0
accZ: 0.0
---
header: 
  seq: 69779
  stamp: 
    secs: 1596523662
    nsecs: 552028819
  frame_id: "node1_radarinterface_radarscan"
range: 1.6416246891
angle: -0.332189828157
elev: 0.28996437788
doppler: 0.0795030742884
snr: 180
noise: 384
frame_num: 8211
point_id: 6
x: -0.513007700443
y: 1.48709321022
z: 0.469370186329
doppler_bin: 33
target_idx: 19
posX: -0.562176167965
posY: 1.63024663925
posZ: 0.662037849426
velX: 0.0509445220232
velY: -0.0506186336279
velZ: 0.343949317932
accX: 0.0
accY: 0.0
accZ: 0.0
---
header: 
  seq: 69780
  stamp: 
    secs: 1596523662
    nsecs: 552040358
  frame_id: "node1_radarinterface_radarscan"
range: 1.71979725361
angle: -0.331628024578
elev: 0.284445613623
doppler: 0.0795030742884
snr: 213
noise: 390
frame_num: 8211
point_id: 7
x: -0.537436664104
y: 1.5607509613
z: 0.482618778944
doppler_bin: 33
target_idx: 19
posX: -0.562176167965
posY: 1.63024663925
posZ: 0.662037849426
velX: 0.0509445220232
velY: -0.0506186336279
velZ: 0.343949317932
accX: 0.0
accY: 0.0
accZ: 0.0
---
header: 
  seq: 69781
  stamp: 
    secs: 1596523662
    nsecs: 552050680
  frame_id: "node1_radarinterface_radarscan"
range: 1.87614250183
angle: -0.326065331697
elev: 0.221393212676
doppler: 0.0795030742884
snr: 202
noise: 405
frame_num: 8211
point_id: 9
x: -0.586294531822
y: 1.73390936852
z: 0.411980330944
doppler_bin: 33
target_idx: 19
posX: -0.562176167965
posY: 1.63024663925
posZ: 0.662037849426
velX: 0.0509445220232
velY: -0.0506186336279
velZ: 0.343949317932
accX: 0.0
accY: 0.0
accZ: 0.0
---
header: 
  seq: 69782
  stamp: 
    secs: 1596523662
    nsecs: 552059829
  frame_id: "node1_radarinterface_radarscan"
range: 2.03248763084
angle: -0.364917516708
elev: 0.503988206387
doppler: 0.0795030742884
snr: 197
noise: 440
frame_num: 8211
point_id: 11
x: -0.63515239954
y: 1.66258275509
z: 0.981532394886
doppler_bin: 33
target_idx: 19
posX: -0.562176167965
posY: 1.63024663925
posZ: 0.662037849426
velX: 0.0509445220232
velY: -0.0506186336279
velZ: 0.343949317932
accX: 0.0
accY: 0.0
accZ: 0.0
---
header: 
  seq: 69783
  stamp: 
    secs: 1596523662
    nsecs: 552123728
  frame_id: "node1_radarinterface_radarscan"
range: 1.87614250183
angle: -0.335867732763
elev: 0.323426753283
doppler: 0.159006148577
snr: 156
noise: 385
frame_num: 8211
point_id: 14
x: -0.586294531822
y: 1.67947328091
z: 0.596270918846
doppler_bin: 34
target_idx: 19
posX: -0.562176167965
posY: 1.63024663925
posZ: 0.662037849426
velX: 0.0509445220232
velY: -0.0506186336279
velZ: 0.343949317932
accX: 0.0
accY: 0.0
accZ: 0.0
---
header: 
  seq: 69784
  stamp: 
    secs: 1596523662
    nsecs: 552151311
  frame_id: "node1_radarinterface_radarscan"
range: 2.03248763084
angle: -0.366927355528
elev: 0.51339417696
doppler: 0.159006148577
snr: 206
noise: 403
frame_num: 8211
point_id: 16
x: -0.63515239954
y: 1.65261173248
z: 0.998229205608
doppler_bin: 34
target_idx: 19
posX: -0.562176167965
posY: 1.63024663925
posZ: 0.662037849426
velX: 0.0509445220232
velY: -0.0506186336279
velZ: 0.343949317932
accX: 0.0
accY: 0.0
accZ: 0.0
---
header: 
  seq: 69785
  stamp: 
    secs: 1596523662
    nsecs: 552163349
  frame_id: "node1_radarinterface_radarscan"
range: 2.11066031456
angle: -0.362621128559
elev: 0.492906361818
doppler: 0.159006148577
snr: 153
noise: 419
frame_num: 8211
point_id: 17
x: -0.659581363201
y: 1.73849320412
z: 0.998739719391
doppler_bin: 34
target_idx: 19
posX: -0.562176167965
posY: 1.63024663925
posZ: 0.662037849426
velX: 0.0509445220232
velY: -0.0506186336279
velZ: 0.343949317932
accX: 0.0
accY: 0.0
accZ: 0.0
---
header: 
  seq: 69786
  stamp: 
    secs: 1596523662
    nsecs: 552172950
  frame_id: "node1_radarinterface_radarscan"
range: 1.6416246891
angle: -0.262656927109
elev: 0.273450881243
doppler: -0.0795030742884
snr: 136
noise: 381
frame_num: 8211
point_id: 19
x: -0.410406142473
y: 1.52641952038
z: 0.443330109119
doppler_bin: 31
target_idx: 19
posX: -0.562176167965
posY: 1.63024663925
posZ: 0.662037849426
velX: 0.0509445220232
velY: -0.0506186336279
velZ: 0.343949317932
accX: 0.0
accY: 0.0
accZ: 0.0
---
header: 
  seq: 69787
  stamp: 
    secs: 1596523662
    nsecs: 552189786
  frame_id: "node1_radarinterface_radarscan"
range: 1.71979725361
angle: -0.313690811396
elev: 0.423981189728
doppler: -0.0795030742884
snr: 167
noise: 385
frame_num: 8211
point_id: 20
x: -0.483693003654
y: 1.49103033543
z: 0.707511484623
doppler_bin: 31
target_idx: 19
posX: -0.562176167965
posY: 1.63024663925
posZ: 0.662037849426
velX: 0.0509445220232
velY: -0.0506186336279
velZ: 0.343949317932
accX: 0.0
accY: 0.0
accZ: 0.0
---
header: 
  seq: 69788
  stamp: 
    secs: 1596523662
    nsecs: 552204770
  frame_id: "node1_radarinterface_radarscan"
range: 2.03248763084
angle: -0.257347673178
elev: 0.188669264317
doppler: -0.0795030742884
snr: 129
noise: 423
frame_num: 8211
point_id: 23
x: -0.508121907711
y: 1.93067526817
z: 0.38119700551
doppler_bin: 31
target_idx: 19
posX: -0.562176167965
posY: 1.63024663925
posZ: 0.662037849426
velX: 0.0509445220232
velY: -0.0506186336279
velZ: 0.343949317932
accX: 0.0
accY: 0.0
accZ: 0.0
---
header: 
  seq: 69789
  stamp: 
    secs: 1596523662
    nsecs: 552270295
  frame_id: "node1_radarinterface_radarscan"
range: 2.11066031456
angle: -0.264517068863
elev: 0.296959042549
doppler: -0.0795030742884
snr: 129
noise: 443
frame_num: 8211
point_id: 24
x: -0.52766507864
y: 1.94808042049
z: 0.617608129978
doppler_bin: 31
target_idx: 19
posX: -0.562176167965
posY: 1.63024663925
posZ: 0.662037849426
velX: 0.0509445220232
velY: -0.0506186336279
velZ: 0.343949317932
accX: 0.0
accY: 0.0
accZ: 0.0
---
header: 
  seq: 69790
  stamp: 
    secs: 1596523662
    nsecs: 652221996
  frame_id: "node1_radarinterface_radarscan"
range: 1.87614250183
angle: -0.353320658207
elev: 0.114488981664
doppler: 0.0
snr: 187
noise: 396
frame_num: 8212
point_id: 0
x: -0.6449239254
y: 1.74872720242
z: 0.214328706264
doppler_bin: 32
target_idx: 19
posX: -0.575186133385
posY: 1.64058756828
posZ: 0.504961967468
velX: 0.0294528603554
velY: -0.0813793092966
velZ: -0.295904815197
accX: 0.0
accY: 0.0
accZ: 0.0
---
header: 
  seq: 69791
  stamp: 
    secs: 1596523662
    nsecs: 652300668
  frame_id: "node1_radarinterface_radarscan"
range: 1.71979725361
angle: -0.324788451195
elev: 0.203865408897
doppler: 0.0795030742884
snr: 167
noise: 406
frame_num: 8212
point_id: 4
x: -0.5374366045
y: 1.5961304903
z: 0.348183602095
doppler_bin: 33
target_idx: 19
posX: -0.575186133385
posY: 1.64058756828
posZ: 0.504961967468
velX: 0.0294528603554
velY: -0.0813793092966
velZ: -0.295904815197
accX: 0.0
accY: 0.0
accZ: 0.0
---
header: 
  seq: 69792
  stamp: 
    secs: 1596523662
    nsecs: 652314162
  frame_id: "node1_radarinterface_radarscan"
range: 1.87614250183
angle: -0.354097902775
elev: 0.13151538372
doppler: 0.0795030742884
snr: 203
noise: 427
frame_num: 8212
point_id: 6
x: -0.644923985004
y: 1.74454939365
z: 0.246030926704
doppler_bin: 33
target_idx: 19
posX: -0.575186133385
posY: 1.64058756828
posZ: 0.504961967468
velX: 0.0294528603554
velY: -0.0813793092966
velZ: -0.295904815197
accX: 0.0
accY: 0.0
accZ: 0.0
---
header: 
  seq: 69793
  stamp: 
    secs: 1596523662
    nsecs: 652324214
  frame_id: "node1_radarinterface_radarscan"
range: 2.11066031456
angle: -0.310328274965
elev: 0.400130748749
doppler: 0.0795030742884
snr: 114
noise: 465
frame_num: 8212
point_id: 9
x: -0.593623220921
y: 1.85108399391
z: 0.822184026241
doppler_bin: 33
target_idx: 19
posX: -0.575186133385
posY: 1.64058756828
posZ: 0.504961967468
velX: 0.0294528603554
velY: -0.0813793092966
velZ: -0.295904815197
accX: 0.0
accY: 0.0
accZ: 0.0
---
header: 
  seq: 69794
  stamp: 
    secs: 1596523662
    nsecs: 652334224
  frame_id: "node1_radarinterface_radarscan"
range: 1.6416246891
angle: -0.356339037418
elev: 0.171130105853
doppler: -0.795030713081
snr: 288
noise: 358
frame_num: 8212
point_id: 14
x: -0.564308464527
y: 1.51602518559
z: 0.279562205076
doppler_bin: 22
target_idx: 19
posX: -0.575186133385
posY: 1.64058756828
posZ: 0.504961967468
velX: 0.0294528603554
velY: -0.0813793092966
velZ: -0.295904815197
accX: 0.0
accY: 0.0
accZ: 0.0
---
header: 
  seq: 69795
  stamp: 
    secs: 1596523662
    nsecs: 652353577
  frame_id: "node1_radarinterface_radarscan"
range: 1.56345200539
angle: -0.35871848464
elev: 0.204627647996
doppler: -0.715527653694
snr: 277
noise: 364
frame_num: 8212
point_id: 16
x: -0.537436664104
y: 1.43339192867
z: 0.317697495222
doppler_bin: 23
target_idx: 19
posX: -0.575186133385
posY: 1.64058756828
posZ: 0.504961967468
velX: 0.0294528603554
velY: -0.0813793092966
velZ: -0.295904815197
accX: 0.0
accY: 0.0
accZ: 0.0
---
header: 
  seq: 69796
  stamp: 
    secs: 1596523662
    nsecs: 652369588
  frame_id: "node1_radarinterface_radarscan"
range: 1.6416246891
angle: -0.323323190212
elev: 0.181507855654
doppler: -0.715527653694
snr: 359
noise: 365
frame_num: 8212
point_id: 17
x: -0.513007700443
y: 1.5309933424
z: 0.296334385872
doppler_bin: 23
target_idx: 19
posX: -0.575186133385
posY: 1.64058756828
posZ: 0.504961967468
velX: 0.0294528603554
velY: -0.0813793092966
velZ: -0.295904815197
accX: 0.0
accY: 0.0
accZ: 0.0
---
header: 
  seq: 69797
  stamp: 
    secs: 1596523662
    nsecs: 652391389
  frame_id: "node1_radarinterface_radarscan"
range: 1.79796981812
angle: -0.321222096682
elev: 0.143083184958
doppler: -0.715527653694
snr: 312
noise: 372
frame_num: 8212
point_id: 19
x: -0.561865568161
y: 1.68857061863
z: 0.256382346153
doppler_bin: 23
target_idx: 19
posX: -0.575186133385
posY: 1.64058756828
posZ: 0.504961967468
velX: 0.0294528603554
velY: -0.0813793092966
velZ: -0.295904815197
accX: 0.0
accY: 0.0
accZ: 0.0
---
header: 
  seq: 69798
  stamp: 
    secs: 1596523662
    nsecs: 652447561
  frame_id: "node1_radarinterface_radarscan"
range: 1.56345200539
angle: -0.358848750591
elev: 0.206294551492
doppler: -0.636024594307
snr: 328
noise: 368
frame_num: 8212
point_id: 20
x: -0.5374366045
y: 1.43282401562
z: 0.320248812437
doppler_bin: 24
target_idx: 19
posX: -0.575186133385
posY: 1.64058756828
posZ: 0.504961967468
velX: 0.0294528603554
velY: -0.0813793092966
velZ: -0.295904815197
accX: 0.0
accY: 0.0
accZ: 0.0
---
header: 
  seq: 69799
  stamp: 
    secs: 1596523662
    nsecs: 652469919
  frame_id: "node1_radarinterface_radarscan"
range: 1.79796981812
angle: -0.354878783226
elev: 0.146589592099
doppler: -0.636024594307
snr: 368
noise: 377
frame_num: 8212
point_id: 23
x: -0.618052124977
y: 1.66785407066
z: 0.262620747089
doppler_bin: 24
target_idx: 19
posX: -0.575186133385
posY: 1.64058756828
posZ: 0.504961967468
velX: 0.0294528603554
velY: -0.0813793092966
velZ: -0.295904815197
accX: 0.0
accY: 0.0
accZ: 0.0
---
header: 
  seq: 69800
  stamp: 
    secs: 1596523662
    nsecs: 652490624
  frame_id: "node1_radarinterface_radarscan"
range: 1.87614250183
angle: -0.352116048336
elev: 0.0811440721154
doppler: -0.636024594307
snr: 219
noise: 389
frame_num: 8212
point_id: 24
x: -0.644923985004
y: 1.75523734093
z: 0.152070835233
doppler_bin: 24
target_idx: 19
posX: -0.575186133385
posY: 1.64058756828
posZ: 0.504961967468
velX: 0.0294528603554
velY: -0.0813793092966
velZ: -0.295904815197
accX: 0.0
accY: 0.0
accZ: 0.0
---
header: 
  seq: 69801
  stamp: 
    secs: 1596523662
    nsecs: 652509534
  frame_id: "node1_radarinterface_radarscan"
range: 1.71979725361
angle: -0.357210963964
elev: 0.184159711003
doppler: -0.55652153492
snr: 410
noise: 370
frame_num: 8212
point_id: 31
x: -0.59118026495
y: 1.58399093151
z: 0.314930170774
doppler_bin: 25
target_idx: 19
posX: -0.575186133385
posY: 1.64058756828
posZ: 0.504961967468
velX: 0.0294528603554
velY: -0.0813793092966
velZ: -0.295904815197
accX: 0.0
accY: 0.0
accZ: 0.0
---
header: 
  seq: 69802
  stamp: 
    secs: 1596523662
    nsecs: 652541534
  frame_id: "node1_radarinterface_radarscan"
range: 1.79796981812
angle: -0.35599809885
elev: 0.165740564466
doppler: -0.55652153492
snr: 355
noise: 375
frame_num: 8212
point_id: 32
x: -0.618052184582
y: 1.66214179993
z: 0.296634078026
doppler_bin: 25
target_idx: 19
posX: -0.575186133385
posY: 1.64058756828
posZ: 0.504961967468
velX: 0.0294528603554
velY: -0.0813793092966
velZ: -0.295904815197
accX: 0.0
accY: 0.0
accZ: 0.0
---
header: 
  seq: 69803
  stamp: 
    secs: 1596523662
    nsecs: 652627182
  frame_id: "node1_radarinterface_radarscan"
range: 1.6416246891
angle: -0.360451132059
elev: 0.225715458393
doppler: -0.47701844573
snr: 305
noise: 360
frame_num: 8212
point_id: 34
x: -0.564308464527
y: 1.49716508389
z: 0.367401719093
doppler_bin: 26
target_idx: 19
posX: -0.575186133385
posY: 1.64058756828
posZ: 0.504961967468
velX: 0.0294528603554
velY: -0.0813793092966
velZ: -0.295904815197
accX: 0.0
accY: 0.0
accZ: 0.0
---
header: 
  seq: 69804
  stamp: 
    secs: 1596523662
    nsecs: 652659377
  frame_id: "node1_radarinterface_radarscan"
range: 1.71979725361
angle: -0.358694881201
elev: 0.204324096441
doppler: -0.47701844573
snr: 317
noise: 362
frame_num: 8212
point_id: 35
x: -0.591180324554
y: 1.5768443346
z: 0.348956078291
doppler_bin: 26
target_idx: 19
posX: -0.575186133385
posY: 1.64058756828
posZ: 0.504961967468
velX: 0.0294528603554
velY: -0.0813793092966
velZ: -0.295904815197
accX: 0.0
accY: 0.0
accZ: 0.0
---
header: 
  seq: 69805
  stamp: 
    secs: 1596523662
    nsecs: 652683294
  frame_id: "node1_radarinterface_radarscan"
range: 2.03248763084
angle: -0.29624530673
elev: 0.271341741085
doppler: -0.0795030742884
snr: 181
noise: 416
frame_num: 8212
point_id: 46
x: -0.571637153625
y: 1.87282621861
z: 0.544756114483
doppler_bin: 31
target_idx: 19
posX: -0.575186133385
posY: 1.64058756828
posZ: 0.504961967468
velX: 0.0294528603554
velY: -0.0813793092966
velZ: -0.295904815197
accX: 0.0
accY: 0.0
accZ: 0.0
---
header: 
  seq: 69806
  stamp: 
    secs: 1596523662
    nsecs: 750307647
  frame_id: "node1_radarinterface_radarscan"
range: 2.18883275986
angle: -0.262418448925
elev: 0.270267397165
doppler: 0.636024594307
snr: 150
noise: 370
frame_num: 8213
point_id: 9
x: -0.547208189964
y: 2.03716349602
z: 0.584394574165
doppler_bin: 40
target_idx: 19
posX: -0.541242301464
posY: 1.55956709385
posZ: 0.451201349497
velX: 0.214945092797
velY: -0.522682607174
velZ: -0.487352609634
accX: 0.0
accY: 0.0
accZ: 0.0
---
header: 
  seq: 69807
  stamp: 
    secs: 1596523662
    nsecs: 750374234
  frame_id: "node1_radarinterface_radarscan"
range: 1.6416246891
angle: -0.353399008512
elev: 0.116321392357
doppler: -2.14658308029
snr: 244
noise: 367
frame_num: 8213
point_id: 11
x: -0.564308464527
y: 1.52976715565
z: 0.190525740385
doppler_bin: 5
target_idx: 19
posX: -0.541242301464
posY: 1.55956709385
posZ: 0.451201349497
velX: 0.214945092797
velY: -0.522682607174
velZ: -0.487352609634
accX: 0.0
accY: 0.0
accZ: 0.0
---
header: 
  seq: 69808
  stamp: 
    secs: 1596523662
    nsecs: 750397578
  frame_id: "node1_radarinterface_radarscan"
range: 1.6416246891
angle: -0.354086220264
elev: 0.131276041269
doppler: -2.0670800209
snr: 268
noise: 370
frame_num: 8213
point_id: 14
x: -0.564308464527
y: 1.52653551102
z: 0.214887544513
doppler_bin: 6
target_idx: 19
posX: -0.541242301464
posY: 1.55956709385
posZ: 0.451201349497
velX: 0.214945092797
velY: -0.522682607174
velZ: -0.487352609634
accX: 0.0
accY: 0.0
accZ: 0.0
---
header: 
  seq: 69809
  stamp: 
    secs: 1596523662
    nsecs: 750415509
  frame_id: "node1_radarinterface_radarscan"
range: 1.48527944088
angle: -0.356503456831
elev: 0.17366604507
doppler: -1.98757684231
snr: 231
noise: 360
frame_num: 8213
point_id: 16
x: -0.510564804077
y: 1.37095236778
z: 0.256647974253
doppler_bin: 7
target_idx: 19
posX: -0.541242301464
posY: 1.55956709385
posZ: 0.451201349497
velX: 0.214945092797
velY: -0.522682607174
velZ: -0.487352609634
accX: 0.0
accY: 0.0
accZ: 0.0
---
header: 
  seq: 69810
  stamp: 
    secs: 1596523662
    nsecs: 750432029
  frame_id: "node1_radarinterface_radarscan"
range: 1.56345200539
angle: -0.355901390314
elev: 0.16417825222
doppler: -1.98757684231
snr: 269
noise: 367
frame_num: 8213
point_id: 17
x: -0.5374366045
y: 1.44576859474
z: 0.255533248186
doppler_bin: 7
target_idx: 19
posX: -0.541242301464
posY: 1.55956709385
posZ: 0.451201349497
velX: 0.214945092797
velY: -0.522682607174
velZ: -0.487352609634
accX: 0.0
accY: 0.0
accZ: 0.0
---
header: 
  seq: 69811
  stamp: 
    secs: 1596523662
    nsecs: 750448665
  frame_id: "node1_radarinterface_radarscan"
range: 1.71979725361
angle: -0.355033874512
elev: 0.14939622581
doppler: -1.98757684231
snr: 164
noise: 374
frame_num: 8213
point_id: 19
x: -0.591180324554
y: 1.59457969666
z: 0.255976527929
doppler_bin: 7
target_idx: 19
posX: -0.541242301464
posY: 1.55956709385
posZ: 0.451201349497
velX: 0.214945092797
velY: -0.522682607174
velZ: -0.487352609634
accX: 0.0
accY: 0.0
accZ: 0.0
---
header: 
  seq: 69812
  stamp: 
    secs: 1596523662
    nsecs: 750495967
  frame_id: "node1_radarinterface_radarscan"
range: 1.48527944088
angle: -0.321872502565
elev: 0.156040638685
doppler: -1.90807378292
snr: 212
noise: 367
frame_num: 8213
point_id: 20
x: -0.464149802923
y: 1.39188361168
z: 0.230824574828
doppler_bin: 8
target_idx: 19
posX: -0.541242301464
posY: 1.55956709385
posZ: 0.451201349497
velX: 0.214945092797
velY: -0.522682607174
velZ: -0.487352609634
accX: 0.0
accY: 0.0
accZ: 0.0
---
header: 
  seq: 69813
  stamp: 
    secs: 1596523662
    nsecs: 750524419
  frame_id: "node1_radarinterface_radarscan"
range: 1.6416246891
angle: -0.321327626705
elev: 0.145267099142
doppler: -1.82857072353
snr: 254
noise: 366
frame_num: 8213
point_id: 23
x: -0.513007700443
y: 1.54119551182
z: 0.237636208534
doppler_bin: 9
target_idx: 19
posX: -0.541242301464
posY: 1.55956709385
posZ: 0.451201349497
velX: 0.214945092797
velY: -0.522682607174
velZ: -0.487352609634
accX: 0.0
accY: 0.0
accZ: 0.0
---
header: 
  seq: 69814
  stamp: 
    secs: 1596523662
    nsecs: 750547041
  frame_id: "node1_radarinterface_radarscan"
range: 1.71979725361
angle: -0.292399078608
elev: 0.220836892724
doppler: -0.0795030742884
snr: 149
noise: 397
frame_num: 8213
point_id: 34
x: -0.483692973852
y: 1.6068072319
z: 0.376715183258
doppler_bin: 31
target_idx: 19
posX: -0.541242301464
posY: 1.55956709385
posZ: 0.451201349497
velX: 0.214945092797
velY: -0.522682607174
velZ: -0.487352609634
accX: 0.0
accY: 0.0
accZ: 0.0
---
header: 
  seq: 69815
  stamp: 
    secs: 1596523662
    nsecs: 750564077
  frame_id: "node1_radarinterface_radarscan"
range: 1.79796981812
angle: -0.321424633265
elev: 0.147244870663
doppler: -0.0795030742884
snr: 173
noise: 412
frame_num: 8213
point_id: 35
x: -0.561865568161
y: 1.68742978573
z: 0.263786226511
doppler_bin: 31
target_idx: 19
posX: -0.541242301464
posY: 1.55956709385
posZ: 0.451201349497
velX: 0.214945092797
velY: -0.522682607174
velZ: -0.487352609634
accX: 0.0
accY: 0.0
accZ: 0.0
---
header: 
  seq: 69816
  stamp: 
    secs: 1596523662
    nsecs: 750590471
  frame_id: "node1_radarinterface_radarscan"
range: 1.95431506634
angle: -0.305560678244
elev: 0.756620764732
doppler: -0.0795030742884
snr: 132
noise: 435
frame_num: 8213
point_id: 36
x: -0.427506446838
y: 1.35527193546
z: 1.34157502651
doppler_bin: 31
target_idx: 19
posX: -0.541242301464
posY: 1.55956709385
posZ: 0.451201349497
velX: 0.214945092797
velY: -0.522682607174
velZ: -0.487352609634
accX: 0.0
accY: 0.0
accZ: 0.0
---
header: 
  seq: 69817
  stamp: 
    secs: 1596523662
    nsecs: 845047892
  frame_id: "node1_radarinterface_radarscan"
range: 1.79796981812
angle: -0.323783636093
elev: 0.188838422298
doppler: 0.0795030742884
snr: 199
noise: 466
frame_num: 8214
point_id: 6
x: -0.561865508556
y: 1.6742426157
z: 0.337511479855
doppler_bin: 33
target_idx: 19
posX: -0.511649250984
posY: 1.51166749001
posZ: 0.392332732677
velX: 0.295584440231
velY: -0.606584906578
velZ: -0.621721684933
accX: 0.0
accY: 0.0
accZ: 0.0
---
header: 
  seq: 69818
  stamp: 
    secs: 1596523662
    nsecs: 845115509
  frame_id: "node1_radarinterface_radarscan"
range: 1.87614250183
angle: -0.323827773333
elev: 0.189525082707
doppler: 0.0795030742884
snr: 162
noise: 485
frame_num: 8214
point_id: 7
x: -0.586294531822
y: 1.7467802763
z: 0.353451192379
doppler_bin: 33
target_idx: 19
posX: -0.511649250984
posY: 1.51166749001
posZ: 0.392332732677
velX: 0.295584440231
velY: -0.606584906578
velZ: -0.621721684933
accX: 0.0
accY: 0.0
accZ: 0.0
---
header: 
  seq: 69819
  stamp: 
    secs: 1596523662
    nsecs: 845129067
  frame_id: "node1_radarinterface_radarscan"
range: 1.71979725361
angle: -0.325726956129
elev: 0.216897547245
doppler: 0.159006148577
snr: 215
noise: 425
frame_num: 8214
point_id: 9
x: -0.5374366045
y: 1.59119105339
z: 0.370101928711
doppler_bin: 34
target_idx: 19
posX: -0.511649250984
posY: 1.51166749001
posZ: 0.392332732677
velX: 0.295584440231
velY: -0.606584906578
velZ: -0.621721684933
accX: 0.0
accY: 0.0
accZ: 0.0
---
header: 
  seq: 69820
  stamp: 
    secs: 1596523662
    nsecs: 845145956
  frame_id: "node1_radarinterface_radarscan"
range: 1.87614250183
angle: -0.324390798807
elev: 0.198064148426
doppler: 0.159006148577
snr: 205
noise: 439
frame_num: 8214
point_id: 11
x: -0.586294531822
y: 1.74352562428
z: 0.369171738625
doppler_bin: 34
target_idx: 19
posX: -0.511649250984
posY: 1.51166749001
posZ: 0.392332732677
velX: 0.295584440231
velY: -0.606584906578
velZ: -0.621721684933
accX: 0.0
accY: 0.0
accZ: 0.0
---
header: 
  seq: 69821
  stamp: 
    secs: 1596523662
    nsecs: 845166212
  frame_id: "node1_radarinterface_radarscan"
range: 1.87614250183
angle: -0.324688076973
elev: 0.202417954803
doppler: 0.238509222865
snr: 208
noise: 381
frame_num: 8214
point_id: 14
x: -0.586294531822
y: 1.74181139469
z: 0.377176880836
doppler_bin: 35
target_idx: 19
posX: -0.511649250984
posY: 1.51166749001
posZ: 0.392332732677
velX: 0.295584440231
velY: -0.606584906578
velZ: -0.621721684933
accX: 0.0
accY: 0.0
accZ: 0.0
---
header: 
  seq: 69822
  stamp: 
    secs: 1596523662
    nsecs: 845185129
  frame_id: "node1_radarinterface_radarscan"
range: 1.25076162815
angle: -0.3279722929
elev: 0.245058715343
doppler: -1.90807378292
snr: 196
noise: 353
frame_num: 8214
point_id: 27
x: -0.390863001347
y: 1.14871585369
z: 0.303451389074
doppler_bin: 8
target_idx: 19
posX: -0.511649250984
posY: 1.51166749001
posZ: 0.392332732677
velX: 0.295584440231
velY: -0.606584906578
velZ: -0.621721684933
accX: 0.0
accY: 0.0
accZ: 0.0
---
header: 
  seq: 69823
  stamp: 
    secs: 1596523662
    nsecs: 845201160
  frame_id: "node1_radarinterface_radarscan"
range: 1.32893419266
angle: -0.327892929316
elev: 0.244123861194
doppler: -1.90807378292
snr: 249
noise: 355
frame_num: 8214
point_id: 28
x: -0.415291965008
y: 1.22082829475
z: 0.321211695671
doppler_bin: 8
target_idx: 19
posX: -0.511649250984
posY: 1.51166749001
posZ: 0.392332732677
velX: 0.295584440231
velY: -0.606584906578
velZ: -0.621721684933
accX: 0.0
accY: 0.0
accZ: 0.0
---
header: 
  seq: 69824
  stamp: 
    secs: 1596523662
    nsecs: 845219393
  frame_id: "node1_radarinterface_radarscan"
range: 1.25076162815
angle: -0.326338291168
elev: 0.224948212504
doppler: -1.82857072353
snr: 182
noise: 359
frame_num: 8214
point_id: 31
x: -0.390863001347
y: 1.15490055084
z: 0.278989732265
doppler_bin: 9
target_idx: 19
posX: -0.511649250984
posY: 1.51166749001
posZ: 0.392332732677
velX: 0.295584440231
velY: -0.606584906578
velZ: -0.621721684933
accX: 0.0
accY: 0.0
accZ: 0.0
---
header: 
  seq: 69825
  stamp: 
    secs: 1596523662
    nsecs: 845242747
  frame_id: "node1_radarinterface_radarscan"
range: 1.32893419266
angle: -0.327650278807
elev: 0.24124160409
doppler: -1.82857072353
snr: 236
noise: 362
frame_num: 8214
point_id: 32
x: -0.415291935205
y: 1.22180056572
z: 0.317493617535
doppler_bin: 9
target_idx: 19
posX: -0.511649250984
posY: 1.51166749001
posZ: 0.392332732677
velX: 0.295584440231
velY: -0.606584906578
velZ: -0.621721684933
accX: 0.0
accY: 0.0
accZ: 0.0
---
header: 
  seq: 69826
  stamp: 
    secs: 1596523662
    nsecs: 845273631
  frame_id: "node1_radarinterface_radarscan"
range: 1.95431506634
angle: -0.250195354223
elev: 0.487502366304
doppler: -0.0795030742884
snr: 134
noise: 450
frame_num: 8214
point_id: 35
x: -0.427506417036
y: 1.6728874445
z: 0.915441572666
doppler_bin: 31
target_idx: 19
posX: -0.511649250984
posY: 1.51166749001
posZ: 0.392332732677
velX: 0.295584440231
velY: -0.606584906578
velZ: -0.621721684933
accX: 0.0
accY: 0.0
accZ: 0.0
---
header: 
  seq: 69827
  stamp: 
    secs: 1596523662
    nsecs: 845326900
  frame_id: "node1_radarinterface_radarscan"
range: 2.03248763084
angle: -0.291067808867
elev: 0.513246178627
doppler: -0.0795030742884
snr: 117
noise: 453
frame_num: 8214
point_id: 36
x: -0.508121907711
y: 1.69613659382
z: 0.99796718359
doppler_bin: 31
target_idx: 19
posX: -0.511649250984
posY: 1.51166749001
posZ: 0.392332732677
velX: 0.295584440231
velY: -0.606584906578
velZ: -0.621721684933
accX: 0.0
accY: 0.0
accZ: 0.0
---
header: 
  seq: 69828
  stamp: 
    secs: 1596523663
    nsecs:  50709607
  frame_id: "node1_radarinterface_radarscan"
range: 1.87614250183
angle: -0.333057433367
elev: 0.298255771399
doppler: 0.0795030742884
snr: 187
noise: 500
frame_num: 8216
point_id: 9
x: -0.586294531822
y: 1.69476413727
z: 0.551310896873
doppler_bin: 33
target_idx: 19
posX: -0.493820369244
posY: 1.48075401783
posZ: 0.397800862789
velX: 0.331912219524
velY: -0.686219096184
velZ: -0.513853132725
accX: 0.0
accY: 0.0
accZ: 0.0
---
header: 
  seq: 69829
  stamp: 
    secs: 1596523663
    nsecs:  50768353
  frame_id: "node1_radarinterface_radarscan"
range: 1.95431506634
angle: -0.310500413179
elev: 0.401397228241
doppler: 0.159006148577
snr: 178
noise: 449
frame_num: 8216
point_id: 14
x: -0.54965108633
y: 1.71295249462
z: 0.763560473919
doppler_bin: 34
target_idx: 19
posX: -0.493820369244
posY: 1.48075401783
posZ: 0.397800862789
velX: 0.331912219524
velY: -0.686219096184
velZ: -0.513853132725
accX: 0.0
accY: 0.0
accZ: 0.0
---
header: 
  seq: 69830
  stamp: 
    secs: 1596523663
    nsecs:  50789024
  frame_id: "node1_radarinterface_radarscan"
range: 1.56345200539
angle: -0.295345753431
elev: 0.537682294846
doppler: 0.47701844573
snr: 182
noise: 369
frame_num: 8216
point_id: 17
x: -0.390863001347
y: 1.28470265865
z: 0.800716757774
doppler_bin: 38
target_idx: 19
posX: -0.493820369244
posY: 1.48075401783
posZ: 0.397800862789
velX: 0.331912219524
velY: -0.686219096184
velZ: -0.513853132725
accX: 0.0
accY: 0.0
accZ: 0.0
---
header: 
  seq: 69831
  stamp: 
    secs: 1596523663
    nsecs:  50831205
  frame_id: "node1_radarinterface_radarscan"
range: 1.56345200539
angle: -0.297812014818
elev: 0.551013767719
doppler: 0.55652153492
snr: 151
noise: 367
frame_num: 8216
point_id: 19
x: -0.390863001347
y: 1.27341616154
z: 0.818547189236
doppler_bin: 39
target_idx: 19
posX: -0.493820369244
posY: 1.48075401783
posZ: 0.397800862789
velX: 0.331912219524
velY: -0.686219096184
velZ: -0.513853132725
accX: 0.0
accY: 0.0
accZ: 0.0
---
header: 
  seq: 69832
  stamp: 
    secs: 1596523663
    nsecs:  50848235
  frame_id: "node1_radarinterface_radarscan"
range: 1.71979725361
angle: -0.326787650585
elev: 0.230671182275
doppler: -0.159006148577
snr: 266
noise: 363
frame_num: 8216
point_id: 20
x: -0.537436664104
y: 1.58564150333
z: 0.393198937178
doppler_bin: 30
target_idx: 19
posX: -0.493820369244
posY: 1.48075401783
posZ: 0.397800862789
velX: 0.331912219524
velY: -0.686219096184
velZ: -0.513853132725
accX: 0.0
accY: 0.0
accZ: 0.0
---
header: 
  seq: 69833
  stamp: 
    secs: 1596523663
    nsecs:  50871262
  frame_id: "node1_radarinterface_radarscan"
range: 1.95431506634
angle: -0.296016991138
elev: 0.268637657166
doppler: -0.159006148577
snr: 233
noise: 375
frame_num: 8216
point_id: 23
x: -0.549651145935
y: 1.80226802826
z: 0.518710792065
doppler_bin: 30
target_idx: 19
posX: -0.493820369244
posY: 1.48075401783
posZ: 0.397800862789
velX: 0.331912219524
velY: -0.686219096184
velZ: -0.513853132725
accX: 0.0
accY: 0.0
accZ: 0.0
---
header: 
  seq: 69834
  stamp: 
    secs: 1596523663
    nsecs:  50926234
  frame_id: "node1_radarinterface_radarscan"
range: 2.03248763084
angle: -0.325841575861
elev: 0.218431711197
doppler: -0.159006148577
snr: 154
noise: 393
frame_num: 8216
point_id: 24
x: -0.635152339935
y: 1.87978768349
z: 0.440437763929
doppler_bin: 30
target_idx: 19
posX: -0.493820369244
posY: 1.48075401783
posZ: 0.397800862789
velX: 0.331912219524
velY: -0.686219096184
velZ: -0.513853132725
accX: 0.0
accY: 0.0
accZ: 0.0
---
header: 
  seq: 69835
  stamp: 
    secs: 1596523663
    nsecs:  50945492
  frame_id: "node1_radarinterface_radarscan"
range: 1.6416246891
angle: -0.327640473843
elev: 0.241124331951
doppler: -0.0795030742884
snr: 204
noise: 375
frame_num: 8216
point_id: 25
x: -0.513007700443
y: 1.50933170319
z: 0.392011076212
doppler_bin: 31
target_idx: 19
posX: -0.493820369244
posY: 1.48075401783
posZ: 0.397800862789
velX: 0.331912219524
velY: -0.686219096184
velZ: -0.513853132725
accX: 0.0
accY: 0.0
accZ: 0.0
---
header: 
  seq: 69836
  stamp: 
    secs: 1596523663
    nsecs:  50964909
  frame_id: "node1_radarinterface_radarscan"
range: 1.71979725361
angle: -0.325479954481
elev: 0.213550716639
doppler: -0.0795030742884
snr: 292
noise: 385
frame_num: 8216
point_id: 26
x: -0.537436664104
y: 1.5924885273
z: 0.364478856325
doppler_bin: 31
target_idx: 19
posX: -0.493820369244
posY: 1.48075401783
posZ: 0.397800862789
velX: 0.331912219524
velY: -0.686219096184
velZ: -0.513853132725
accX: 0.0
accY: 0.0
accZ: 0.0
---
header: 
  seq: 69837
  stamp: 
    secs: 1596523663
    nsecs:  50992052
  frame_id: "node1_radarinterface_radarscan"
range: 1.79796981812
angle: -0.323953568935
elev: 0.191468283534
doppler: -0.0795030742884
snr: 305
noise: 397
frame_num: 8216
point_id: 27
x: -0.561865568161
y: 1.67329990864
z: 0.34215465188
doppler_bin: 31
target_idx: 19
posX: -0.493820369244
posY: 1.48075401783
posZ: 0.397800862789
velX: 0.331912219524
velY: -0.686219096184
velZ: -0.513853132725
accX: 0.0
accY: 0.0
accZ: 0.0
---
header: 
  seq: 69838
  stamp: 
    secs: 1596523663
    nsecs:  51013064
  frame_id: "node1_radarinterface_radarscan"
range: 1.87614250183
angle: -0.32307985425
elev: 0.177504524589
doppler: -0.0795030742884
snr: 266
noise: 406
frame_num: 8216
point_id: 28
x: -0.586294531822
y: 1.75112092495
z: 0.331277728081
doppler_bin: 31
target_idx: 19
posX: -0.493820369244
posY: 1.48075401783
posZ: 0.397800862789
velX: 0.331912219524
velY: -0.686219096184
velZ: -0.513853132725
accX: 0.0
accY: 0.0
accZ: 0.0
---
header: 
  seq: 69839
  stamp: 
    secs: 1596523663
    nsecs: 151742034
  frame_id: "node1_radarinterface_radarscan"
range: 1.71979725361
angle: -0.296084523201
elev: 0.269440680742
doppler: 0.0
snr: 206
noise: 430
frame_num: 8217
point_id: 0
x: -0.483693003654
y: 1.58561217785
z: 0.45779684186
doppler_bin: 32
target_idx: 19
posX: -0.490530669689
posY: 1.51617777348
posZ: 0.406125873327
velX: 0.246814623475
velY: -0.318482816219
velZ: -0.365517854691
accX: 0.0
accY: 0.0
accZ: 0.0
---
header: 
  seq: 69840
  stamp: 
    secs: 1596523663
    nsecs: 151804666
  frame_id: "node1_radarinterface_radarscan"
range: 1.6416246891
angle: -0.321562796831
elev: 0.150015592575
doppler: 0.0795030742884
snr: 139
noise: 429
frame_num: 8217
point_id: 11
x: -0.513007700443
y: 1.53998696804
z: 0.24534663558
doppler_bin: 33
target_idx: 19
posX: -0.490530669689
posY: 1.51617777348
posZ: 0.406125873327
velX: 0.246814623475
velY: -0.318482816219
velZ: -0.365517854691
accX: 0.0
accY: 0.0
accZ: 0.0
---
header: 
  seq: 69841
  stamp: 
    secs: 1596523663
    nsecs: 151827081
  frame_id: "node1_radarinterface_radarscan"
range: 1.87614250183
angle: -0.304437637329
elev: 0.35322830081
doppler: 0.0795030742884
snr: 230
noise: 486
frame_num: 8217
point_id: 14
x: -0.52766507864
y: 1.67936432362
z: 0.649011313915
doppler_bin: 33
target_idx: 19
posX: -0.490530669689
posY: 1.51617777348
posZ: 0.406125873327
velX: 0.246814623475
velY: -0.318482816219
velZ: -0.365517854691
accX: 0.0
accY: 0.0
accZ: 0.0
---
header: 
  seq: 69842
  stamp: 
    secs: 1596523663
    nsecs: 151849332
  frame_id: "node1_radarinterface_radarscan"
range: 1.79796981812
angle: -0.30461499095
elev: 0.354755014181
doppler: 0.159006148577
snr: 246
noise: 426
frame_num: 8217
point_id: 16
x: -0.505679011345
y: 1.6083933115
z: 0.624543964863
doppler_bin: 34
target_idx: 19
posX: -0.490530669689
posY: 1.51617777348
posZ: 0.406125873327
velX: 0.246814623475
velY: -0.318482816219
velZ: -0.365517854691
accX: 0.0
accY: 0.0
accZ: 0.0
---
header: 
  seq: 69843
  stamp: 
    secs: 1596523663
    nsecs: 151871702
  frame_id: "node1_radarinterface_radarscan"
range: 1.87614250183
angle: -0.310742676258
elev: 0.403171002865
doppler: 0.159006148577
snr: 233
noise: 438
frame_num: 8217
point_id: 17
x: -0.52766507864
y: 1.64306604862
z: 0.736080229282
doppler_bin: 34
target_idx: 19
posX: -0.490530669689
posY: 1.51617777348
posZ: 0.406125873327
velX: 0.246814623475
velY: -0.318482816219
velZ: -0.365517854691
accX: 0.0
accY: 0.0
accZ: 0.0
---
header: 
  seq: 69844
  stamp: 
    secs: 1596523663
    nsecs: 151931425
  frame_id: "node1_radarinterface_radarscan"
range: 1.6416246891
angle: -0.300665616989
elev: 0.565819382668
doppler: 0.795030713081
snr: 158
noise: 356
frame_num: 8217
point_id: 19
x: -0.410406172276
y: 1.32361030579
z: 0.880087614059
doppler_bin: 42
target_idx: 19
posX: -0.490530669689
posY: 1.51617777348
posZ: 0.406125873327
velX: 0.246814623475
velY: -0.318482816219
velZ: -0.365517854691
accX: 0.0
accY: 0.0
accZ: 0.0
---
header: 
  seq: 69845
  stamp: 
    secs: 1596523663
    nsecs: 151951800
  frame_id: "node1_radarinterface_radarscan"
range: 1.56345200539
angle: -0.335461914539
elev: 0.54653608799
doppler: 0.874533832073
snr: 128
noise: 365
frame_num: 8217
point_id: 20
x: -0.439720869064
y: 1.26124954224
z: 0.812574505806
doppler_bin: 43
target_idx: 19
posX: -0.490530669689
posY: 1.51617777348
posZ: 0.406125873327
velX: 0.246814623475
velY: -0.318482816219
velZ: -0.365517854691
accX: 0.0
accY: 0.0
accZ: 0.0
---
header: 
  seq: 69846
  stamp: 
    secs: 1596523663
    nsecs: 151970083
  frame_id: "node1_radarinterface_radarscan"
range: 1.71979725361
angle: -0.320428550243
elev: 0.125401824713
doppler: -0.159006148577
snr: 252
noise: 374
frame_num: 8217
point_id: 23
x: -0.5374366045
y: 1.61944305897
z: 0.21510091424
doppler_bin: 30
target_idx: 19
posX: -0.490530669689
posY: 1.51617777348
posZ: 0.406125873327
velX: 0.246814623475
velY: -0.318482816219
velZ: -0.365517854691
accX: 0.0
accY: 0.0
accZ: 0.0
---
header: 
  seq: 69847
  stamp: 
    secs: 1596523663
    nsecs: 151987663
  frame_id: "node1_radarinterface_radarscan"
range: 1.79796981812
angle: -0.32083132863
elev: 0.134675830603
doppler: -0.159006148577
snr: 271
noise: 381
frame_num: 8217
point_id: 24
x: -0.561865568161
y: 1.69077587128
z: 0.241411760449
doppler_bin: 30
target_idx: 19
posX: -0.490530669689
posY: 1.51617777348
posZ: 0.406125873327
velX: 0.246814623475
velY: -0.318482816219
velZ: -0.365517854691
accX: 0.0
accY: 0.0
accZ: 0.0
---
header: 
  seq: 69848
  stamp: 
    secs: 1596523663
    nsecs: 152002495
  frame_id: "node1_radarinterface_radarscan"
range: 1.87614250183
angle: -0.290590971708
elev: 0.192065283656
doppler: -0.159006148577
snr: 227
noise: 385
frame_num: 8217
point_id: 25
x: -0.52766507864
y: 1.76443266869
z: 0.358130484819
doppler_bin: 30
target_idx: 19
posX: -0.490530669689
posY: 1.51617777348
posZ: 0.406125873327
velX: 0.246814623475
velY: -0.318482816219
velZ: -0.365517854691
accX: 0.0
accY: 0.0
accZ: 0.0
---
header: 
  seq: 69849
  stamp: 
    secs: 1596523663
    nsecs: 152019861
  frame_id: "node1_radarinterface_radarscan"
range: 1.6416246891
angle: -0.320817500353
elev: 0.134368181229
doppler: -0.0795030742884
snr: 211
noise: 389
frame_num: 8217
point_id: 26
x: -0.513007760048
y: 1.54382324219
z: 0.219918966293
doppler_bin: 31
target_idx: 19
posX: -0.490530669689
posY: 1.51617777348
posZ: 0.406125873327
velX: 0.246814623475
velY: -0.318482816219
velZ: -0.365517854691
accX: 0.0
accY: 0.0
accZ: 0.0
---
header: 
  seq: 69850
  stamp: 
    secs: 1596523663
    nsecs: 152072155
  frame_id: "node1_radarinterface_radarscan"
range: 1.71979725361
angle: -0.320491194725
elev: 0.126889914274
doppler: -0.0795030742884
snr: 300
noise: 404
frame_num: 8217
point_id: 27
x: -0.537436664104
y: 1.61910390854
z: 0.217639788985
doppler_bin: 31
target_idx: 19
posX: -0.490530669689
posY: 1.51617777348
posZ: 0.406125873327
velX: 0.246814623475
velY: -0.318482816219
velZ: -0.365517854691
accX: 0.0
accY: 0.0
accZ: 0.0
---
header: 
  seq: 69851
  stamp: 
    secs: 1596523663
    nsecs: 152083962
  frame_id: "node1_radarinterface_radarscan"
range: 1.79796981812
angle: -0.320769250393
elev: 0.133290171623
doppler: -0.0795030742884
snr: 314
noise: 413
frame_num: 8217
point_id: 28
x: -0.561865568161
y: 1.69112658501
z: 0.238942712545
doppler_bin: 31
target_idx: 19
posX: -0.490530669689
posY: 1.51617777348
posZ: 0.406125873327
velX: 0.246814623475
velY: -0.318482816219
velZ: -0.365517854691
accX: 0.0
accY: 0.0
accZ: 0.0
---
header: 
  seq: 69852
  stamp: 
    secs: 1596523663
    nsecs: 252735698
  frame_id: "node1_radarinterface_radarscan"
range: 1.71979725361
angle: -0.273907244205
elev: 0.391778916121
doppler: 0.0
snr: 210
noise: 399
frame_num: 8218
point_id: 0
x: -0.429949343204
y: 1.53023636341
z: 0.656675577164
doppler_bin: 32
target_idx: 19
posX: -0.488056302071
posY: 1.53078222275
posZ: 0.642498016357
velX: 0.152068316936
velY: -0.0842302888632
velZ: 0.534133553505
accX: 0.0
accY: 0.0
accZ: 0.0
---
header: 
  seq: 69853
  stamp: 
    secs: 1596523663
    nsecs: 252791091
  frame_id: "node1_radarinterface_radarscan"
range: 2.03248763084
angle: -0.308210581541
elev: 0.384103983641
doppler: 0.0
snr: 127
noise: 423
frame_num: 8218
point_id: 4
x: -0.571637153625
y: 1.79559314251
z: 0.761631190777
doppler_bin: 32
target_idx: 19
posX: -0.488056302071
posY: 1.53078222275
posZ: 0.642498016357
velX: 0.152068316936
velY: -0.0842302888632
velZ: 0.534133553505
accX: 0.0
accY: 0.0
accZ: 0.0
---
header: 
  seq: 69854
  stamp: 
    secs: 1596523663
    nsecs: 252834276
  frame_id: "node1_radarinterface_radarscan"
range: 1.71979725361
angle: -0.299374997616
elev: 0.5592020154
doppler: 0.0795030742884
snr: 236
noise: 420
frame_num: 8218
point_id: 9
x: -0.429949313402
y: 1.39299249649
z: 0.912369549274
doppler_bin: 33
target_idx: 19
posX: -0.488056302071
posY: 1.53078222275
posZ: 0.642498016357
velX: 0.152068316936
velY: -0.0842302888632
velZ: 0.534133553505
accX: 0.0
accY: 0.0
accZ: 0.0
---
header: 
  seq: 69855
  stamp: 
    secs: 1596523663
    nsecs: 252844832
  frame_id: "node1_radarinterface_radarscan"
range: 1.87614250183
angle: -0.285590529442
elev: 0.479137331247
doppler: 0.0795030742884
snr: 318
noise: 453
frame_num: 8218
point_id: 11
x: -0.469035595655
y: 1.5974406004
z: 0.864927649498
doppler_bin: 33
target_idx: 19
posX: -0.488056302071
posY: 1.53078222275
posZ: 0.642498016357
velX: 0.152068316936
velY: -0.0842302888632
velZ: 0.534133553505
accX: 0.0
accY: 0.0
accZ: 0.0
---
header: 
  seq: 69856
  stamp: 
    secs: 1596523663
    nsecs: 252858545
  frame_id: "node1_radarinterface_radarscan"
range: 1.71979725361
angle: -0.260235965252
elev: 0.554532766342
doppler: 0.159006148577
snr: 218
noise: 389
frame_num: 8218
point_id: 14
x: -0.376205652952
y: 1.41285049915
z: 0.905552625656
doppler_bin: 34
target_idx: 19
posX: -0.488056302071
posY: 1.53078222275
posZ: 0.642498016357
velX: 0.152068316936
velY: -0.0842302888632
velZ: 0.534133553505
accX: 0.0
accY: 0.0
accZ: 0.0
---
header: 
  seq: 69857
  stamp: 
    secs: 1596523663
    nsecs: 252869656
  frame_id: "node1_radarinterface_radarscan"
range: 1.87614250183
angle: -0.289311170578
elev: 0.502679228783
doppler: 0.159006148577
snr: 320
noise: 404
frame_num: 8218
point_id: 16
x: -0.46903565526
y: 1.57572829723
z: 0.903878688812
doppler_bin: 34
target_idx: 19
posX: -0.488056302071
posY: 1.53078222275
posZ: 0.642498016357
velX: 0.152068316936
velY: -0.0842302888632
velZ: 0.534133553505
accX: 0.0
accY: 0.0
accZ: 0.0
---
header: 
  seq: 69858
  stamp: 
    secs: 1596523663
    nsecs: 252921746
  frame_id: "node1_radarinterface_radarscan"
range: 1.95431506634
angle: -0.288348585367
elev: 0.496745318174
doppler: 0.159006148577
snr: 273
noise: 405
frame_num: 8218
point_id: 17
x: -0.488578766584
y: 1.64718055725
z: 0.931361556053
doppler_bin: 34
target_idx: 19
posX: -0.488056302071
posY: 1.53078222275
posZ: 0.642498016357
velX: 0.152068316936
velY: -0.0842302888632
velZ: 0.534133553505
accX: 0.0
accY: 0.0
accZ: 0.0
---
header: 
  seq: 69859
  stamp: 
    secs: 1596523663
    nsecs: 252937087
  frame_id: "node1_radarinterface_radarscan"
range: 1.6416246891
angle: -0.339689344168
elev: 0.565907597542
doppler: 0.715527653694
snr: 143
noise: 368
frame_num: 8218
point_id: 19
x: -0.461706936359
y: 1.30651783943
z: 0.880209863186
doppler_bin: 41
target_idx: 19
posX: -0.488056302071
posY: 1.53078222275
posZ: 0.642498016357
velX: 0.152068316936
velY: -0.0842302888632
velZ: 0.534133553505
accX: 0.0
accY: 0.0
accZ: 0.0
---
header: 
  seq: 69860
  stamp: 
    secs: 1596523663
    nsecs: 252959956
  frame_id: "node1_radarinterface_radarscan"
range: 1.71979725361
angle: -0.344011992216
elev: 0.584641993046
doppler: 0.715527653694
snr: 215
noise: 370
frame_num: 8218
point_id: 20
x: -0.483693003654
y: 1.35012722015
z: 0.949157595634
doppler_bin: 41
target_idx: 19
posX: -0.488056302071
posY: 1.53078222275
posZ: 0.642498016357
velX: 0.152068316936
velY: -0.0842302888632
velZ: 0.534133553505
accX: 0.0
accY: 0.0
accZ: 0.0
---
header: 
  seq: 69861
  stamp: 
    secs: 1596523663
    nsecs: 252984695
  frame_id: "node1_radarinterface_radarscan"
range: 1.71979725361
angle: -0.34666672349
elev: 0.595659375191
doppler: 0.795030713081
snr: 282
noise: 369
frame_num: 8218
point_id: 23
x: -0.483693003654
y: 1.33892166615
z: 0.964900314808
doppler_bin: 42
target_idx: 19
posX: -0.488056302071
posY: 1.53078222275
posZ: 0.642498016357
velX: 0.152068316936
velY: -0.0842302888632
velZ: 0.534133553505
accX: 0.0
accY: 0.0
accZ: 0.0
---
header: 
  seq: 69862
  stamp: 
    secs: 1596523663
    nsecs: 253013864
  frame_id: "node1_radarinterface_radarscan"
range: 1.79796981812
angle: -0.350923597813
elev: 0.612617909908
doppler: 0.795030713081
snr: 284
noise: 368
frame_num: 8218
point_id: 24
x: -0.505679011345
y: 1.38135170937
z: 1.03385293484
doppler_bin: 42
target_idx: 19
posX: -0.488056302071
posY: 1.53078222275
posZ: 0.642498016357
velX: 0.152068316936
velY: -0.0842302888632
velZ: 0.534133553505
accX: 0.0
accY: 0.0
accZ: 0.0
---
header: 
  seq: 69863
  stamp: 
    secs: 1596523663
    nsecs: 253071848
  frame_id: "node1_radarinterface_radarscan"
range: 1.87614250183
angle: -0.357203722
elev: 0.636194765568
doppler: 0.795030713081
snr: 218
noise: 367
frame_num: 8218
point_id: 25
x: -0.52766507864
y: 1.41384148598
z: 1.11468935013
doppler_bin: 42
target_idx: 19
posX: -0.488056302071
posY: 1.53078222275
posZ: 0.642498016357
velX: 0.152068316936
velY: -0.0842302888632
velZ: 0.534133553505
accX: 0.0
accY: 0.0
accZ: 0.0
---
header: 
  seq: 69864
  stamp: 
    secs: 1596523663
    nsecs: 253084041
  frame_id: "node1_radarinterface_radarscan"
range: 1.6416246891
angle: -0.348856568336
elev: 0.604488193989
doppler: 0.874533832073
snr: 199
noise: 372
frame_num: 8218
point_id: 26
x: -0.461706936359
y: 1.26935589314
z: 0.933002710342
doppler_bin: 43
target_idx: 19
posX: -0.488056302071
posY: 1.53078222275
posZ: 0.642498016357
velX: 0.152068316936
velY: -0.0842302888632
velZ: 0.534133553505
accX: 0.0
accY: 0.0
accZ: 0.0
---
header: 
  seq: 69865
  stamp: 
    secs: 1596523663
    nsecs: 253094291
  frame_id: "node1_radarinterface_radarscan"
range: 1.71979725361
angle: -0.351875722408
elev: 0.616298735142
doppler: 0.874533832073
snr: 266
noise: 374
frame_num: 8218
point_id: 27
x: -0.48369294405
y: 1.31740581989
z: 0.9940751791
doppler_bin: 43
target_idx: 19
posX: -0.488056302071
posY: 1.53078222275
posZ: 0.642498016357
velX: 0.152068316936
velY: -0.0842302888632
velZ: 0.534133553505
accX: 0.0
accY: 0.0
accZ: 0.0
---
header: 
  seq: 69866
  stamp: 
    secs: 1596523663
    nsecs: 253104985
  frame_id: "node1_radarinterface_radarscan"
range: 1.79796981812
angle: -0.356273174286
elev: 0.63280248642
doppler: 0.874533832073
snr: 267
noise: 375
frame_num: 8218
point_id: 28
x: -0.505679011345
y: 1.3587898016
z: 1.06333184242
doppler_bin: 43
target_idx: 19
posX: -0.488056302071
posY: 1.53078222275
posZ: 0.642498016357
velX: 0.152068316936
velY: -0.0842302888632
velZ: 0.534133553505
accX: 0.0
accY: 0.0
accZ: 0.0
---
header: 
  seq: 69867
  stamp: 
    secs: 1596523663
    nsecs: 253116141
  frame_id: "node1_radarinterface_radarscan"
range: 1.79796981812
angle: -0.361873239279
elev: 0.65272539854
doppler: 0.95403689146
snr: 189
noise: 364
frame_num: 8218
point_id: 31
x: -0.505679011345
y: 1.33585619926
z: 1.09200382233
doppler_bin: 44
target_idx: 19
posX: -0.488056302071
posY: 1.53078222275
posZ: 0.642498016357
velX: 0.152068316936
velY: -0.0842302888632
velZ: 0.534133553505
accX: 0.0
accY: 0.0
accZ: 0.0
---
header: 
  seq: 69868
  stamp: 
    secs: 1596523663
    nsecs: 253129197
  frame_id: "node1_radarinterface_radarscan"
range: 1.71979725361
angle: -0.193324655294
elev: 0.219809651375
doppler: -0.0795030742884
snr: 198
noise: 392
frame_num: 8218
point_id: 36
x: -0.322461992502
y: 1.64714980125
z: 0.374991238117
doppler_bin: 31
target_idx: 19
posX: -0.488056302071
posY: 1.53078222275
posZ: 0.642498016357
velX: 0.152068316936
velY: -0.0842302888632
velZ: 0.534133553505
accX: 0.0
accY: 0.0
accZ: 0.0
---
header: 
  seq: 69869
  stamp: 
    secs: 1596523663
    nsecs: 253157054
  frame_id: "node1_radarinterface_radarscan"
range: 1.95431506634
angle: -0.297780364752
elev: 0.288779169321
doppler: -0.0795030742884
snr: 185
noise: 422
frame_num: 8218
point_id: 39
x: -0.54965108633
y: 1.79094350338
z: 0.556554079056
doppler_bin: 31
target_idx: 19
posX: -0.488056302071
posY: 1.53078222275
posZ: 0.642498016357
velX: 0.152068316936
velY: -0.0842302888632
velZ: 0.534133553505
accX: 0.0
accY: 0.0
accZ: 0.0
---
header: 
  seq: 69870
  stamp: 
    secs: 1596523663
    nsecs: 350505494
  frame_id: "node1_radarinterface_radarscan"
range: 1.87614250183
angle: -0.298257857561
elev: 0.293962538242
doppler: 0.0
snr: 228
noise: 389
frame_num: 8219
point_id: 0
x: -0.527665019035
y: 1.71638333797
z: 0.543606758118
doppler_bin: 32
target_idx: 19
posX: -0.497467815876
posY: 1.50972747803
posZ: 0.729589402676
velX: 0.0453914478421
velY: -0.14614918828
velZ: 0.7201384902
accX: 0.0
accY: 0.0
accZ: 0.0
---
header: 
  seq: 69871
  stamp: 
    secs: 1596523663
    nsecs: 350592394
  frame_id: "node1_radarinterface_radarscan"
range: 2.03248763084
angle: -0.322929888964
elev: 0.481598585844
doppler: 0.0795030742884
snr: 137
noise: 429
frame_num: 8219
point_id: 4
x: -0.571637094021
y: 1.70819354057
z: 0.941441178322
doppler_bin: 33
target_idx: 19
posX: -0.497467815876
posY: 1.50972747803
posZ: 0.729589402676
velX: 0.0453914478421
velY: -0.14614918828
velZ: 0.7201384902
accX: 0.0
accY: 0.0
accZ: 0.0
---
header: 
  seq: 69872
  stamp: 
    secs: 1596523663
    nsecs: 350605978
  frame_id: "node1_radarinterface_radarscan"
range: 2.18883275986
angle: -0.406899005175
elev: 0.660618066788
doppler: 0.715527653694
snr: 137
noise: 375
frame_num: 8219
point_id: 6
x: -0.684010267258
y: 1.58721721172
z: 1.34307873249
doppler_bin: 41
target_idx: 19
posX: -0.497467815876
posY: 1.50972747803
posZ: 0.729589402676
velX: 0.0453914478421
velY: -0.14614918828
velZ: 0.7201384902
accX: 0.0
accY: 0.0
accZ: 0.0
---
header: 
  seq: 69873
  stamp: 
    secs: 1596523663
    nsecs: 350616448
  frame_id: "node1_radarinterface_radarscan"
range: 1.6416246891
angle: -0.347874641418
elev: 0.60055744648
doppler: -0.397515356541
snr: 173
noise: 366
frame_num: 8219
point_id: 9
x: -0.461706966162
y: 1.27324652672
z: 0.927686154842
doppler_bin: 27
target_idx: 19
posX: -0.497467815876
posY: 1.50972747803
posZ: 0.729589402676
velX: 0.0453914478421
velY: -0.14614918828
velZ: 0.7201384902
accX: 0.0
accY: 0.0
accZ: 0.0
---
header: 
  seq: 69874
  stamp: 
    secs: 1596523663
    nsecs: 350628286
  frame_id: "node1_radarinterface_radarscan"
range: 1.79796981812
angle: -0.353506803513
elev: 0.622513592243
doppler: -0.397515356541
snr: 285
noise: 374
frame_num: 8219
point_id: 11
x: -0.505679011345
y: 1.37037527561
z: 1.04835855961
doppler_bin: 27
target_idx: 19
posX: -0.497467815876
posY: 1.50972747803
posZ: 0.729589402676
velX: 0.0453914478421
velY: -0.14614918828
velZ: 0.7201384902
accX: 0.0
accY: 0.0
accZ: 0.0
---
header: 
  seq: 69875
  stamp: 
    secs: 1596523663
    nsecs: 350677449
  frame_id: "node1_radarinterface_radarscan"
range: 1.79796981812
angle: -0.362631201744
elev: 0.655334472656
doppler: -0.318012297153
snr: 269
noise: 373
frame_num: 8219
point_id: 14
x: -0.505679011345
y: 1.33280420303
z: 1.09572684765
doppler_bin: 28
target_idx: 19
posX: -0.497467815876
posY: 1.50972747803
posZ: 0.729589402676
velX: 0.0453914478421
velY: -0.14614918828
velZ: 0.7201384902
accX: 0.0
accY: 0.0
accZ: 0.0
---
header: 
  seq: 69876
  stamp: 
    secs: 1596523663
    nsecs: 350698974
  frame_id: "node1_radarinterface_radarscan"
range: 1.71979725361
angle: -0.319485008717
elev: 0.100273795426
doppler: -0.0795030742884
snr: 243
noise: 385
frame_num: 8219
point_id: 20
x: -0.537436664104
y: 1.62456917763
z: 0.172161743045
doppler_bin: 31
target_idx: 19
posX: -0.497467815876
posY: 1.50972747803
posZ: 0.729589402676
velX: 0.0453914478421
velY: -0.14614918828
velZ: 0.7201384902
accX: 0.0
accY: 0.0
accZ: 0.0
---
header: 
  seq: 69877
  stamp: 
    secs: 1596523663
    nsecs: 350718544
  frame_id: "node1_radarinterface_radarscan"
range: 2.03248763084
angle: -0.294883608818
elev: 0.535125315189
doppler: -0.0795030742884
snr: 158
noise: 417
frame_num: 8219
point_id: 23
x: -0.508121907711
y: 1.67288947105
z: 1.03646469116
doppler_bin: 31
target_idx: 19
posX: -0.497467815876
posY: 1.50972747803
posZ: 0.729589402676
velX: 0.0453914478421
velY: -0.14614918828
velZ: 0.7201384902
accX: 0.0
accY: 0.0
accZ: 0.0
---
header: 
  seq: 69878
  stamp: 
    secs: 1596523663
    nsecs: 451168241
  frame_id: "node1_radarinterface_radarscan"
range: 1.6416246891
angle: -0.323219180107
elev: 0.179808527231
doppler: 0.0
snr: 140
noise: 377
frame_num: 8220
point_id: 0
x: -0.513007700443
y: 1.53152191639
z: 0.293590128422
doppler_bin: 32
target_idx: 19
posX: -0.483902812004
posY: 1.49958181381
posZ: 0.784821867943
velX: 0.0938905775547
velY: -0.194209426641
velZ: 0.71173876524
accX: 0.0
accY: 0.0
accZ: 0.0
---
header: 
  seq: 69879
  stamp: 
    secs: 1596523663
    nsecs: 451270607
  frame_id: "node1_radarinterface_radarscan"
range: 1.71979725361
angle: -0.338473767042
elev: 0.344840288162
doppler: 0.0795030742884
snr: 221
noise: 377
frame_num: 8220
point_id: 9
x: -0.537436664104
y: 1.52671933174
z: 0.581371247768
doppler_bin: 33
target_idx: 19
posX: -0.483902812004
posY: 1.49958181381
posZ: 0.784821867943
velX: 0.0938905775547
velY: -0.194209426641
velZ: 0.71173876524
accX: 0.0
accY: 0.0
accZ: 0.0
---
header: 
  seq: 69880
  stamp: 
    secs: 1596523663
    nsecs: 451453692
  frame_id: "node1_radarinterface_radarscan"
range: 1.6416246891
angle: -0.339272886515
elev: 0.564047336578
doppler: -1.27204918861
snr: 164
noise: 363
frame_num: 8220
point_id: 11
x: -0.461706936359
y: 1.30825185776
z: 0.877630531788
doppler_bin: 16
target_idx: 19
posX: -0.483902812004
posY: 1.49958181381
posZ: 0.784821867943
velX: 0.0938905775547
velY: -0.194209426641
velZ: 0.71173876524
accX: 0.0
accY: 0.0
accZ: 0.0
---
header: 
  seq: 69881
  stamp: 
    secs: 1596523663
    nsecs: 451480203
  frame_id: "node1_radarinterface_radarscan"
range: 1.71979725361
angle: -0.355493992567
elev: 0.629935741425
doppler: -1.19254612923
snr: 198
noise: 355
frame_num: 8220
point_id: 14
x: -0.483692973852
y: 1.30281662941
z: 1.01312029362
doppler_bin: 17
target_idx: 19
posX: -0.483902812004
posY: 1.49958181381
posZ: 0.784821867943
velX: 0.0938905775547
velY: -0.194209426641
velZ: 0.71173876524
accX: 0.0
accY: 0.0
accZ: 0.0
---
header: 
  seq: 69882
  stamp: 
    secs: 1596523663
    nsecs: 451494858
  frame_id: "node1_radarinterface_radarscan"
range: 1.79796981812
angle: -0.286589205265
elev: 0.48562079668
doppler: -0.318012297153
snr: 286
noise: 366
frame_num: 8220
point_id: 16
x: -0.449492424726
y: 1.52524375916
z: 0.839215874672
doppler_bin: 28
target_idx: 19
posX: -0.483902812004
posY: 1.49958181381
posZ: 0.784821867943
velX: 0.0938905775547
velY: -0.194209426641
velZ: 0.71173876524
accX: 0.0
accY: 0.0
accZ: 0.0
---
header: 
  seq: 69883
  stamp: 
    secs: 1596523663
    nsecs: 451509132
  frame_id: "node1_radarinterface_radarscan"
range: 1.87614250183
angle: -0.284208267927
elev: 0.469949454069
doppler: -0.318012297153
snr: 267
noise: 372
frame_num: 8220
point_id: 17
x: -0.469035625458
y: 1.60564792156
z: 0.849594652653
doppler_bin: 28
target_idx: 19
posX: -0.483902812004
posY: 1.49958181381
posZ: 0.784821867943
velX: 0.0938905775547
velY: -0.194209426641
velZ: 0.71173876524
accX: 0.0
accY: 0.0
accZ: 0.0
---
header: 
  seq: 69884
  stamp: 
    secs: 1596523663
    nsecs: 451521770
  frame_id: "node1_radarinterface_radarscan"
range: 1.87614250183
angle: -0.289616852999
elev: 0.50454211235
doppler: -0.238509222865
snr: 271
noise: 367
frame_num: 8220
point_id: 19
x: -0.469035595655
y: 1.57396841049
z: 0.906939804554
doppler_bin: 29
target_idx: 19
posX: -0.483902812004
posY: 1.49958181381
posZ: 0.784821867943
velX: 0.0938905775547
velY: -0.194209426641
velZ: 0.71173876524
accX: 0.0
accY: 0.0
accZ: 0.0
---
header: 
  seq: 69885
  stamp: 
    secs: 1596523663
    nsecs: 451533880
  frame_id: "node1_radarinterface_radarscan"
range: 1.95431506634
angle: -0.293427377939
