header: 
  seq: 113476
  stamp: 
    secs: 1596524180
    nsecs: 973189220
  frame_id: "node1_radarinterface_radarscan"
range: 2.34517812729
angle: -0.277349174023
elev: 0.420091509819
doppler: 0.0
snr: 284
noise: 386
frame_num: 13160
point_id: 1
x: -0.586294531822
y: 2.0594394207
z: 0.956466853619
doppler_bin: 32
target_idx: 13
posX: -0.537628889084
posY: 1.99449908733
posZ: 0.914683997631
velX: -0.0285868681967
velY: -0.611710727215
velZ: 0.565601110458
accX: 0.0
accY: 0.0
accZ: 0.0
---
header: 
  seq: 113477
  stamp: 
    secs: 1596524180
    nsecs: 973269717
  frame_id: "node1_radarinterface_radarscan"
range: 2.18883275986
angle: -0.225640937686
elev: 0.211409047246
doppler: 0.0795030742884
snr: 269
noise: 386
frame_num: 13160
point_id: 6
x: -0.478807151318
y: 2.08585143089
z: 0.45929980278
doppler_bin: 33
target_idx: 13
posX: -0.537628889084
posY: 1.99449908733
posZ: 0.914683997631
velX: -0.0285868681967
velY: -0.611710727215
velZ: 0.565601110458
accX: 0.0
accY: 0.0
accZ: 0.0
---
header: 
  seq: 113478
  stamp: 
    secs: 1596524180
    nsecs: 973280523
  frame_id: "node1_radarinterface_radarscan"
range: 2.26700544357
angle: -0.230311647058
elev: 0.289981991053
doppler: 0.0795030742884
snr: 311
noise: 388
frame_num: 13160
point_id: 7
x: -0.49590742588
y: 2.11499524117
z: 0.648216128349
doppler_bin: 33
target_idx: 13
posX: -0.537628889084
posY: 1.99449908733
posZ: 0.914683997631
velX: -0.0285868681967
velY: -0.611710727215
velZ: 0.565601110458
accX: 0.0
accY: 0.0
accZ: 0.0
---
header: 
  seq: 113479
  stamp: 
    secs: 1596524180
    nsecs: 973296246
  frame_id: "node1_radarinterface_radarscan"
range: 2.34517812729
angle: -0.277638792992
elev: 0.422361016273
doppler: 0.0795030742884
snr: 327
noise: 391
frame_num: 13160
point_id: 8
x: -0.586294472218
y: 2.05717658997
z: 0.961323976517
doppler_bin: 33
target_idx: 13
posX: -0.537628889084
posY: 1.99449908733
posZ: 0.914683997631
velX: -0.0285868681967
velY: -0.611710727215
velZ: 0.565601110458
accX: 0.0
accY: 0.0
accZ: 0.0
---
header: 
  seq: 113480
  stamp: 
    secs: 1596524180
    nsecs: 973310348
  frame_id: "node1_radarinterface_radarscan"
range: 2.42335057259
angle: -0.287198275328
elev: 0.489513844252
doppler: 0.0795030742884
snr: 312
noise: 406
frame_num: 13160
point_id: 9
x: -0.605837643147
y: 2.05115532875
z: 1.13945186138
doppler_bin: 33
target_idx: 13
posX: -0.537628889084
posY: 1.99449908733
posZ: 0.914683997631
velX: -0.0285868681967
velY: -0.611710727215
velZ: 0.565601110458
accX: 0.0
accY: 0.0
accZ: 0.0
---
header: 
  seq: 113481
  stamp: 
    secs: 1596524180
    nsecs: 973324598
  frame_id: "node1_radarinterface_radarscan"
range: 2.5015232563
angle: -0.254723191261
elev: 0.519368290901
doppler: 0.0795030742884
snr: 234
noise: 430
frame_num: 13160
point_id: 10
x: -0.547208189964
y: 2.10158205032
z: 1.2415856123
doppler_bin: 33
target_idx: 13
posX: -0.537628889084
posY: 1.99449908733
posZ: 0.914683997631
velX: -0.0285868681967
velY: -0.611710727215
velZ: 0.565601110458
accX: 0.0
accY: 0.0
accZ: 0.0
---
header: 
  seq: 113482
  stamp: 
    secs: 1596524180
    nsecs: 973338739
  frame_id: "node1_radarinterface_radarscan"
range: 2.34517812729
angle: -0.283177733421
elev: 0.462929338217
doppler: 0.159006148577
snr: 265
noise: 379
frame_num: 13160
point_id: 16
x: -0.586294531822
y: 2.01477193832
z: 1.04728865623
doppler_bin: 34
target_idx: 13
posX: -0.537628889084
posY: 1.99449908733
posZ: 0.914683997631
velX: -0.0285868681967
velY: -0.611710727215
velZ: 0.565601110458
accX: 0.0
accY: 0.0
accZ: 0.0
---
header: 
  seq: 113483
  stamp: 
    secs: 1596524180
    nsecs: 973385702
  frame_id: "node1_radarinterface_radarscan"
range: 2.03248763084
angle: -0.347369998693
elev: 0.59851962328
doppler: -2.54409837723
snr: 265
noise: 365
frame_num: 13160
point_id: 24
x: -0.571637153625
y: 1.57888615131
z: 1.14514422417
doppler_bin: 0
target_idx: 13
posX: -0.537628889084
posY: 1.99449908733
posZ: 0.914683997631
velX: -0.0285868681967
velY: -0.611710727215
velZ: 0.565601110458
accX: 0.0
accY: 0.0
accZ: 0.0
---
header: 
  seq: 113484
  stamp: 
    secs: 1596524180
    nsecs: 973402834
  frame_id: "node1_radarinterface_radarscan"
range: 2.18883275986
angle: -0.358814835548
elev: 0.641989529133
doppler: -2.54409837723
snr: 175
noise: 369
frame_num: 13160
point_id: 26
x: -0.615609228611
y: 1.64140403271
z: 1.31065130234
doppler_bin: 0
target_idx: 13
posX: -0.537628889084
posY: 1.99449908733
posZ: 0.914683997631
velX: -0.0285868681967
velY: -0.611710727215
velZ: 0.565601110458
accX: 0.0
accY: 0.0
accZ: 0.0
---
header: 
  seq: 113485
  stamp: 
    secs: 1596524180
    nsecs: 973416157
  frame_id: "node1_radarinterface_radarscan"
range: 1.95431506634
angle: -0.296897411346
elev: 0.546130239964
doppler: -2.46459531784
snr: 186
noise: 365
frame_num: 13160
point_id: 27
x: -0.488578736782
y: 1.59697556496
z: 1.01504051685
doppler_bin: 1
target_idx: 13
posX: -0.537628889084
posY: 1.99449908733
posZ: 0.914683997631
velX: -0.0285868681967
velY: -0.611710727215
velZ: 0.565601110458
accX: 0.0
accY: 0.0
accZ: 0.0
---
header: 
  seq: 113486
  stamp: 
    secs: 1596524180
    nsecs: 973428575
  frame_id: "node1_radarinterface_radarscan"
range: 3.2832493782
angle: -0.130322679877
elev: 0.27700766921
doppler: -1.59006142616
snr: 127
noise: 397
frame_num: 13160
point_id: 31
x: -0.410406142473
y: 3.13130497932
z: 0.897898495197
doppler_bin: 12
target_idx: 13
posX: -0.537628889084
posY: 1.99449908733
posZ: 0.914683997631
velX: -0.0285868681967
velY: -0.611710727215
velZ: 0.565601110458
accX: 0.0
accY: 0.0
accZ: 0.0
---
header: 
  seq: 113487
  stamp: 
    secs: 1596524180
    nsecs: 973441161
  frame_id: "node1_radarinterface_radarscan"
range: 2.11066031456
angle: -0.254938393831
elev: 0.131756603718
doppler: -0.0795030742884
snr: 216
noise: 383
frame_num: 13160
point_id: 32
x: -0.52766507864
y: 2.0247387886
z: 0.277289539576
doppler_bin: 31
target_idx: 13
posX: -0.537628889084
posY: 1.99449908733
posZ: 0.914683997631
velX: -0.0285868681967
velY: -0.611710727215
velZ: 0.565601110458
accX: 0.0
accY: 0.0
accZ: 0.0
---
header: 
  seq: 113488
  stamp: 
    secs: 1596524180
    nsecs: 973456286
  frame_id: "node1_radarinterface_radarscan"
range: 2.42335057259
angle: -0.266459256411
elev: 0.319397091866
doppler: -0.0795030742884
snr: 230
noise: 389
frame_num: 13160
point_id: 34
x: -0.605837643147
y: 2.21959280968
z: 0.760918021202
doppler_bin: 31
target_idx: 13
posX: -0.537628889084
posY: 1.99449908733
posZ: 0.914683997631
velX: -0.0285868681967
velY: -0.611710727215
velZ: 0.565601110458
accX: 0.0
accY: 0.0
accZ: 0.0
---
header: 
  seq: 113489
  stamp: 
    secs: 1596524181
    nsecs:  73104199
  frame_id: "node1_radarinterface_radarscan"
range: 2.18883275986
angle: -0.22412353754
elev: 0.177752777934
doppler: 0.0
snr: 261
noise: 397
frame_num: 13161
point_id: 1
x: -0.47880718112
y: 2.10046291351
z: 0.387025475502
doppler_bin: 32
target_idx: 13
posX: -0.51323223114
posY: 2.07288217545
posZ: 0.789084792137
velX: 0.106165871024
velY: -0.219977557659
velZ: 0.114255547523
accX: 0.0
accY: 0.0
accZ: 0.0
---
header: 
  seq: 113490
  stamp: 
    secs: 1596524181
    nsecs:  73175851
  frame_id: "node1_radarinterface_radarscan"
range: 2.11066031456
angle: -0.254846036434
elev: 0.129053816199
doppler: 0.0795030742884
snr: 253
noise: 420
frame_num: 13161
point_id: 6
x: -0.52766507864
y: 2.02550530434
z: 0.271633297205
doppler_bin: 33
target_idx: 13
posX: -0.51323223114
posY: 2.07288217545
posZ: 0.789084792137
velX: 0.106165871024
velY: -0.219977557659
velZ: 0.114255547523
accX: 0.0
accY: 0.0
accZ: 0.0
---
header: 
  seq: 113491
  stamp: 
    secs: 1596524181
    nsecs:  73189503
  frame_id: "node1_radarinterface_radarscan"
range: 2.18883275986
angle: -0.223416402936
elev: 0.159502103925
doppler: 0.0795030742884
snr: 315
noise: 418
frame_num: 13161
point_id: 7
x: -0.47880718112
y: 2.10733866692
z: 0.347644984722
doppler_bin: 33
target_idx: 13
posX: -0.51323223114
posY: 2.07288217545
posZ: 0.789084792137
velX: 0.106165871024
velY: -0.219977557659
velZ: 0.114255547523
accX: 0.0
accY: 0.0
accZ: 0.0
---
header: 
  seq: 113492
  stamp: 
    secs: 1596524181
    nsecs:  73208489
  frame_id: "node1_radarinterface_radarscan"
range: 2.26700544357
angle: -0.224743723869
elev: 0.192268908024
doppler: 0.0795030742884
snr: 325
noise: 413
frame_num: 13161
point_id: 8
x: -0.495907485485
y: 2.1692700386
z: 0.433194100857
doppler_bin: 33
target_idx: 13
posX: -0.51323223114
posY: 2.07288217545
posZ: 0.789084792137
velX: 0.106165871024
velY: -0.219977557659
velZ: 0.114255547523
accX: 0.0
accY: 0.0
accZ: 0.0
---
header: 
  seq: 113493
  stamp: 
    secs: 1596524181
    nsecs:  73228168
  frame_id: "node1_radarinterface_radarscan"
range: 2.34517812729
angle: -0.193935841322
elev: 0.233330354095
doppler: 0.0795030742884
snr: 295
noise: 402
frame_num: 13161
point_id: 9
x: -0.439720869064
y: 2.2388548851
z: 0.542249500751
doppler_bin: 33
target_idx: 13
posX: -0.51323223114
posY: 2.07288217545
posZ: 0.789084792137
velX: 0.106165871024
velY: -0.219977557659
velZ: 0.114255547523
accX: 0.0
accY: 0.0
accZ: 0.0
---
header: 
  seq: 113494
  stamp: 
    secs: 1596524181
    nsecs:  73253307
  frame_id: "node1_radarinterface_radarscan"
range: 2.42335057259
angle: -0.199368610978
elev: 0.327876597643
doppler: 0.0795030742884
snr: 235
noise: 412
frame_num: 13161
point_id: 10
x: -0.454378217459
y: 2.24880957603
z: 0.780399978161
doppler_bin: 33
target_idx: 13
posX: -0.51323223114
posY: 2.07288217545
posZ: 0.789084792137
velX: 0.106165871024
velY: -0.219977557659
velZ: 0.114255547523
accX: 0.0
accY: 0.0
accZ: 0.0
---
header: 
  seq: 113495
  stamp: 
    secs: 1596524181
    nsecs:  73276571
  frame_id: "node1_radarinterface_radarscan"
range: 2.11066031456
angle: -0.255507081747
elev: 0.147277712822
doppler: 0.159006148577
snr: 206
noise: 387
frame_num: 13161
point_id: 14
x: -0.52766507864
y: 2.0200304985
z: 0.309730678797
doppler_bin: 34
target_idx: 13
posX: -0.51323223114
posY: 2.07288217545
posZ: 0.789084792137
velX: 0.106165871024
velY: -0.219977557659
velZ: 0.114255547523
accX: 0.0
accY: 0.0
accZ: 0.0
---
header: 
  seq: 113496
  stamp: 
    secs: 1596524181
    nsecs:  73328635
  frame_id: "node1_radarinterface_radarscan"
range: 2.26700544357
angle: -0.227871716022
elev: 0.252349942923
doppler: 0.159006148577
snr: 315
noise: 387
frame_num: 13161
point_id: 16
x: -0.49590742588
y: 2.13845825195
z: 0.56602627039
doppler_bin: 34
target_idx: 13
posX: -0.51323223114
posY: 2.07288217545
posZ: 0.789084792137
velX: 0.106165871024
velY: -0.219977557659
velZ: 0.114255547523
accX: 0.0
accY: 0.0
accZ: 0.0
---
header: 
  seq: 113497
  stamp: 
    secs: 1596524181
    nsecs:  73341066
  frame_id: "node1_radarinterface_radarscan"
range: 2.42335057259
angle: -0.236988946795
elev: 0.371631801128
doppler: 0.238509222865
snr: 190
noise: 395
frame_num: 13161
point_id: 24
x: -0.530107975006
y: 2.19481253624
z: 0.880006611347
doppler_bin: 35
target_idx: 13
posX: -0.51323223114
posY: 2.07288217545
posZ: 0.789084792137
velX: 0.106165871024
velY: -0.219977557659
velZ: 0.114255547523
accX: 0.0
accY: 0.0
accZ: 0.0
---
header: 
  seq: 113498
  stamp: 
    secs: 1596524181
    nsecs:  73355642
  frame_id: "node1_radarinterface_radarscan"
range: 2.34517812729
angle: -0.236617997289
elev: 0.367664784193
doppler: -1.19254612923
snr: 147
noise: 387
frame_num: 13161
point_id: 26
x: -0.513007700443
y: 2.12747001648
z: 0.842944383621
doppler_bin: 17
target_idx: 13
posX: -0.51323223114
posY: 2.07288217545
posZ: 0.789084792137
velX: 0.106165871024
velY: -0.219977557659
velZ: 0.114255547523
accX: 0.0
accY: 0.0
accZ: 0.0
---
header: 
  seq: 113499
  stamp: 
    secs: 1596524181
    nsecs:  73365538
  frame_id: "node1_radarinterface_radarscan"
range: 2.5015232563
angle: -0.162012845278
elev: 0.251011073589
doppler: -0.159006148577
snr: 249
noise: 394
frame_num: 13161
point_id: 27
x: -0.390863031149
y: 2.39139819145
z: 0.62133705616
doppler_bin: 30
target_idx: 13
posX: -0.51323223114
posY: 2.07288217545
posZ: 0.789084792137
velX: 0.106165871024
velY: -0.219977557659
velZ: 0.114255547523
accX: 0.0
accY: 0.0
accZ: 0.0
---
header: 
  seq: 113500
  stamp: 
    secs: 1596524181
    nsecs:  73377469
  frame_id: "node1_radarinterface_radarscan"
range: 2.11066031456
angle: -0.253212332726
elev: 0.0641421899199
doppler: -0.0795030742884
snr: 225
noise: 405
frame_num: 13161
point_id: 30
x: -0.527665019035
y: 2.03915500641
z: 0.135289564729
doppler_bin: 31
target_idx: 13
posX: -0.51323223114
posY: 2.07288217545
posZ: 0.789084792137
velX: 0.106165871024
velY: -0.219977557659
velZ: 0.114255547523
accX: 0.0
accY: 0.0
accZ: 0.0
---
header: 
  seq: 113501
  stamp: 
    secs: 1596524181
    nsecs:  73393078
  frame_id: "node1_radarinterface_radarscan"
range: 2.18883275986
angle: -0.253200948238
elev: 0.0634525418282
doppler: -0.0795030742884
snr: 280
noise: 392
frame_num: 13161
point_id: 31
x: -0.547208189964
y: 2.1147787571
z: 0.138793826103
doppler_bin: 31
target_idx: 13
posX: -0.51323223114
posY: 2.07288217545
posZ: 0.789084792137
velX: 0.106165871024
velY: -0.219977557659
velZ: 0.114255547523
accX: 0.0
accY: 0.0
accZ: 0.0
---
header: 
  seq: 113502
  stamp: 
    secs: 1596524181
    nsecs:  73409576
  frame_id: "node1_radarinterface_radarscan"
range: 2.5015232563
angle: -0.163442403078
elev: 0.282850176096
doppler: -0.0795030742884
snr: 219
noise: 419
frame_num: 13161
point_id: 32
x: -0.390863031149
y: 2.37010931969
z: 0.698159396648
doppler_bin: 31
target_idx: 13
posX: -0.51323223114
posY: 2.07288217545
posZ: 0.789084792137
velX: 0.106165871024
velY: -0.219977557659
velZ: 0.114255547523
accX: 0.0
accY: 0.0
accZ: 0.0
---
header: 
  seq: 113503
  stamp: 
    secs: 1596524181
    nsecs: 174165964
  frame_id: "node1_radarinterface_radarscan"
range: 2.18883275986
angle: -0.225140064955
elev: 0.200965121388
doppler: 0.0
snr: 273
noise: 386
frame_num: 13162
point_id: 1
x: -0.478807151318
y: 2.09065294266
z: 0.436924129725
doppler_bin: 32
target_idx: 13
posX: -0.521729409695
posY: 2.09353089333
posZ: 0.746610105038
velX: 0.0645446702838
velY: -0.0700197517872
velZ: -0.0423853695393
accX: 0.0
accY: 0.0
accZ: 0.0
---
header: 
  seq: 113504
  stamp: 
    secs: 1596524181
    nsecs: 174211980
  frame_id: "node1_radarinterface_radarscan"
range: 2.11066031456
angle: -0.253919064999
elev: 0.0977546945214
doppler: 0.0795030742884
snr: 282
noise: 394
frame_num: 13162
point_id: 6
x: -0.52766507864
y: 2.03322911263
z: 0.205998495221
doppler_bin: 33
target_idx: 13
posX: -0.521729409695
posY: 2.09353089333
posZ: 0.746610105038
velX: 0.0645446702838
velY: -0.0700197517872
velZ: -0.0423853695393
accX: 0.0
accY: 0.0
accZ: 0.0
---
header: 
  seq: 113505
  stamp: 
    secs: 1596524181
    nsecs: 174224919
  frame_id: "node1_radarinterface_radarscan"
range: 2.18883275986
angle: -0.22444665432
elev: 0.18546615541
doppler: 0.0795030742884
snr: 343
noise: 387
frame_num: 13162
point_id: 7
x: -0.478807151318
y: 2.09733510017
z: 0.403631091118
doppler_bin: 33
target_idx: 13
posX: -0.521729409695
posY: 2.09353089333
posZ: 0.746610105038
velX: 0.0645446702838
velY: -0.0700197517872
velZ: -0.0423853695393
accX: 0.0
accY: 0.0
accZ: 0.0
---
header: 
  seq: 113506
  stamp: 
    secs: 1596524181
    nsecs: 174240494
  frame_id: "node1_radarinterface_radarscan"
range: 2.26700544357
angle: -0.229858055711
elev: 0.283413529396
doppler: 0.0795030742884
snr: 365
noise: 386
frame_num: 13162
point_id: 8
x: -0.495907455683
y: 2.11932015419
z: 0.633933186531
doppler_bin: 33
target_idx: 13
posX: -0.521729409695
posY: 2.09353089333
posZ: 0.746610105038
velX: 0.0645446702838
velY: -0.0700197517872
velZ: -0.0423853695393
accX: 0.0
accY: 0.0
accZ: 0.0
---
header: 
  seq: 113507
  stamp: 
    secs: 1596524181
    nsecs: 174251325
  frame_id: "node1_radarinterface_radarscan"
range: 2.34517812729
angle: -0.237272173166
elev: 0.374625533819
doppler: 0.0795030742884
snr: 347
noise: 386
frame_num: 13162
point_id: 9
x: -0.513007700443
y: 2.12137913704
z: 0.858157098293
doppler_bin: 33
target_idx: 13
posX: -0.521729409695
posY: 2.09353089333
posZ: 0.746610105038
velX: 0.0645446702838
velY: -0.0700197517872
velZ: -0.0423853695393
accX: 0.0
accY: 0.0
accZ: 0.0
---
header: 
  seq: 113508
  stamp: 
    secs: 1596524181
    nsecs: 174262274
  frame_id: "node1_radarinterface_radarscan"
range: 2.42335057259
angle: -0.299668580294
elev: 0.560718595982
doppler: 0.0795030742884
snr: 305
noise: 407
frame_num: 13162
point_id: 10
x: -0.605837643147
y: 1.96080994606
z: 1.28872549534
doppler_bin: 33
target_idx: 13
posX: -0.521729409695
posY: 2.09353089333
posZ: 0.746610105038
velX: 0.0645446702838
velY: -0.0700197517872
velZ: -0.0423853695393
accX: 0.0
accY: 0.0
accZ: 0.0
---
header: 
  seq: 113509
  stamp: 
    secs: 1596524181
    nsecs: 174272689
  frame_id: "node1_radarinterface_radarscan"
range: 2.11066031456
angle: -0.259079486132
elev: 0.220286175609
doppler: 0.159006148577
snr: 242
noise: 380
frame_num: 13162
point_id: 12
x: -0.52766507864
y: 1.99091756344
z: 0.461198061705
doppler_bin: 34
target_idx: 13
posX: -0.521729409695
posY: 2.09353089333
posZ: 0.746610105038
velX: 0.0645446702838
velY: -0.0700197517872
velZ: -0.0423853695393
accX: 0.0
accY: 0.0
accZ: 0.0
---
header: 
  seq: 113510
  stamp: 
    secs: 1596524181
    nsecs: 174282820
  frame_id: "node1_radarinterface_radarscan"
range: 2.18883275986
angle: -0.228657796979
elev: 0.26513415575
doppler: 0.159006148577
snr: 332
noise: 378
frame_num: 13162
point_id: 13
x: -0.47880718112
y: 2.05736804008
z: 0.573558986187
doppler_bin: 34
target_idx: 13
posX: -0.521729409695
posY: 2.09353089333
posZ: 0.746610105038
velX: 0.0645446702838
velY: -0.0700197517872
velZ: -0.0423853695393
accX: 0.0
accY: 0.0
accZ: 0.0
---
header: 
  seq: 113511
  stamp: 
    secs: 1596524181
    nsecs: 174293903
  frame_id: "node1_radarinterface_radarscan"
range: 2.26700544357
angle: -0.229964852333
elev: 0.284975737333
doppler: 0.159006148577
snr: 363
noise: 375
frame_num: 13162
point_id: 14
x: -0.49590742588
y: 2.11830043793
z: 0.637332677841
doppler_bin: 34
target_idx: 13
posX: -0.521729409695
posY: 2.09353089333
posZ: 0.746610105038
velX: 0.0645446702838
velY: -0.0700197517872
velZ: -0.0423853695393
accX: 0.0
accY: 0.0
accZ: 0.0
---
header: 
  seq: 113512
  stamp: 
    secs: 1596524181
    nsecs: 174305533
  frame_id: "node1_radarinterface_radarscan"
range: 2.42335057259
angle: -0.291224807501
elev: 0.514174759388
doppler: 0.159006148577
snr: 319
noise: 389
frame_num: 13162
point_id: 16
x: -0.605837702751
y: 2.02116250992
z: 1.19184374809
doppler_bin: 34
target_idx: 13
posX: -0.521729409695
posY: 2.09353089333
posZ: 0.746610105038
velX: 0.0645446702838
velY: -0.0700197517872
velZ: -0.0423853695393
accX: 0.0
accY: 0.0
accZ: 0.0
---
header: 
  seq: 113513
  stamp: 
    secs: 1596524181
    nsecs: 174318274
  frame_id: "node1_radarinterface_radarscan"
range: 2.11066031456
angle: -0.253377705812
elev: 0.0734158530831
doppler: -0.0795030742884
snr: 231
noise: 406
frame_num: 13162
point_id: 27
x: -0.52766507864
y: 2.03776550293
z: 0.154816761613
doppler_bin: 31
target_idx: 13
posX: -0.521729409695
posY: 2.09353089333
posZ: 0.746610105038
velX: 0.0645446702838
velY: -0.0700197517872
velZ: -0.0423853695393
accX: 0.0
accY: 0.0
accZ: 0.0
---
header: 
  seq: 113514
  stamp: 
    secs: 1596524181
    nsecs: 273963852
  frame_id: "node1_radarinterface_radarscan"
range: 2.18883275986
angle: -0.256426692009
elev: 0.169290557504
doppler: 0.0
snr: 251
noise: 391
frame_num: 13163
point_id: 1
x: -0.547208249569
y: 2.08699607849
z: 0.368781298399
doppler_bin: 32
target_idx: 13
posX: -0.493421435356
posY: 2.13732075691
posZ: 0.667918562889
velX: 0.179787680507
velY: 0.0985717773438
velZ: -0.29695379734
accX: 0.0
accY: 0.0
accZ: 0.0
---
header: 
  seq: 113515
  stamp: 
    secs: 1596524181
    nsecs: 274038094
  frame_id: "node1_radarinterface_radarscan"
range: 2.57969594002
angle: -0.160482481122
elev: 0.211017116904
doppler: 0.0
snr: 144
noise: 454
frame_num: 13163
point_id: 6
x: -0.403077483177
y: 2.49006104469
z: 0.540329098701
doppler_bin: 32
target_idx: 13
posX: -0.493421435356
posY: 2.13732075691
posZ: 0.667918562889
velX: 0.179787680507
velY: 0.0985717773438
velZ: -0.29695379734
accX: 0.0
accY: 0.0
accZ: 0.0
---
header: 
  seq: 113516
  stamp: 
    secs: 1596524181
    nsecs: 274147614
  frame_id: "node1_radarinterface_radarscan"
range: 2.42335057259
angle: -0.235813990235
elev: 0.35887825489
doppler: 0.0795030742884
snr: 219
noise: 405
frame_num: 13163
point_id: 7
x: -0.530107975006
y: 2.20616769791
z: 0.851139307022
doppler_bin: 33
target_idx: 13
posX: -0.493421435356
posY: 2.13732075691
posZ: 0.667918562889
velX: 0.179787680507
velY: 0.0985717773438
velZ: -0.29695379734
accX: 0.0
accY: 0.0
accZ: 0.0
---
header: 
  seq: 113517
  stamp: 
    secs: 1596524181
    nsecs: 274163732
  frame_id: "node1_radarinterface_radarscan"
range: 2.5015232563
angle: -0.164465233684
elev: 0.303335994482
doppler: 0.0795030742884
snr: 186
noise: 427
frame_num: 13163
point_id: 8
x: -0.390863001347
y: 2.35510253906
z: 0.747218906879
doppler_bin: 33
target_idx: 13
posX: -0.493421435356
posY: 2.13732075691
posZ: 0.667918562889
velX: 0.179787680507
velY: 0.0985717773438
velZ: -0.29695379734
accX: 0.0
accY: 0.0
accZ: 0.0
---
header: 
  seq: 113518
  stamp: 
    secs: 1596524181
    nsecs: 274176482
  frame_id: "node1_radarinterface_radarscan"
range: 2.57969594002
angle: -0.0977493301034
elev: 0.281589627266
doppler: 0.0795030742884
snr: 141
noise: 457
frame_num: 13163
point_id: 9
x: -0.241846486926
y: 2.46626472473
z: 0.716853678226
doppler_bin: 33
target_idx: 13
posX: -0.493421435356
posY: 2.13732075691
posZ: 0.667918562889
velX: 0.179787680507
velY: 0.0985717773438
velZ: -0.29695379734
accX: 0.0
accY: 0.0
accZ: 0.0
---
header: 
  seq: 113519
  stamp: 
    secs: 1596524181
    nsecs: 274205882
  frame_id: "node1_radarinterface_radarscan"
range: 2.65786838531
angle: -0.226326361299
elev: 0.224858418107
doppler: 0.159006148577
snr: 141
noise: 464
frame_num: 13163
point_id: 10
x: -0.58140873909
y: 2.52488207817
z: 0.592620491982
doppler_bin: 34
target_idx: 13
posX: -0.493421435356
posY: 2.13732075691
posZ: 0.667918562889
velX: 0.179787680507
velY: 0.0985717773438
velZ: -0.29695379734
accX: 0.0
accY: 0.0
accZ: 0.0
---
header: 
  seq: 113520
  stamp: 
    secs: 1596524181
    nsecs: 274234843
  frame_id: "node1_radarinterface_radarscan"
range: 2.11066031456
angle: -0.195587337017
elev: 0.266150563955
doppler: -0.159006148577
snr: 225
noise: 389
frame_num: 13163
point_id: 13
x: -0.395748794079
y: 1.99751937389
z: 0.555144786835
doppler_bin: 30
target_idx: 13
posX: -0.493421435356
posY: 2.13732075691
posZ: 0.667918562889
velX: 0.179787680507
velY: 0.0985717773438
velZ: -0.29695379734
accX: 0.0
accY: 0.0
accZ: 0.0
---
header: 
  seq: 113521
  stamp: 
    secs: 1596524181
    nsecs: 274293659
  frame_id: "node1_radarinterface_radarscan"
range: 2.18883275986
angle: -0.196182280779
elev: 0.276919603348
doppler: -0.159006148577
snr: 293
noise: 390
frame_num: 13163
point_id: 14
x: -0.410406142473
y: 2.06505608559
z: 0.598413527012
doppler_bin: 30
target_idx: 13
posX: -0.493421435356
posY: 2.13732075691
posZ: 0.667918562889
velX: 0.179787680507
velY: 0.0985717773438
velZ: -0.29695379734
accX: 0.0
accY: 0.0
accZ: 0.0
---
header: 
  seq: 113522
  stamp: 
    secs: 1596524181
    nsecs: 274308066
  frame_id: "node1_radarinterface_radarscan"
range: 2.11066031456
angle: -0.22478350997
elev: 0.193160891533
doppler: -0.0795030742884
snr: 249
noise: 391
frame_num: 13163
point_id: 16
x: -0.461706966162
y: 2.01929545403
z: 0.405166476965
doppler_bin: 31
target_idx: 13
posX: -0.493421435356
posY: 2.13732075691
posZ: 0.667918562889
velX: 0.179787680507
velY: 0.0985717773438
velZ: -0.29695379734
accX: 0.0
accY: 0.0
accZ: 0.0
---
header: 
  seq: 113523
  stamp: 
    secs: 1596524181
    nsecs: 274323493
  frame_id: "node1_radarinterface_radarscan"
range: 2.5015232563
angle: -0.193098381162
elev: 0.214568853378
doppler: -0.0795030742884
snr: 212
noise: 435
frame_num: 13163
point_id: 20
x: -0.469035595655
y: 2.39873290062
z: 0.532639801502
doppler_bin: 31
target_idx: 13
posX: -0.493421435356
posY: 2.13732075691
posZ: 0.667918562889
velX: 0.179787680507
velY: 0.0985717773438
velZ: -0.29695379734
accX: 0.0
accY: 0.0
accZ: 0.0
---
header: 
  seq: 113524
  stamp: 
    secs: 1596524181
    nsecs: 274337727
  frame_id: "node1_radarinterface_radarscan"
range: 2.57969594002
angle: -0.222466483712
elev: 0.13084487617
doppler: -0.0795030742884
snr: 152
noise: 475
frame_num: 13163
point_id: 21
x: -0.564308524132
y: 2.49461483955
z: 0.336577683687
doppler_bin: 31
target_idx: 13
posX: -0.493421435356
posY: 2.13732075691
posZ: 0.667918562889
velX: 0.179787680507
velY: 0.0985717773438
velZ: -0.29695379734
accX: 0.0
accY: 0.0
accZ: 0.0
---
header: 
  seq: 113525
  stamp: 
    secs: 1596524181
    nsecs: 374646269
  frame_id: "node1_radarinterface_radarscan"
range: 2.11066031456
angle: -0.227408334613
elev: 0.24446375668
doppler: -0.95403689146
snr: 380
noise: 375
frame_num: 13164
point_id: 12
x: -0.461706906557
y: 1.99517905712
z: 0.510855913162
doppler_bin: 20
target_idx: 13
posX: -0.490079075098
posY: 2.12067079544
posZ: 0.588711500168
velX: 0.172070249915
velY: -0.0304974913597
velZ: -0.523343265057
accX: 0.0
accY: 0.0
accZ: 0.0
---
header: 
  seq: 113526
  stamp: 
    secs: 1596524181
    nsecs: 374743181
  frame_id: "node1_radarinterface_radarscan"
range: 2.18883275986
angle: -0.226818576455
elev: 0.234000846744
doppler: -0.95403689146
snr: 385
noise: 373
frame_num: 13164
point_id: 13
x: -0.47880718112
y: 2.07464432716
z: 0.50752723217
doppler_bin: 20
target_idx: 13
posX: -0.490079075098
posY: 2.12067079544
posZ: 0.588711500168
velX: 0.172070249915
velY: -0.0304974913597
velZ: -0.523343265057
accX: 0.0
accY: 0.0
accZ: 0.0
---
header: 
  seq: 113527
  stamp: 
    secs: 1596524181
    nsecs: 374800448
  frame_id: "node1_radarinterface_radarscan"
range: 2.26700544357
angle: -0.226272404194
elev: 0.223831430078
doppler: -0.95403689146
snr: 322
noise: 375
frame_num: 13164
point_id: 14
x: -0.49590742588
y: 2.15410733223
z: 0.503200590611
doppler_bin: 20
target_idx: 13
posX: -0.490079075098
posY: 2.12067079544
posZ: 0.588711500168
velX: 0.172070249915
velY: -0.0304974913597
velZ: -0.523343265057
accX: 0.0
accY: 0.0
accZ: 0.0
---
header: 
  seq: 113528
  stamp: 
    secs: 1596524181
    nsecs: 374854079
  frame_id: "node1_radarinterface_radarscan"
range: 2.26700544357
angle: -0.226938903332
elev: 0.236176878214
doppler: -0.874533832073
snr: 341
noise: 383
frame_num: 13164
point_id: 20
x: -0.49590742588
y: 2.14755940437
z: 0.530450582504
doppler_bin: 21
target_idx: 13
posX: -0.490079075098
posY: 2.12067079544
posZ: 0.588711500168
velX: 0.172070249915
velY: -0.0304974913597
velZ: -0.523343265057
accX: 0.0
accY: 0.0
accZ: 0.0
---
header: 
  seq: 113529
  stamp: 
    secs: 1596524181
    nsecs: 374959928
  frame_id: "node1_radarinterface_radarscan"
range: 2.18883275986
angle: -0.258021086454
elev: 0.201597332954
doppler: -0.238509222865
snr: 334
noise: 378
frame_num: 13164
point_id: 21
x: -0.547208189964
y: 2.07351469994
z: 0.438279986382
doppler_bin: 29
target_idx: 13
posX: -0.490079075098
posY: 2.12067079544
posZ: 0.588711500168
velX: 0.172070249915
velY: -0.0304974913597
velZ: -0.523343265057
accX: 0.0
accY: 0.0
accZ: 0.0
---
header: 
  seq: 113530
  stamp: 
    secs: 1596524181
    nsecs: 375046886
  frame_id: "node1_radarinterface_radarscan"
range: 2.34517812729
angle: -0.224160701036
elev: 0.178657948971
doppler: -0.238509222865
snr: 256
noise: 383
frame_num: 13164
point_id: 23
x: -0.513007700443
y: 2.25011014938
z: 0.416759371758
doppler_bin: 29
target_idx: 13
posX: -0.490079075098
posY: 2.12067079544
posZ: 0.588711500168
velX: 0.172070249915
velY: -0.0304974913597
velZ: -0.523343265057
accX: 0.0
accY: 0.0
accZ: 0.0
---
header: 
  seq: 113531
  stamp: 
    secs: 1596524181
    nsecs: 375074225
  frame_id: "node1_radarinterface_radarscan"
range: 2.11066031456
angle: -0.259669721127
elev: 0.229998514056
doppler: -0.159006148577
snr: 328
noise: 375
frame_num: 13164
point_id: 25
x: -0.52766507864
y: 1.98618280888
z: 0.481180071831
doppler_bin: 30
target_idx: 13
posX: -0.490079075098
posY: 2.12067079544
posZ: 0.588711500168
velX: 0.172070249915
velY: -0.0304974913597
velZ: -0.523343265057
accX: 0.0
accY: 0.0
accZ: 0.0
---
header: 
  seq: 113532
  stamp: 
    secs: 1596524181
    nsecs: 375109107
  frame_id: "node1_radarinterface_radarscan"
range: 2.18883275986
angle: -0.258618146181
elev: 0.21235832572
doppler: -0.159006148577
snr: 376
noise: 374
frame_num: 13164
point_id: 26
x: -0.547208189964
y: 2.06850814819
z: 0.461331158876
doppler_bin: 30
target_idx: 13
posX: -0.490079075098
posY: 2.12067079544
posZ: 0.588711500168
velX: 0.172070249915
velY: -0.0304974913597
velZ: -0.523343265057
accX: 0.0
accY: 0.0
accZ: 0.0
---
header: 
  seq: 113533
  stamp: 
    secs: 1596524181
    nsecs: 375138049
  frame_id: "node1_radarinterface_radarscan"
range: 2.34517812729
angle: -0.226527228951
elev: 0.228637605906
doppler: -0.159006148577
snr: 296
noise: 378
frame_num: 13164
point_id: 28
x: -0.513007760048
y: 2.22579264641
z: 0.531536459923
doppler_bin: 30
target_idx: 13
posX: -0.490079075098
posY: 2.12067079544
posZ: 0.588711500168
velX: 0.172070249915
velY: -0.0304974913597
velZ: -0.523343265057
accX: 0.0
accY: 0.0
accZ: 0.0
---
header: 
  seq: 113534
  stamp: 
    secs: 1596524181
    nsecs: 375165579
  frame_id: "node1_radarinterface_radarscan"
range: 2.42335057259
angle: -0.197246417403
elev: 0.295077234507
doppler: -0.159006148577
snr: 243
noise: 402
frame_num: 13164
point_id: 29
x: -0.454378247261
y: 2.27365446091
z: 0.704743683338
doppler_bin: 30
target_idx: 13
posX: -0.490079075098
posY: 2.12067079544
posZ: 0.588711500168
velX: 0.172070249915
velY: -0.0304974913597
velZ: -0.523343265057
accX: 0.0
accY: 0.0
accZ: 0.0
---
header: 
  seq: 113535
  stamp: 
    secs: 1596524181
    nsecs: 375193045
  frame_id: "node1_radarinterface_radarscan"
range: 2.57969594002
angle: -0.163641214371
elev: 0.28696373105
doppler: -0.159006148577
snr: 142
noise: 481
frame_num: 13164
point_id: 30
x: -0.40307751298
y: 2.44115233421
z: 0.730160832405
doppler_bin: 30
target_idx: 13
posX: -0.490079075098
posY: 2.12067079544
posZ: 0.588711500168
velX: 0.172070249915
velY: -0.0304974913597
velZ: -0.523343265057
accX: 0.0
accY: 0.0
accZ: 0.0
---
header: 
  seq: 113536
  stamp: 
    secs: 1596524181
    nsecs: 375219948
  frame_id: "node1_radarinterface_radarscan"
range: 2.18883275986
angle: -0.260238558054
elev: 0.238951921463
doppler: -0.0795030742884
snr: 340
noise: 381
frame_num: 13164
point_id: 32
x: -0.547208189964
y: 2.05503368378
z: 0.518062710762
doppler_bin: 31
target_idx: 13
posX: -0.490079075098
posY: 2.12067079544
posZ: 0.588711500168
velX: 0.172070249915
velY: -0.0304974913597
velZ: -0.523343265057
accX: 0.0
accY: 0.0
accZ: 0.0
---
header: 
  seq: 113537
  stamp: 
    secs: 1596524181
    nsecs: 375248571
  frame_id: "node1_radarinterface_radarscan"
range: 2.34517812729
angle: -0.227076068521
elev: 0.238631203771
doppler: -0.0795030742884
snr: 294
noise: 380
frame_num: 13164
point_id: 34
x: -0.513007700443
y: 2.22022414207
z: 0.554336428642
doppler_bin: 31
target_idx: 13
posX: -0.490079075098
posY: 2.12067079544
posZ: 0.588711500168
velX: 0.172070249915
velY: -0.0304974913597
velZ: -0.523343265057
accX: 0.0
accY: 0.0
accZ: 0.0
---
header: 
  seq: 113538
  stamp: 
    secs: 1596524181
    nsecs: 375274437
  frame_id: "node1_radarinterface_radarscan"
range: 2.42335057259
angle: -0.19943960011
elev: 0.328907549381
doppler: -0.0795030742884
snr: 259
noise: 394
frame_num: 13164
point_id: 35
x: -0.454378217459
y: 2.24798750877
z: 0.782764852047
doppler_bin: 31
target_idx: 13
posX: -0.490079075098
posY: 2.12067079544
posZ: 0.588711500168
velX: 0.172070249915
velY: -0.0304974913597
velZ: -0.523343265057
accX: 0.0
accY: 0.0
accZ: 0.0
---
header: 
  seq: 113539
  stamp: 
    secs: 1596524181
    nsecs: 473880723
  frame_id: "node1_radarinterface_radarscan"
range: 2.18883275986
angle: -0.257894217968
elev: 0.199229732156
doppler: 0.0
snr: 263
noise: 387
frame_num: 13165
point_id: 1
x: -0.547208249569
y: 2.07458162308
z: 0.433201432228
doppler_bin: 32
target_idx: 13
posX: -0.478387445211
posY: 2.15055346489
posZ: 0.548609972
velX: 0.180779993534
velY: 0.0826063677669
velZ: -0.566138505936
accX: 0.0
accY: 0.0
accZ: 0.0
---
header: 
  seq: 113540
  stamp: 
    secs: 1596524181
    nsecs: 473940808
  frame_id: "node1_radarinterface_radarscan"
range: 2.18883275986
angle: -0.226616054773
elev: 0.230287238955
doppler: 0.0795030742884
snr: 318
noise: 382
frame_num: 13165
point_id: 6
x: -0.478807151318
y: 2.07656335831
z: 0.499616801739
doppler_bin: 33
target_idx: 13
posX: -0.478387445211
posY: 2.15055346489
posZ: 0.548609972
velX: 0.180779993534
velY: 0.0826063677669
velZ: -0.566138505936
accX: 0.0
accY: 0.0
accZ: 0.0
---
header: 
  seq: 113541
  stamp: 
    secs: 1596524181
    nsecs: 473988484
  frame_id: "node1_radarinterface_radarscan"
range: 2.26700544357
angle: -0.229119241238
elev: 0.27232632041
doppler: 0.0795030742884
snr: 326
noise: 375
frame_num: 13165
point_id: 7
x: -0.49590742588
y: 2.12640047073
z: 0.60976266861
doppler_bin: 33
target_idx: 13
posX: -0.478387445211
posY: 2.15055346489
posZ: 0.548609972
velX: 0.180779993534
velY: 0.0826063677669
velZ: -0.566138505936
accX: 0.0
accY: 0.0
accZ: 0.0
---
header: 
  seq: 113542
  stamp: 
    secs: 1596524181
    nsecs: 474003064
  frame_id: "node1_radarinterface_radarscan"
range: 2.34517812729
angle: -0.199466452003
elev: 0.329296380281
doppler: 0.0795030742884
snr: 255
noise: 374
frame_num: 13165
point_id: 8
x: -0.439720928669
y: 2.17517113686
z: 0.758377373219
doppler_bin: 33
target_idx: 13
posX: -0.478387445211
posY: 2.15055346489
posZ: 0.548609972
velX: 0.180779993534
velY: 0.0826063677669
velZ: -0.566138505936
accX: 0.0
accY: 0.0
accZ: 0.0
---
header: 
  seq: 113543
  stamp: 
    secs: 1596524181
    nsecs: 474016898
  frame_id: "node1_radarinterface_radarscan"
range: 2.57969594002
angle: -0.195057794452
elev: 0.256135433912
doppler: 0.0795030742884
snr: 112
noise: 467
frame_num: 13165
point_id: 9
x: -0.483692973852
y: 2.44821238518
z: 0.653550386429
doppler_bin: 33
target_idx: 13
posX: -0.478387445211
posY: 2.15055346489
posZ: 0.548609972
velX: 0.180779993534
velY: 0.0826063677669
velZ: -0.566138505936
accX: 0.0
accY: 0.0
accZ: 0.0
---
header: 
  seq: 113544
  stamp: 
    secs: 1596524181
    nsecs: 474037930
  frame_id: "node1_radarinterface_radarscan"
range: 2.11066031456
angle: -0.257182180882
elev: 0.185345068574
doppler: 0.159006148577
snr: 237
noise: 367
frame_num: 13165
point_id: 10
x: -0.527665019035
y: 2.00628089905
z: 0.388964533806
doppler_bin: 34
target_idx: 13
posX: -0.478387445211
posY: 2.15055346489
posZ: 0.548609972
velX: 0.180779993534
velY: 0.0826063677669
velZ: -0.566138505936
accX: 0.0
accY: 0.0
accZ: 0.0
---
header: 
  seq: 113545
  stamp: 
    secs: 1596524181
    nsecs: 474077493
  frame_id: "node1_radarinterface_radarscan"
range: 2.26700544357
angle: -0.227642521262
elev: 0.248483896255
doppler: 0.159006148577
snr: 267
noise: 367
frame_num: 13165
point_id: 12
x: -0.49590742588
y: 2.14068770409
z: 0.557535290718
doppler_bin: 34
target_idx: 13
posX: -0.478387445211
posY: 2.15055346489
posZ: 0.548609972
velX: 0.180779993534
velY: 0.0826063677669
velZ: -0.566138505936
accX: 0.0
accY: 0.0
accZ: 0.0
---
header: 
  seq: 113546
  stamp: 
    secs: 1596524181
    nsecs: 474092977
  frame_id: "node1_radarinterface_radarscan"
range: 3.04873156548
angle: 0.0
elev: 0.175635457039
doppler: 2.22608613968
snr: 153
noise: 384
frame_num: 13165
point_id: 26
x: 0.0
y: 3.00182890892
z: 0.532716631889
doppler_bin: 60
target_idx: 13
posX: -0.478387445211
posY: 2.15055346489
posZ: 0.548609972
velX: 0.180779993534
velY: 0.0826063677669
velZ: -0.566138505936
accX: 0.0
accY: 0.0
accZ: 0.0
---
header: 
  seq: 113547
  stamp: 
    secs: 1596524181
    nsecs: 474105911
  frame_id: "node1_radarinterface_radarscan"
range: 2.42335057259
angle: -0.194447055459
elev: 0.244013339281
doppler: -0.238509222865
snr: 271
noise: 382
frame_num: 13165
point_id: 28
x: -0.454378217459
y: 2.30724549294
z: 0.585479080677
doppler_bin: 29
target_idx: 13
posX: -0.478387445211
posY: 2.15055346489
posZ: 0.548609972
velX: 0.180779993534
velY: 0.0826063677669
velZ: -0.566138505936
accX: 0.0
accY: 0.0
accZ: 0.0
---
header: 
  seq: 113548
  stamp: 
    secs: 1596524181
    nsecs: 474118915
  frame_id: "node1_radarinterface_radarscan"
range: 2.11066031456
angle: -0.199067175388
elev: 0.32345533371
doppler: -0.159006148577
snr: 230
noise: 368
frame_num: 13165
point_id: 29
x: -0.395748794079
y: 1.96168649197
z: 0.670861959457
doppler_bin: 30
target_idx: 13
posX: -0.478387445211
posY: 2.15055346489
posZ: 0.548609972
velX: 0.180779993534
velY: 0.0826063677669
velZ: -0.566138505936
accX: 0.0
accY: 0.0
accZ: 0.0
---
header: 
  seq: 113549
  stamp: 
    secs: 1596524181
    nsecs: 474131601
  frame_id: "node1_radarinterface_radarscan"
range: 2.18883275986
angle: -0.196400791407
elev: 0.280757933855
doppler: -0.159006148577
snr: 297
noise: 367
frame_num: 13165
point_id: 30
x: -0.410406142473
y: 2.06269860268
z: 0.606490492821
doppler_bin: 30
target_idx: 13
posX: -0.478387445211
posY: 2.15055346489
posZ: 0.548609972
velX: 0.180779993534
velY: 0.0826063677669
velZ: -0.566138505936
accX: 0.0
accY: 0.0
accZ: 0.0
---
header: 
  seq: 113550
  stamp: 
    secs: 1596524181
    nsecs: 474144361
  frame_id: "node1_radarinterface_radarscan"
range: 2.34517812729
angle: -0.19657625258
elev: 0.283797055483
doppler: -0.159006148577
snr: 329
noise: 371
frame_num: 13165
point_id: 32
x: -0.439720898867
y: 2.20800995827
z: 0.656656503677
doppler_bin: 30
target_idx: 13
posX: -0.478387445211
posY: 2.15055346489
posZ: 0.548609972
velX: 0.180779993534
velY: 0.0826063677669
velZ: -0.566138505936
accX: 0.0
accY: 0.0
accZ: 0.0
---
header: 
  seq: 113551
  stamp: 
    secs: 1596524181
    nsecs: 474157039
  frame_id: "node1_radarinterface_radarscan"
range: 2.5015232563
angle: -0.229067116976
elev: 0.271524757147
doppler: -0.159006148577
snr: 238
noise: 408
frame_num: 13165
point_id: 34
x: -0.547208189964
y: 2.34692597389
z: 0.67091012001
doppler_bin: 30
target_idx: 13
posX: -0.478387445211
posY: 2.15055346489
posZ: 0.548609972
velX: 0.180779993534
velY: 0.0826063677669
velZ: -0.566138505936
accX: 0.0
accY: 0.0
accZ: 0.0
---
header: 
  seq: 113552
  stamp: 
    secs: 1596524181
    nsecs: 474169844
  frame_id: "node1_radarinterface_radarscan"
range: 2.57969594002
angle: -0.327692508698
elev: 0.507773339748
doppler: -0.159006148577
snr: 147
noise: 446
frame_num: 13165
point_id: 35
x: -0.725539505482
y: 2.13426184654
z: 1.25433266163
doppler_bin: 30
target_idx: 13
posX: -0.478387445211
posY: 2.15055346489
posZ: 0.548609972
velX: 0.180779993534
velY: 0.0826063677669
velZ: -0.566138505936
accX: 0.0
accY: 0.0
accZ: 0.0
---
header: 
  seq: 113553
  stamp: 
    secs: 1596524181
    nsecs: 474265456
  frame_id: "node1_radarinterface_radarscan"
range: 2.18883275986
angle: -0.169394820929
elev: 0.384922772646
doppler: -0.0795030742884
snr: 246
noise: 371
frame_num: 13165
point_id: 36
x: -0.342005133629
y: 1.99963390827
z: 0.821879446507
doppler_bin: 31
target_idx: 13
posX: -0.478387445211
posY: 2.15055346489
posZ: 0.548609972
velX: 0.180779993534
velY: 0.0826063677669
velZ: -0.566138505936
accX: 0.0
accY: 0.0
accZ: 0.0
---
header: 
  seq: 113554
  stamp: 
    secs: 1596524181
    nsecs: 474279344
  frame_id: "node1_radarinterface_radarscan"
range: 2.34517812729
angle: -0.198927104473
elev: 0.321376085281
doppler: -0.0795030742884
snr: 309
noise: 373
frame_num: 13165
point_id: 37
x: -0.439720898867
y: 2.18122792244
z: 0.740777254105
doppler_bin: 31
target_idx: 13
posX: -0.478387445211
posY: 2.15055346489
posZ: 0.548609972
velX: 0.180779993534
velY: 0.0826063677669
velZ: -0.566138505936
accX: 0.0
accY: 0.0
accZ: 0.0
---
header: 
  seq: 113555
  stamp: 
    secs: 1596524181
    nsecs: 474293053
  frame_id: "node1_radarinterface_radarscan"
range: 2.42335057259
angle: -0.229837417603
elev: 0.283110707998
doppler: -0.0795030742884
snr: 311
noise: 380
frame_num: 13165
point_id: 38
x: -0.530107915401
y: 2.26569080353
z: 0.676948130131
doppler_bin: 31
target_idx: 13
posX: -0.478387445211
posY: 2.15055346489
posZ: 0.548609972
velX: 0.180779993534
velY: 0.0826063677669
velZ: -0.566138505936
accX: 0.0
accY: 0.0
accZ: 0.0
---
header: 
  seq: 113556
  stamp: 
    secs: 1596524181
    nsecs: 474306200
  frame_id: "node1_radarinterface_radarscan"
range: 2.5015232563
angle: -0.289735078812
elev: 0.176695749164
doppler: -0.0795030742884
snr: 245
noise: 399
frame_num: 13165
point_id: 39
x: -0.703553438187
y: 2.35993313789
z: 0.439712107182
doppler_bin: 31
target_idx: 13
posX: -0.478387445211
posY: 2.15055346489
posZ: 0.548609972
velX: 0.180779993534
velY: 0.0826063677669
velZ: -0.566138505936
accX: 0.0
accY: 0.0
accZ: 0.0
---
header: 
  seq: 113557
  stamp: 
    secs: 1596524181
    nsecs: 576086535
  frame_id: "node1_radarinterface_radarscan"
range: 2.18883275986
angle: -0.254190385342
elev: 0.107882015407
doppler: 0.0
snr: 267
noise: 385
frame_num: 13166
point_id: 1
x: -0.54720813036
y: 2.10618329048
z: 0.235677912831
doppler_bin: 32
target_idx: 13
posX: -0.496981024742
posY: 2.18003821373
posZ: 0.44810244441
velX: 0.0656297653913
velY: 0.173678934574
velZ: -0.773729562759
accX: 0.0
accY: 0.0
accZ: 0.0
---
header: 
  seq: 113558
  stamp: 
    secs: 1596524181
    nsecs: 576208079
  frame_id: "node1_radarinterface_radarscan"
range: 2.26700544357
angle: -0.255938023329
elev: 0.157992646098
doppler: 0.0795030742884
snr: 323
noise: 393
frame_num: 13166
point_id: 6
x: -0.566751301289
y: 2.1658449173
z: 0.356681972742
doppler_bin: 33
target_idx: 13
posX: -0.496981024742
posY: 2.18003821373
posZ: 0.44810244441
velX: 0.0656297653913
velY: 0.173678934574
velZ: -0.773729562759
accX: 0.0
accY: 0.0
accZ: 0.0
---
header: 
  seq: 113559
  stamp: 
    secs: 1596524181
    nsecs: 576239158
  frame_id: "node1_radarinterface_radarscan"
range: 2.34517812729
angle: -0.228670403361
elev: 0.265333563089
doppler: 0.0795030742884
snr: 278
noise: 393
frame_num: 13166
point_id: 7
x: -0.513007700443
y: 2.20419692993
z: 0.614978790283
doppler_bin: 33
target_idx: 13
posX: -0.496981024742
posY: 2.18003821373
posZ: 0.44810244441
velX: 0.0656297653913
velY: 0.173678934574
velZ: -0.773729562759
accX: 0.0
accY: 0.0
accZ: 0.0
---
header: 
  seq: 113560
  stamp: 
    secs: 1596524181
    nsecs: 576266525
  frame_id: "node1_radarinterface_radarscan"
range: 2.57969594002
angle: -0.190987959504
elev: 0.15680578351
doppler: 0.0795030742884
snr: 149
noise: 469
frame_num: 13166
point_id: 8
x: -0.483693003654
y: 2.50171542168
z: 0.402855575085
doppler_bin: 33
target_idx: 13
posX: -0.496981024742
posY: 2.18003821373
posZ: 0.44810244441
velX: 0.0656297653913
velY: 0.173678934574
velZ: -0.773729562759
accX: 0.0
accY: 0.0
accZ: 0.0
---
header: 
  seq: 113561
  stamp: 
    secs: 1596524181
    nsecs: 576293640
  frame_id: "node1_radarinterface_radarscan"
range: 2.65786838531
angle: -0.191782683134
elev: 0.180867016315
doppler: 0.0795030742884
snr: 162
noise: 479
frame_num: 13166
point_id: 9
x: -0.498350292444
y: 2.56657886505
z: 0.478104054928
doppler_bin: 33
target_idx: 13
posX: -0.496981024742
posY: 2.18003821373
posZ: 0.44810244441
velX: 0.0656297653913
velY: 0.173678934574
velZ: -0.773729562759
accX: 0.0
accY: 0.0
accZ: 0.0
---
header: 
  seq: 113562
  stamp: 
    secs: 1596524181
    nsecs: 576320213
  frame_id: "node1_radarinterface_radarscan"
range: 2.11066031456
angle: -0.254730254412
elev: 0.125581532717
doppler: 0.159006148577
snr: 246
noise: 383
frame_num: 13166
point_id: 12
x: -0.52766507864
y: 2.02646708488
z: 0.264363795519
doppler_bin: 34
target_idx: 13
posX: -0.496981024742
posY: 2.18003821373
posZ: 0.44810244441
velX: 0.0656297653913
velY: 0.173678934574
velZ: -0.773729562759
accX: 0.0
accY: 0.0
accZ: 0.0
---
header: 
  seq: 113563
  stamp: 
    secs: 1596524181
    nsecs: 576346695
  frame_id: "node1_radarinterface_radarscan"
range: 2.18883275986
angle: -0.255876749754
elev: 0.156515300274
doppler: 0.159006148577
snr: 306
noise: 381
frame_num: 13166
point_id: 13
x: -0.547208189964
y: 2.09168410301
z: 0.341188818216
doppler_bin: 34
target_idx: 13
posX: -0.496981024742
posY: 2.18003821373
posZ: 0.44810244441
velX: 0.0656297653913
velY: 0.173678934574
velZ: -0.773729562759
accX: 0.0
accY: 0.0
accZ: 0.0
---
header: 
  seq: 113564
  stamp: 
    secs: 1596524181
    nsecs: 576372867
  frame_id: "node1_radarinterface_radarscan"
range: 2.26700544357
angle: -0.25989562273
elev: 0.233599156141
doppler: 0.159006148577
snr: 326
noise: 380
frame_num: 13166
point_id: 14
x: -0.566751360893
y: 2.13136720657
z: 0.52476733923
doppler_bin: 34
target_idx: 13
posX: -0.496981024742
posY: 2.18003821373
posZ: 0.44810244441
velX: 0.0656297653913
velY: 0.173678934574
velZ: -0.773729562759
accX: 0.0
accY: 0.0
accZ: 0.0
---
header: 
  seq: 113565
  stamp: 
    secs: 1596524181
    nsecs: 576400640
  frame_id: "node1_radarinterface_radarscan"
range: 2.57969594002
angle: -0.223011016846
elev: 0.147977545857
doppler: 0.159006148577
snr: 166
noise: 448
frame_num: 13166
point_id: 16
x: -0.564308464527
y: 2.48831748962
z: 0.38034543395
doppler_bin: 34
target_idx: 13
posX: -0.496981024742
posY: 2.18003821373
posZ: 0.44810244441
velX: 0.0656297653913
velY: 0.173678934574
velZ: -0.773729562759
accX: 0.0
accY: 0.0
accZ: 0.0
---
header: 
  seq: 113566
  stamp: 
    secs: 1596524181
    nsecs: 576524422
  frame_id: "node1_radarinterface_radarscan"
range: 2.65786838531
angle: -0.228778287768
elev: 0.267033219337
doppler: 0.238509222865
snr: 155
noise: 433
frame_num: 13166
point_id: 23
x: -0.58140873909
y: 2.49686980247
z: 0.701334297657
doppler_bin: 35
target_idx: 13
posX: -0.496981024742
posY: 2.18003821373
posZ: 0.44810244441
velX: 0.0656297653913
velY: 0.173678934574
velZ: -0.773729562759
accX: 0.0
accY: 0.0
accZ: 0.0
---
header: 
  seq: 113567
  stamp: 
    secs: 1596524181
    nsecs: 576554618
  frame_id: "node1_radarinterface_radarscan"
range: 2.03248763084
angle: -0.255569756031
elev: 0.148885861039
doppler: -0.0795030742884
snr: 141
noise: 381
frame_num: 13166
point_id: 28
x: -0.508121907711
y: 1.94471609592
z: 0.30149191618
doppler_bin: 31
target_idx: 13
posX: -0.496981024742
posY: 2.18003821373
posZ: 0.44810244441
velX: 0.0656297653913
velY: 0.173678934574
velZ: -0.773729562759
accX: 0.0
accY: 0.0
accZ: 0.0
---
header: 
  seq: 113568
  stamp: 
    secs: 1596524181
    nsecs: 576582911
  frame_id: "node1_radarinterface_radarscan"
range: 2.11066031456
angle: -0.253936827183
elev: 0.0984509587288
doppler: -0.0795030742884
snr: 254
noise: 377
frame_num: 13166
point_id: 29
x: -0.52766507864
y: 2.03308057785
z: 0.20746101439
doppler_bin: 31
target_idx: 13
posX: -0.496981024742
posY: 2.18003821373
posZ: 0.44810244441
velX: 0.0656297653913
velY: 0.173678934574
velZ: -0.773729562759
accX: 0.0
accY: 0.0
accZ: 0.0
---
header: 
  seq: 113569
  stamp: 
    secs: 1596524181
    nsecs: 576619766
  frame_id: "node1_radarinterface_radarscan"
range: 2.42335057259
angle: -0.196098774672
elev: 0.275436908007
doppler: -0.0795030742884
snr: 229
noise: 392
frame_num: 13166
point_id: 30
x: -0.454378217459
y: 2.28731107712
z: 0.659072339535
doppler_bin: 31
target_idx: 13
posX: -0.496981024742
posY: 2.18003821373
posZ: 0.44810244441
velX: 0.0656297653913
velY: 0.173678934574
velZ: -0.773729562759
accX: 0.0
accY: 0.0
accZ: 0.0
---
header: 
  seq: 113570
  stamp: 
    secs: 1596524181
    nsecs: 672859069
  frame_id: "node1_radarinterface_radarscan"
range: 2.03248763084
angle: -0.255317091942
elev: 0.142286881804
doppler: 0.0
snr: 149
noise: 396
frame_num: 13167
point_id: 0
x: -0.508121907711
y: 1.94672703743
z: 0.288221478462
doppler_bin: 32
target_idx: 13
posX: -0.508103847504
posY: 2.17988610268
posZ: 0.368956714869
velX: -0.0089675784111
velY: 0.163885265589
velZ: -0.866805076599
accX: 0.0
accY: 0.0
accZ: 0.0
---
header: 
  seq: 113571
  stamp: 
    secs: 1596524181
    nsecs: 672939240
  frame_id: "node1_radarinterface_radarscan"
range: 2.18883275986
angle: -0.224023386836
elev: 0.175289228559
doppler: 0.0
snr: 350
noise: 388
frame_num: 13167
point_id: 2
x: -0.478807151318
y: 2.10143399239
z: 0.381716996431
doppler_bin: 32
target_idx: 13
posX: -0.508103847504
posY: 2.17988610268
posZ: 0.368956714869
velX: -0.0089675784111
velY: 0.163885265589
velZ: -0.866805076599
accX: 0.0
accY: 0.0
accZ: 0.0
---
header: 
  seq: 113572
  stamp: 
    secs: 1596524181
    nsecs: 672952983
  frame_id: "node1_radarinterface_radarscan"
range: 2.26700544357
angle: -0.225728645921
elev: 0.213181197643
doppler: 0.0
snr: 355
noise: 386
frame_num: 13167
point_id: 3
x: -0.495907455683
y: 2.15947771072
z: 0.479630678892
doppler_bin: 32
target_idx: 13
posX: -0.508103847504
posY: 2.17988610268
posZ: 0.368956714869
velX: -0.0089675784111
velY: 0.163885265589
velZ: -0.866805076599
accX: 0.0
accY: 0.0
accZ: 0.0
---
header: 
  seq: 113573
  stamp: 
    secs: 1596524181
    nsecs: 672969723
  frame_id: "node1_radarinterface_radarscan"
range: 2.11066031456
angle: -0.254401803017
elev: 0.115145638585
doppler: 0.0795030742884
snr: 318
noise: 410
frame_num: 13167
point_id: 5
x: -0.52766507864
y: 2.02919983864
z: 0.24249663949
doppler_bin: 33
target_idx: 13
posX: -0.508103847504
posY: 2.17988610268
posZ: 0.368956714869
velX: -0.0089675784111
velY: 0.163885265589
velZ: -0.866805076599
accX: 0.0
accY: 0.0
accZ: 0.0
---
header: 
  seq: 113574
  stamp: 
    secs: 1596524181
    nsecs: 672990779
  frame_id: "node1_radarinterface_radarscan"
range: 2.18883275986
angle: -0.254030823708
elev: 0.102050594985
doppler: 0.0795030742884
snr: 367
noise: 399
frame_num: 13167
point_id: 6
x: -0.54720813036
y: 2.10756492615
z: 0.222984179854
doppler_bin: 33
target_idx: 13
posX: -0.508103847504
posY: 2.17988610268
posZ: 0.368956714869
velX: -0.0089675784111
velY: 0.163885265589
velZ: -0.866805076599
accX: 0.0
accY: 0.0
accZ: 0.0
---
header: 
  seq: 113575
  stamp: 
    secs: 1596524181
    nsecs: 673015730
  frame_id: "node1_radarinterface_radarscan"
range: 2.26700544357
angle: -0.253392279148
elev: 0.0741765797138
doppler: 0.0795030742884
snr: 346
noise: 395
frame_num: 13167
point_id: 7
x: -0.566751360893
y: 2.18857955933
z: 0.168004542589
doppler_bin: 33
target_idx: 13
posX: -0.508103847504
posY: 2.17988610268
posZ: 0.368956714869
velX: -0.0089675784111
velY: 0.163885265589
velZ: -0.866805076599
accX: 0.0
accY: 0.0
accZ: 0.0
---
header: 
  seq: 113576
  stamp: 
    secs: 1596524181
    nsecs: 673078727
  frame_id: "node1_radarinterface_radarscan"
range: 2.03248763084
angle: -0.254866451025
elev: 0.129656404257
doppler: 0.159006148577
snr: 163
noise: 376
frame_num: 13167
point_id: 8
x: -0.508121907711
y: 1.95032322407
z: 0.262787312269
doppler_bin: 34
target_idx: 13
posX: -0.508103847504
posY: 2.17988610268
posZ: 0.368956714869
velX: -0.0089675784111
velY: 0.163885265589
velZ: -0.866805076599
accX: 0.0
accY: 0.0
accZ: 0.0
---
header: 
  seq: 113577
  stamp: 
    secs: 1596524181
    nsecs: 673093829
  frame_id: "node1_radarinterface_radarscan"
range: 2.11066031456
angle: -0.255588382483
elev: 0.149360179901
doppler: 0.159006148577
snr: 289
noise: 377
frame_num: 13167
point_id: 9
x: -0.52766507864
y: 2.0193593502
z: 0.314077794552
doppler_bin: 34
target_idx: 13
posX: -0.508103847504
posY: 2.17988610268
posZ: 0.368956714869
velX: -0.0089675784111
velY: 0.163885265589
velZ: -0.866805076599
accX: 0.0
accY: 0.0
accZ: 0.0
---
header: 
  seq: 113578
  stamp: 
    secs: 1596524181
    nsecs: 673106075
  frame_id: "node1_radarinterface_radarscan"
range: 2.26700544357
angle: -0.234739139676
elev: 0.346700340509
doppler: -0.0795030742884
snr: 360
noise: 385
frame_num: 13167
point_id: 12
x: -0.495907455683
y: 2.07364344597
z: 0.770320117474
doppler_bin: 31
target_idx: 13
posX: -0.508103847504
posY: 2.17988610268
posZ: 0.368956714869
velX: -0.0089675784111
velY: 0.163885265589
velZ: -0.866805076599
accX: 0.0
accY: 0.0
accZ: 0.0
---
header: 
  seq: 113579
  stamp: 
    secs: 1596524181
    nsecs: 773072283
  frame_id: "node1_radarinterface_radarscan"
range: 2.65786838531
angle: -0.164822489023
elev: 0.310124963522
doppler: 0.159006148577
snr: 141
noise: 450
frame_num: 13168
point_id: 3
x: -0.415291935205
y: 2.49677348137
z: 0.811122000217
doppler_bin: 34
target_idx: 13
posX: -0.486401736736
posY: 2.18943715096
posZ: 0.41080892086
velX: 0.0625022947788
velY: 0.15470585227
velZ: -0.570556402206
accX: 0.0
accY: 0.0
accZ: 0.0
---
header: 
  seq: 113580
  stamp: 
    secs: 1596524181
    nsecs: 773161945
  frame_id: "node1_radarinterface_radarscan"
range: 2.57969594002
angle: -0.0705866888165
elev: 0.481779515743
doppler: 0.238509222865
snr: 133
noise: 439
frame_num: 13168
point_id: 6
x: -0.161230996251
y: 2.28036093712
z: 1.19531977177
doppler_bin: 35
target_idx: 13
posX: -0.486401736736
posY: 2.18943715096
posZ: 0.41080892086
velX: 0.0625022947788
velY: 0.15470585227
velZ: -0.570556402206
accX: 0.0
accY: 0.0
accZ: 0.0
---
header: 
  seq: 113581
  stamp: 
    secs: 1596524181
    nsecs: 773182988
  frame_id: "node1_radarinterface_radarscan"
range: 2.11066031456
angle: -0.227578103542
elev: 0.247385337949
doppler: -0.397515356541
snr: 283
noise: 366
frame_num: 13168
point_id: 20
x: -0.461706966162
y: 1.99363827705
z: 0.516836822033
doppler_bin: 27
target_idx: 13
posX: -0.486401736736
posY: 2.18943715096
posZ: 0.41080892086
velX: 0.0625022947788
velY: 0.15470585227
velZ: -0.570556402206
accX: 0.0
accY: 0.0
accZ: 0.0
---
header: 
  seq: 113582
  stamp: 
    secs: 1596524181
    nsecs: 773199020
  frame_id: "node1_radarinterface_radarscan"
range: 2.18883275986
angle: -0.226451173425
elev: 0.227214768529
doppler: -0.397515356541
snr: 315
noise: 369
frame_num: 13168
point_id: 21
x: -0.47880718112
y: 2.07812857628
z: 0.493066877127
doppler_bin: 27
target_idx: 13
posX: -0.486401736736
posY: 2.18943715096
posZ: 0.41080892086
velX: 0.0625022947788
velY: 0.15470585227
velZ: -0.570556402206
accX: 0.0
accY: 0.0
accZ: 0.0
---
header: 
  seq: 113583
  stamp: 
    secs: 1596524181
    nsecs: 773214865
  frame_id: "node1_radarinterface_radarscan"
range: 2.34517812729
angle: -0.222140982747
elev: 0.119395934045
doppler: -0.0795030742884
snr: 297
noise: 374
frame_num: 13168
point_id: 23
x: -0.513007700443
y: 2.27126669884
z: 0.279339939356
doppler_bin: 31
target_idx: 13
posX: -0.486401736736
posY: 2.18943715096
posZ: 0.41080892086
velX: 0.0625022947788
velY: 0.15470585227
velZ: -0.570556402206
accX: 0.0
accY: 0.0
accZ: 0.0
---
header: 
  seq: 113584
  stamp: 
    secs: 1596524181
    nsecs: 773228646
  frame_id: "node1_radarinterface_radarscan"
range: 2.5015232563
angle: -0.252026736736
elev: 0.500754714012
doppler: -0.0795030742884
snr: 185
noise: 429
frame_num: 13168
point_id: 25
x: -0.547208189964
y: 2.12506461143
z: 1.20095062256
doppler_bin: 31
target_idx: 13
posX: -0.486401736736
posY: 2.18943715096
posZ: 0.41080892086
velX: 0.0625022947788
velY: 0.15470585227
velZ: -0.570556402206
accX: 0.0
accY: 0.0
accZ: 0.0
---
header: 
  seq: 113585
  stamp: 
    secs: 1596524181
    nsecs: 872873676
  frame_id: "node1_radarinterface_radarscan"
range: 2.18883275986
angle: -0.232049390674
elev: 0.313691943884
doppler: 0.0
snr: 285
noise: 380
frame_num: 13169
point_id: 1
x: -0.47880718112
y: 2.02621555328
z: 0.675413608551
doppler_bin: 32
target_idx: 13
posX: -0.501914203167
posY: 2.18260598183
posZ: 0.599137544632
velX: -0.0397026762366
velY: 0.199042707682
velZ: 0.0965757369995
accX: 0.0
accY: 0.0
accZ: 0.0
---
header: 
  seq: 113586
  stamp: 
    secs: 1596524181
    nsecs: 872932799
  frame_id: "node1_radarinterface_radarscan"
range: 2.11066031456
angle: -0.25419318676
elev: 0.107981361449
doppler: 0.0795030742884
snr: 205
noise: 402
frame_num: 13169
point_id: 3
x: -0.52766507864
y: 2.03093934059
z: 0.227469325066
doppler_bin: 33
target_idx: 13
posX: -0.501914203167
posY: 2.18260598183
posZ: 0.599137544632
velX: -0.0397026762366
velY: 0.199042707682
velZ: 0.0965757369995
accX: 0.0
accY: 0.0
accZ: 0.0
---
header: 
  seq: 113587
  stamp: 
    secs: 1596524181
    nsecs: 872954353
  frame_id: "node1_radarinterface_radarscan"
range: 2.18883275986
angle: -0.217614844441
elev: 0.518724560738
doppler: 0.47701844573
snr: 284
noise: 372
frame_num: 13169
point_id: 8
x: -0.410406142473
y: 1.85606431961
z: 1.08516395092
doppler_bin: 38
target_idx: 13
posX: -0.501914203167
posY: 2.18260598183
posZ: 0.599137544632
velX: -0.0397026762366
velY: 0.199042707682
velZ: 0.0965757369995
accX: 0.0
accY: 0.0
accZ: 0.0
---
header: 
  seq: 113588
  stamp: 
    secs: 1596524181
    nsecs: 873104864
  frame_id: "node1_radarinterface_radarscan"
range: 2.26700544357
angle: -0.215841576457
elev: 0.504379332066
doppler: 0.47701844573
snr: 310
noise: 376
frame_num: 13169
point_id: 9
x: -0.42506352067
y: 1.93865358829
z: 1.09556245804
doppler_bin: 38
target_idx: 13
posX: -0.501914203167
posY: 2.18260598183
posZ: 0.599137544632
velX: -0.0397026762366
velY: 0.199042707682
velZ: 0.0965757369995
accX: 0.0
accY: 0.0
accZ: 0.0
---
header: 
  seq: 113589
  stamp: 
    secs: 1596524181
    nsecs: 873151318
  frame_id: "node1_radarinterface_radarscan"
range: 2.34517812729
angle: -0.214869886637
elev: 0.49625441432
doppler: 0.47701844573
snr: 272
noise: 377
frame_num: 13169
point_id: 10
x: -0.439720869064
y: 2.0148601532
z: 1.11662173271
doppler_bin: 38
target_idx: 13
posX: -0.501914203167
posY: 2.18260598183
posZ: 0.599137544632
velX: -0.0397026762366
velY: 0.199042707682
velZ: 0.0965757369995
accX: 0.0
accY: 0.0
accZ: 0.0
---
header: 
  seq: 113590
  stamp: 
    secs: 1596524181
    nsecs: 873184465
  frame_id: "node1_radarinterface_radarscan"
range: 2.18883275986
angle: -0.220526233315
elev: 0.541047394276
doppler: 0.55652153492
snr: 256
noise: 373
frame_num: 13169
point_id: 11
x: -0.410406142473
y: 1.83076417446
z: 1.12732338905
doppler_bin: 39
target_idx: 13
posX: -0.501914203167
posY: 2.18260598183
posZ: 0.599137544632
velX: -0.0397026762366
velY: 0.199042707682
velZ: 0.0965757369995
accX: 0.0
accY: 0.0
accZ: 0.0
---
header: 
  seq: 113591
  stamp: 
    secs: 1596524181
    nsecs: 873213025
  frame_id: "node1_radarinterface_radarscan"
range: 2.34517812729
angle: -0.257165908813
elev: 0.535395503044
doppler: 1.27204918861
snr: 173
noise: 379
frame_num: 13169
point_id: 15
x: -0.513007760048
y: 1.95068025589
z: 1.19646584988
doppler_bin: 48
target_idx: 13
posX: -0.501914203167
posY: 2.18260598183
posZ: 0.599137544632
velX: -0.0397026762366
velY: 0.199042707682
velZ: 0.0965757369995
accX: 0.0
accY: 0.0
accZ: 0.0
---
header: 
  seq: 113592
  stamp: 
    secs: 1596524181
    nsecs: 873340595
  frame_id: "node1_radarinterface_radarscan"
range: 2.26700544357
angle: -0.26223140955
elev: 0.566425204277
doppler: 1.351552248
snr: 166
noise: 378
frame_num: 13169
point_id: 16
x: -0.495907455683
y: 1.8475587368
z: 1.21651816368
doppler_bin: 49
target_idx: 13
posX: -0.501914203167
posY: 2.18260598183
posZ: 0.599137544632
velX: -0.0397026762366
velY: 0.199042707682
velZ: 0.0965757369995
accX: 0.0
accY: 0.0
accZ: 0.0
---
header: 
  seq: 113593
  stamp: 
    secs: 1596524181
    nsecs: 873361100
  frame_id: "node1_radarinterface_radarscan"
range: 2.34517812729
angle: -0.261340141296
elev: 0.561163902283
doppler: 1.351552248
snr: 161
noise: 379
frame_num: 13169
point_id: 17
x: -0.513007700443
y: 1.91809391975
z: 1.24803805351
doppler_bin: 49
target_idx: 13
posX: -0.501914203167
posY: 2.18260598183
posZ: 0.599137544632
velX: -0.0397026762366
velY: 0.199042707682
velZ: 0.0965757369995
accX: 0.0
accY: 0.0
accZ: 0.0
---
header: 
  seq: 113594
  stamp: 
    secs: 1596524181
    nsecs: 873382786
  frame_id: "node1_radarinterface_radarscan"
range: 2.18883275986
angle: -0.224626481533
elev: 0.189615234733
doppler: -0.159006148577
snr: 240
noise: 386
frame_num: 13169
point_id: 20
x: -0.478807151318
y: 2.09559822083
z: 0.412553489208
doppler_bin: 30
target_idx: 13
posX: -0.501914203167
posY: 2.18260598183
posZ: 0.599137544632
velX: -0.0397026762366
velY: 0.199042707682
velZ: 0.0965757369995
accX: 0.0
accY: 0.0
accZ: 0.0
---
header: 
  seq: 113595
