header: 
  seq: 22777
  stamp: 
    secs: 1596613579
    nsecs: 505724552
  frame_id: "node1_radarinterface_radarscan"
range: 1.6416246891
angle: -0.0951798483729
elev: 0.164708778262
doppler: 0.0
snr: 296
noise: 408
frame_num: 1589
point_id: 3
x: -0.153902307153
y: 1.61207747459
z: 0.269169092178
doppler_bin: 32
target_idx: 4
posX: -0.155521512032
posY: 1.67169225216
posZ: 0.408172994852
velX: -0.0654688104987
velY: 0.0396659374237
velZ: -0.0600312948227
accX: 0.0
accY: 0.0
accZ: 0.0
---
header: 
  seq: 22778
  stamp: 
    secs: 1596613579
    nsecs: 505804244
  frame_id: "node1_radarinterface_radarscan"
range: 1.79796981812
angle: -0.063971541822
elev: 0.211754664779
doppler: 0.0
snr: 204
noise: 445
frame_num: 1589
point_id: 5
x: -0.112373121083
y: 1.75421416759
z: 0.377889543772
doppler_bin: 32
target_idx: 4
posX: -0.155521512032
posY: 1.67169225216
posZ: 0.408172994852
velX: -0.0654688104987
velY: 0.0396659374237
velZ: -0.0600312948227
accX: 0.0
accY: 0.0
accZ: 0.0
---
header: 
  seq: 22779
  stamp: 
    secs: 1596613579
    nsecs: 505826156
  frame_id: "node1_radarinterface_radarscan"
range: 1.87614250183
angle: -0.128730148077
elev: 0.229805871844
doppler: 0.0
snr: 175
noise: 467
frame_num: 1589
point_id: 6
x: -0.23451782763
y: 1.81170427799
z: 0.427363693714
doppler_bin: 32
target_idx: 4
posX: -0.155521512032
posY: 1.67169225216
posZ: 0.408172994852
velX: -0.0654688104987
velY: 0.0396659374237
velZ: -0.0600312948227
accX: 0.0
accY: 0.0
accZ: 0.0
---
header: 
  seq: 22780
  stamp: 
    secs: 1596613579
    nsecs: 505876304
  frame_id: "node1_radarinterface_radarscan"
range: 1.56345200539
angle: -0.0631854832172
elev: 0.142881587148
doppler: 0.0795030742884
snr: 259
noise: 386
frame_num: 1589
point_id: 9
x: -0.0977157503366
y: 1.54443192482
z: 0.222629189491
doppler_bin: 33
target_idx: 4
posX: -0.155521512032
posY: 1.67169225216
posZ: 0.408172994852
velX: -0.0654688104987
velY: 0.0396659374237
velZ: -0.0600312948227
accX: 0.0
accY: 0.0
accZ: 0.0
---
header: 
  seq: 22781
  stamp: 
    secs: 1596613579
    nsecs: 505893250
  frame_id: "node1_radarinterface_radarscan"
range: 1.87614250183
angle: -0.163856253028
elev: 0.291338741779
doppler: 0.0795030742884
snr: 142
noise: 474
frame_num: 1589
point_id: 13
x: -0.293147265911
y: 1.77301132679
z: 0.538893461227
doppler_bin: 33
target_idx: 4
posX: -0.155521512032
posY: 1.67169225216
posZ: 0.408172994852
velX: -0.0654688104987
velY: 0.0396659374237
velZ: -0.0600312948227
accX: 0.0
accY: 0.0
accZ: 0.0
---
header: 
  seq: 22782
  stamp: 
    secs: 1596613579
    nsecs: 505936150
  frame_id: "node1_radarinterface_radarscan"
range: 2.11066031456
angle: -0.126205682755
elev: 0.117704384029
doppler: 0.874533832073
snr: 264
noise: 377
frame_num: 1589
point_id: 16
x: -0.263832509518
y: 2.07938551903
z: 0.247860714793
doppler_bin: 43
target_idx: 4
posX: -0.155521512032
posY: 1.67169225216
posZ: 0.408172994852
velX: -0.0654688104987
velY: 0.0396659374237
velZ: -0.0600312948227
accX: 0.0
accY: 0.0
accZ: 0.0
---
header: 
  seq: 22783
  stamp: 
    secs: 1596613579
    nsecs: 505953798
  frame_id: "node1_radarinterface_radarscan"
range: 1.56345200539
angle: -0.0637483820319
elev: 0.194825693965
doppler: -0.238509222865
snr: 273
noise: 365
frame_num: 1589
point_id: 18
x: -0.0977157503366
y: 1.53075802326
z: 0.302677333355
doppler_bin: 29
target_idx: 4
posX: -0.155521512032
posY: 1.67169225216
posZ: 0.408172994852
velX: -0.0654688104987
velY: 0.0396659374237
velZ: -0.0600312948227
accX: 0.0
accY: 0.0
accZ: 0.0
---
header: 
  seq: 22784
  stamp: 
    secs: 1596613579
    nsecs: 505967868
  frame_id: "node1_radarinterface_radarscan"
range: 1.48527944088
angle: -0.0957392379642
elev: 0.196684405208
doppler: -0.159006148577
snr: 264
noise: 352
frame_num: 1589
point_id: 21
x: -0.139244958758
y: 1.44997239113
z: 0.290251433849
doppler_bin: 30
target_idx: 4
posX: -0.155521512032
posY: 1.67169225216
posZ: 0.408172994852
velX: -0.0654688104987
velY: 0.0396659374237
velZ: -0.0600312948227
accX: 0.0
accY: 0.0
accZ: 0.0
---
header: 
  seq: 22785
  stamp: 
    secs: 1596613579
    nsecs: 505980720
  frame_id: "node1_radarinterface_radarscan"
range: 1.56345200539
angle: -0.0955027267337
elev: 0.183882459998
doppler: -0.159006148577
snr: 367
noise: 360
frame_num: 1589
point_id: 22
x: -0.146573632956
y: 1.53008973598
z: 0.28587397933
doppler_bin: 30
target_idx: 4
posX: -0.155521512032
posY: 1.67169225216
posZ: 0.408172994852
velX: -0.0654688104987
velY: 0.0396659374237
velZ: -0.0600312948227
accX: 0.0
accY: 0.0
accZ: 0.0
---
header: 
  seq: 22786
  stamp: 
    secs: 1596613579
    nsecs: 506020488
  frame_id: "node1_radarinterface_radarscan"
range: 1.6416246891
angle: -0.0635701492429
elev: 0.180085614324
doppler: -0.159006148577
snr: 398
noise: 360
frame_num: 1589
point_id: 23
x: -0.102601543069
y: 1.61181461811
z: 0.294037640095
doppler_bin: 30
target_idx: 4
posX: -0.155521512032
posY: 1.67169225216
posZ: 0.408172994852
velX: -0.0654688104987
velY: 0.0396659374237
velZ: -0.0600312948227
accX: 0.0
accY: 0.0
accZ: 0.0
---
header: 
  seq: 22787
  stamp: 
    secs: 1596613579
    nsecs: 506040646
  frame_id: "node1_radarinterface_radarscan"
range: 1.87614250183
angle: -0.128175839782
elev: 0.210635736585
doppler: -0.159006148577
snr: 215
noise: 401
frame_num: 1589
point_id: 25
x: -0.234517797828
y: 1.8196259737
z: 0.39226692915
doppler_bin: 30
target_idx: 4
posX: -0.155521512032
posY: 1.67169225216
posZ: 0.408172994852
velX: -0.0654688104987
velY: 0.0396659374237
velZ: -0.0600312948227
accX: 0.0
accY: 0.0
accZ: 0.0
---
header: 
  seq: 22788
  stamp: 
    secs: 1596613579
    nsecs: 506074092
  frame_id: "node1_radarinterface_radarscan"
range: 1.48527944088
angle: -0.0955649018288
elev: 0.187338098884
doppler: -0.0795030742884
snr: 272
noise: 365
frame_num: 1589
point_id: 27
x: -0.139244943857
y: 1.45263361931
z: 0.27662473917
doppler_bin: 31
target_idx: 4
posX: -0.155521512032
posY: 1.67169225216
posZ: 0.408172994852
velX: -0.0654688104987
velY: 0.0396659374237
velZ: -0.0600312948227
accX: 0.0
accY: 0.0
accZ: 0.0
---
header: 
  seq: 22789
  stamp: 
    secs: 1596613579
    nsecs: 506090309
  frame_id: "node1_radarinterface_radarscan"
range: 1.6416246891
angle: -0.095527805388
elev: 0.185284659266
doppler: -0.0795030742884
snr: 395
noise: 377
frame_num: 1589
point_id: 29
x: -0.153902307153
y: 1.60616981983
z: 0.302430480719
doppler_bin: 31
target_idx: 4
posX: -0.155521512032
posY: 1.67169225216
posZ: 0.408172994852
velX: -0.0654688104987
velY: 0.0396659374237
velZ: -0.0600312948227
accX: 0.0
accY: 0.0
accZ: 0.0
---
header: 
  seq: 22790
  stamp: 
    secs: 1596613579
    nsecs: 506149656
  frame_id: "node1_radarinterface_radarscan"
range: 1.71979725361
angle: -0.0640313327312
elev: 0.21604937315
doppler: -0.0795030742884
snr: 341
noise: 389
frame_num: 1589
point_id: 30
x: -0.107487335801
y: 1.67637300491
z: 0.368677288294
doppler_bin: 31
target_idx: 4
posX: -0.155521512032
posY: 1.67169225216
posZ: 0.408172994852
velX: -0.0654688104987
velY: 0.0396659374237
velZ: -0.0600312948227
accX: 0.0
accY: 0.0
accZ: 0.0
---
header: 
  seq: 22791
  stamp: 
    secs: 1596613579
    nsecs: 605849762
  frame_id: "node1_radarinterface_radarscan"
range: 1.6416246891
angle: -0.0315674692392
elev: 0.140774428844
doppler: 0.0
snr: 152
noise: 417
frame_num: 1590
point_id: 0
x: -0.0513007752597
y: 1.62457537651
z: 0.230336233974
doppler_bin: 32
target_idx: 4
posX: -0.151422694325
posY: 1.69996023178
posZ: 0.372551649809
velX: -0.0140927918255
velY: 0.109457917511
velZ: -0.173314020038
accX: 0.0
accY: 0.0
accZ: 0.0
---
header: 
  seq: 22792
  stamp: 
    secs: 1596613579
    nsecs: 605930699
  frame_id: "node1_radarinterface_radarscan"
range: 1.87614250183
angle: -0.0740381106734
elev: 0.564359128475
doppler: 0.0795030742884
snr: 157
noise: 498
frame_num: 1590
point_id: 13
x: -0.117258906364
y: 1.58086919785
z: 1.0035007
doppler_bin: 33
target_idx: 4
posX: -0.151422694325
posY: 1.69996023178
posZ: 0.372551649809
velX: -0.0140927918255
velY: 0.109457917511
velZ: -0.173314020038
accX: 0.0
accY: 0.0
accZ: 0.0
---
header: 
  seq: 22793
  stamp: 
    secs: 1596613579
    nsecs: 605944550
  frame_id: "node1_radarinterface_radarscan"
range: 2.26700544357
angle: -0.126017540693
elev: 0.104395888746
doppler: 1.98757684231
snr: 200
noise: 375
frame_num: 1590
point_id: 29
x: -0.283375710249
y: 2.23678445816
z: 0.236236393452
doppler_bin: 57
target_idx: 4
posX: -0.151422694325
posY: 1.69996023178
posZ: 0.372551649809
velX: -0.0140927918255
velY: 0.109457917511
velZ: -0.173314020038
accX: 0.0
accY: 0.0
accZ: 0.0
---
header: 
  seq: 22794
  stamp: 
    secs: 1596613579
    nsecs: 605961408
  frame_id: "node1_radarinterface_radarscan"
range: 2.34517812729
angle: -0.125966191292
elev: 0.100451983511
doppler: 1.98757684231
snr: 161
noise: 374
frame_num: 1590
point_id: 30
x: -0.293147265911
y: 2.31486821175
z: 0.235181808472
doppler_bin: 57
target_idx: 4
posX: -0.151422694325
posY: 1.69996023178
posZ: 0.372551649809
velX: -0.0140927918255
velY: 0.109457917511
velZ: -0.173314020038
accX: 0.0
accY: 0.0
accZ: 0.0
---
header: 
  seq: 22795
  stamp: 
    secs: 1596613579
    nsecs: 605977560
  frame_id: "node1_radarinterface_radarscan"
range: 1.56345200539
angle: -0.125604480505
elev: 0.0662081167102
doppler: -1.82857072353
snr: 318
noise: 355
frame_num: 1590
point_id: 39
x: -0.195431500673
y: 1.54773688316
z: 0.10343760252
doppler_bin: 9
target_idx: 4
posX: -0.151422694325
posY: 1.69996023178
posZ: 0.372551649809
velX: -0.0140927918255
velY: 0.109457917511
velZ: -0.173314020038
accX: 0.0
accY: 0.0
accZ: 0.0
---
header: 
  seq: 22796
  stamp: 
    secs: 1596613579
    nsecs: 605992451
  frame_id: "node1_radarinterface_radarscan"
range: 1.6416246891
angle: -0.125536382198
elev: 0.0574985034764
doppler: -1.82857072353
snr: 287
noise: 358
frame_num: 1590
point_id: 40
x: -0.205203071237
y: 1.62601459026
z: 0.0943389609456
doppler_bin: 9
target_idx: 4
posX: -0.151422694325
posY: 1.69996023178
posZ: 0.372551649809
velX: -0.0140927918255
velY: 0.109457917511
velZ: -0.173314020038
accX: 0.0
accY: 0.0
accZ: 0.0
---
header: 
  seq: 22797
  stamp: 
    secs: 1596613579
    nsecs: 606007188
  frame_id: "node1_radarinterface_radarscan"
range: 1.56345200539
angle: -0.0637892708182
elev: 0.198043331504
doppler: -1.03354001045
snr: 331
noise: 352
frame_num: 1590
point_id: 41
x: -0.0977157577872
y: 1.529774189
z: 0.307611197233
doppler_bin: 19
target_idx: 4
posX: -0.151422694325
posY: 1.69996023178
posZ: 0.372551649809
velX: -0.0140927918255
velY: 0.109457917511
velZ: -0.173314020038
accX: 0.0
accY: 0.0
accZ: 0.0
---
header: 
  seq: 22798
  stamp: 
    secs: 1596613579
    nsecs: 606022191
  frame_id: "node1_radarinterface_radarscan"
range: 1.6416246891
angle: -0.0635283663869
elev: 0.176441639662
doppler: -1.03354001045
snr: 318
noise: 354
frame_num: 1590
point_id: 42
x: -0.102601535618
y: 1.61287748814
z: 0.288150399923
doppler_bin: 19
target_idx: 4
posX: -0.151422694325
posY: 1.69996023178
posZ: 0.372551649809
velX: -0.0140927918255
velY: 0.109457917511
velZ: -0.173314020038
accX: 0.0
accY: 0.0
accZ: 0.0
---
header: 
  seq: 22799
  stamp: 
    secs: 1596613579
    nsecs: 606036883
  frame_id: "node1_radarinterface_radarscan"
range: 1.48527944088
angle: -0.0643835142255
elev: 0.239669933915
doppler: -0.95403689146
snr: 297
noise: 348
frame_num: 1590
point_id: 43
x: -0.0928299576044
y: 1.43983530998
z: 0.352578610182
doppler_bin: 20
target_idx: 4
posX: -0.151422694325
posY: 1.69996023178
posZ: 0.372551649809
velX: -0.0140927918255
velY: 0.109457917511
velZ: -0.173314020038
accX: 0.0
accY: 0.0
accZ: 0.0
---
header: 
  seq: 22800
  stamp: 
    secs: 1596613579
    nsecs: 606109867
  frame_id: "node1_radarinterface_radarscan"
range: 1.6416246891
angle: -0.0630570426583
elev: 0.127968728542
doppler: -0.159006148577
snr: 225
noise: 359
frame_num: 1590
point_id: 47
x: -0.102601535618
y: 1.62496542931
z: 0.209503725171
doppler_bin: 30
target_idx: 4
posX: -0.151422694325
posY: 1.69996023178
posZ: 0.372551649809
velX: -0.0140927918255
velY: 0.109457917511
velZ: -0.173314020038
accX: 0.0
accY: 0.0
accZ: 0.0
---
header: 
  seq: 22801
  stamp: 
    secs: 1596613579
    nsecs: 606130076
  frame_id: "node1_radarinterface_radarscan"
range: 1.79796981812
angle: -0.0652158930898
elev: 0.287220299244
doppler: -0.159006148577
snr: 268
noise: 370
frame_num: 1590
point_id: 49
x: -0.112373113632
y: 1.72065043449
z: 0.509342372417
doppler_bin: 30
target_idx: 4
posX: -0.151422694325
posY: 1.69996023178
posZ: 0.372551649809
velX: -0.0140927918255
velY: 0.109457917511
velZ: -0.173314020038
accX: 0.0
accY: 0.0
accZ: 0.0
---
header: 
  seq: 22802
  stamp: 
    secs: 1596613579
    nsecs: 606141358
  frame_id: "node1_radarinterface_radarscan"
range: 1.6416246891
angle: -0.0632510408759
elev: 0.149905398488
doppler: -0.0795030742884
snr: 264
noise: 374
frame_num: 1590
point_id: 50
x: -0.102601543069
y: 1.6199682951
z: 0.245167776942
doppler_bin: 31
target_idx: 4
posX: -0.151422694325
posY: 1.69996023178
posZ: 0.372551649809
velX: -0.0140927918255
velY: 0.109457917511
velZ: -0.173314020038
accX: 0.0
accY: 0.0
accZ: 0.0
---
header: 
  seq: 22803
  stamp: 
    secs: 1596613579
    nsecs: 606153397
  frame_id: "node1_radarinterface_radarscan"
range: 1.71979725361
angle: -0.0321247242391
elev: 0.23317193985
doppler: -0.0795030742884
snr: 303
noise: 392
frame_num: 1590
point_id: 51
x: -0.0537436679006
y: 1.6723934412
z: 0.39738458395
doppler_bin: 31
target_idx: 4
posX: -0.151422694325
posY: 1.69996023178
posZ: 0.372551649809
velX: -0.0140927918255
velY: 0.109457917511
velZ: -0.173314020038
accX: 0.0
accY: 0.0
accZ: 0.0
---
header: 
  seq: 22804
  stamp: 
    secs: 1596613579
    nsecs: 704449127
  frame_id: "node1_radarinterface_radarscan"
range: 1.6416246891
angle: -0.0634890049696
elev: 0.172934323549
doppler: 0.0
snr: 178
noise: 420
frame_num: 1591
point_id: 3
x: -0.102601543069
y: 1.61388027668
z: 0.282480329275
doppler_bin: 32
target_idx: 4
posX: -0.116436012089
posY: 1.64374065399
posZ: 0.464286446571
velX: 0.163195326924
velY: -0.189779445529
velZ: 0.125461950898
accX: 0.0
accY: 0.0
accZ: 0.0
---
header: 
  seq: 22805
  stamp: 
    secs: 1596613579
    nsecs: 704494510
  frame_id: "node1_radarinterface_radarscan"
range: 1.79796981812
angle: -0.0342421866953
elev: 0.420719414949
doppler: 0.0
snr: 193
noise: 465
frame_num: 1591
point_id: 5
x: -0.0561865568161
y: 1.64021646976
z: 0.734321892262
doppler_bin: 32
target_idx: 4
posX: -0.116436012089
posY: 1.64374065399
posZ: 0.464286446571
velX: 0.163195326924
velY: -0.189779445529
velZ: 0.125461950898
accX: 0.0
accY: 0.0
accZ: 0.0
---
header: 
  seq: 22806
  stamp: 
    secs: 1596613579
    nsecs: 704532185
  frame_id: "node1_radarinterface_radarscan"
range: 1.87614250183
angle: -0.0735649466515
elev: 0.554134428501
doppler: 0.0
snr: 200
noise: 489
frame_num: 1591
point_id: 6
x: -0.117258913815
y: 1.59107446671
z: 0.987240195274
doppler_bin: 32
target_idx: 4
posX: -0.116436012089
posY: 1.64374065399
posZ: 0.464286446571
velX: 0.163195326924
velY: -0.189779445529
velZ: 0.125461950898
accX: 0.0
accY: 0.0
accZ: 0.0
---
header: 
  seq: 22807
  stamp: 
    secs: 1596613579
    nsecs: 704546414
  frame_id: "node1_radarinterface_radarscan"
range: 1.95431506634
angle: -0.0739179849625
elev: 0.561791360378
doppler: 0.0
snr: 172
noise: 505
frame_num: 1591
point_id: 7
x: -0.122144699097
y: 1.64942479134
z: 1.04106962681
doppler_bin: 32
target_idx: 4
posX: -0.116436012089
posY: 1.64374065399
posZ: 0.464286446571
velX: 0.163195326924
velY: -0.189779445529
velZ: 0.125461950898
accX: 0.0
accY: 0.0
accZ: 0.0
---
header: 
  seq: 22808
  stamp: 
    secs: 1596613579
    nsecs: 704561772
  frame_id: "node1_radarinterface_radarscan"
range: 1.79796981812
angle: -0.0677814781666
elev: 0.395543515682
doppler: 0.0795030742884
snr: 243
noise: 458
frame_num: 1591
point_id: 13
x: -0.112373121083
y: 1.65533387661
z: 0.69277536869
doppler_bin: 33
target_idx: 4
posX: -0.116436012089
posY: 1.64374065399
posZ: 0.464286446571
velX: 0.163195326924
velY: -0.189779445529
velZ: 0.125461950898
accX: 0.0
accY: 0.0
accZ: 0.0
---
header: 
  seq: 22809
  stamp: 
    secs: 1596613579
    nsecs: 704599329
  frame_id: "node1_radarinterface_radarscan"
range: 1.6416246891
angle: -0.0637444108725
elev: 0.194510385394
doppler: 0.159006148577
snr: 161
noise: 431
frame_num: 1591
point_id: 22
x: -0.102601535618
y: 1.60739636421
z: 0.317303359509
doppler_bin: 34
target_idx: 4
posX: -0.116436012089
posY: 1.64374065399
posZ: 0.464286446571
velX: 0.163195326924
velY: -0.189779445529
velZ: 0.125461950898
accX: 0.0
accY: 0.0
accZ: 0.0
---
header: 
  seq: 22810
  stamp: 
    secs: 1596613579
    nsecs: 704611995
  frame_id: "node1_radarinterface_radarscan"
range: 1.71979725361
angle: -0.0641877651215
elev: 0.226871967316
doppler: 0.159006148577
snr: 166
noise: 473
frame_num: 1591
point_id: 23
x: -0.107487328351
y: 1.67227613926
z: 0.386835277081
doppler_bin: 34
target_idx: 4
posX: -0.116436012089
posY: 1.64374065399
posZ: 0.464286446571
velX: 0.163195326924
velY: -0.189779445529
velZ: 0.125461950898
accX: 0.0
accY: 0.0
accZ: 0.0
---
header: 
  seq: 22811
  stamp: 
    secs: 1596613579
    nsecs: 704625439
  frame_id: "node1_radarinterface_radarscan"
range: 1.87614250183
angle: -0.0746738240123
elev: 0.577643632889
doppler: 0.159006148577
snr: 157
noise: 519
frame_num: 1591
point_id: 25
x: -0.117258898914
y: 1.56736135483
z: 1.02447021008
doppler_bin: 34
target_idx: 4
posX: -0.116436012089
posY: 1.64374065399
posZ: 0.464286446571
velX: 0.163195326924
velY: -0.189779445529
velZ: 0.125461950898
accX: 0.0
accY: 0.0
accZ: 0.0
---
header: 
  seq: 22812
  stamp: 
    secs: 1596613579
    nsecs: 704660007
  frame_id: "node1_radarinterface_radarscan"
range: 1.25076162815
angle: -0.095366962254
elev: 0.176088124514
doppler: -2.54409837723
snr: 228
noise: 348
frame_num: 1591
point_id: 47
x: -0.117258906364
y: 1.22582495213
z: 0.219107851386
doppler_bin: 0
target_idx: 4
posX: -0.116436012089
posY: 1.64374065399
posZ: 0.464286446571
velX: 0.163195326924
velY: -0.189779445529
velZ: 0.125461950898
accX: 0.0
accY: 0.0
accZ: 0.0
---
header: 
  seq: 22813
  stamp: 
    secs: 1596613579
    nsecs: 704672509
  frame_id: "node1_radarinterface_radarscan"
range: 1.40710687637
angle: -0.0954808369279
elev: 0.182649761438
doppler: -2.54409837723
snr: 233
noise: 348
frame_num: 1591
point_id: 49
x: -0.13191626966
y: 1.3773983717
z: 0.255581110716
doppler_bin: 0
target_idx: 4
posX: -0.116436012089
posY: 1.64374065399
posZ: 0.464286446571
velX: 0.163195326924
velY: -0.189779445529
velZ: 0.125461950898
accX: 0.0
accY: 0.0
accZ: 0.0
---
header: 
  seq: 22814
  stamp: 
    secs: 1596613579
    nsecs: 704683212
  frame_id: "node1_radarinterface_radarscan"
range: 1.32893419266
angle: -0.065345749259
elev: 0.293863773346
doppler: -1.59006142616
snr: 238
noise: 351
frame_num: 1591
point_id: 50
x: -0.0830583795905
y: 1.26925051212
z: 0.384929150343
doppler_bin: 12
target_idx: 4
posX: -0.116436012089
posY: 1.64374065399
posZ: 0.464286446571
velX: 0.163195326924
velY: -0.189779445529
velZ: 0.125461950898
accX: 0.0
accY: 0.0
accZ: 0.0
---
header: 
  seq: 22815
  stamp: 
    secs: 1596613579
    nsecs: 704853708
  frame_id: "node1_radarinterface_radarscan"
range: 1.40710687637
angle: -0.0655437335372
elev: 0.303672134876
doppler: -1.59006142616
snr: 282
noise: 353
frame_num: 1591
point_id: 51
x: -0.0879441797733
y: 1.33984148502
z: 0.420762002468
doppler_bin: 12
target_idx: 4
posX: -0.116436012089
posY: 1.64374065399
posZ: 0.464286446571
velX: 0.163195326924
velY: -0.189779445529
velZ: 0.125461950898
accX: 0.0
accY: 0.0
accZ: 0.0
---
header: 
  seq: 22816
  stamp: 
    secs: 1596613579
    nsecs: 704869852
  frame_id: "node1_radarinterface_radarscan"
range: 1.48527944088
angle: -0.0328061692417
elev: 0.308679372072
doppler: -1.51055836678
snr: 293
noise: 349
frame_num: 1591
point_id: 56
x: -0.0464149825275
y: 1.41431725025
z: 0.451228916645
doppler_bin: 13
target_idx: 4
posX: -0.116436012089
posY: 1.64374065399
posZ: 0.464286446571
velX: 0.163195326924
velY: -0.189779445529
velZ: 0.125461950898
accX: 0.0
accY: 0.0
accZ: 0.0
---
header: 
  seq: 22817
  stamp: 
    secs: 1596613579
    nsecs: 704884052
  frame_id: "node1_radarinterface_radarscan"
range: 2.65786838531
angle: 0.0
elev: 0.336445480585
doppler: -1.351552248
snr: 210
noise: 402
frame_num: 1591
point_id: 61
x: 0.0
y: 2.50885248184
z: 0.877452611923
doppler_bin: 15
target_idx: 4
posX: -0.116436012089
posY: 1.64374065399
posZ: 0.464286446571
velX: 0.163195326924
velY: -0.189779445529
velZ: 0.125461950898
accX: 0.0
accY: 0.0
accZ: 0.0
---
header: 
  seq: 22818
  stamp: 
    secs: 1596613579
    nsecs: 704898632
  frame_id: "node1_radarinterface_radarscan"
range: 1.56345200539
angle: -0.0629334524274
elev: 0.111697271466
doppler: -0.0795030742884
snr: 169
noise: 370
frame_num: 1591
point_id: 64
x: -0.0977157503366
y: 1.55063331127
z: 0.174270421267
doppler_bin: 31
target_idx: 4
posX: -0.116436012089
posY: 1.64374065399
posZ: 0.464286446571
velX: 0.163195326924
velY: -0.189779445529
velZ: 0.125461950898
accX: 0.0
accY: 0.0
accZ: 0.0
---
header: 
  seq: 22819
  stamp: 
    secs: 1596613579
    nsecs: 704913321
  frame_id: "node1_radarinterface_radarscan"
range: 1.71979725361
angle: -0.062602005899
elev: 0.0442089512944
doppler: -0.0795030742884
snr: 248
noise: 396
frame_num: 1591
point_id: 66
x: -0.1074873209
y: 1.7147513628
z: 0.076005667448
doppler_bin: 31
target_idx: 4
posX: -0.116436012089
posY: 1.64374065399
posZ: 0.464286446571
velX: 0.163195326924
velY: -0.189779445529
velZ: 0.125461950898
accX: 0.0
accY: 0.0
accZ: 0.0
---
header: 
  seq: 22820
  stamp: 
    secs: 1596613579
    nsecs: 805909120
  frame_id: "node1_radarinterface_radarscan"
range: 1.71979725361
angle: 0.0
elev: 0.307884007692
doppler: 0.0
snr: 216
noise: 431
frame_num: 1592
point_id: 3
x: 0.0
y: 1.63892710209
z: 0.521172225475
doppler_bin: 32
target_idx: 4
posX: -0.0833478868008
posY: 1.62469160557
posZ: 0.507056236267
velX: 0.280932635069
velY: -0.223059073091
velZ: 0.243968248367
accX: 0.0
accY: 0.0
accZ: 0.0
---
header: 
  seq: 22821
  stamp: 
    secs: 1596613579
    nsecs: 806094784
  frame_id: "node1_radarinterface_radarscan"
range: 1.95431506634
angle: -0.0711757466197
elev: 0.497349947691
doppler: 0.0
snr: 150
noise: 506
frame_num: 1592
point_id: 5
x: -0.122144699097
y: 1.71320104599
z: 0.932400226593
doppler_bin: 32
target_idx: 4
posX: -0.0833478868008
posY: 1.62469160557
posZ: 0.507056236267
velX: 0.280932635069
velY: -0.223059073091
velZ: 0.243968248367
accX: 0.0
accY: 0.0
accZ: 0.0
---
header: 
  seq: 22822
  stamp: 
    secs: 1596613579
    nsecs: 806120402
  frame_id: "node1_radarinterface_radarscan"
range: 1.6416246891
angle: -0.157262265682
elev: -0.0682708248496
doppler: 0.0795030742884
snr: 178
noise: 427
frame_num: 1592
point_id: 9
x: -0.256503880024
y: 1.61758959293
z: -0.111988030374
doppler_bin: 33
target_idx: 4
posX: -0.0833478868008
posY: 1.62469160557
posZ: 0.507056236267
velX: 0.280932635069
velY: -0.223059073091
velZ: 0.243968248367
accX: 0.0
accY: 0.0
accZ: 0.0
---
header: 
  seq: 22823
  stamp: 
    secs: 1596613579
    nsecs: 806142777
  frame_id: "node1_radarinterface_radarscan"
range: 1.95431506634
angle: -0.0734395459294
elev: 0.551373839378
doppler: 0.159006148577
snr: 138
noise: 536
frame_num: 1592
point_id: 16
x: -0.122144699097
y: 1.66020941734
z: 1.02378356457
doppler_bin: 34
target_idx: 4
posX: -0.0833478868008
posY: 1.62469160557
posZ: 0.507056236267
velX: 0.280932635069
velY: -0.223059073091
velZ: 0.243968248367
accX: 0.0
accY: 0.0
accZ: 0.0
---
header: 
  seq: 22824
  stamp: 
    secs: 1596613579
    nsecs: 806166432
  frame_id: "node1_radarinterface_radarscan"
range: 1.6416246891
angle: -0.0324395410717
elev: 0.271015644073
doppler: -0.159006148577
snr: 241
noise: 373
frame_num: 1592
point_id: 18
x: -0.0513007715344
y: 1.5808724165
z: 0.439479589462
doppler_bin: 30
target_idx: 4
posX: -0.0833478868008
posY: 1.62469160557
posZ: 0.507056236267
velX: 0.280932635069
velY: -0.223059073091
velZ: 0.243968248367
accX: 0.0
accY: 0.0
accZ: 0.0
---
header: 
  seq: 22825
  stamp: 
    secs: 1596613579
    nsecs: 806184418
  frame_id: "node1_radarinterface_radarscan"
range: 1.6416246891
angle: -0.0321100540459
elev: 0.231241181493
doppler: -0.0795030742884
snr: 274
noise: 387
frame_num: 1592
point_id: 21
x: -0.0513007715344
y: 1.59710526466
z: 0.376237154007
doppler_bin: 31
target_idx: 4
posX: -0.0833478868008
posY: 1.62469160557
posZ: 0.507056236267
velX: 0.280932635069
velY: -0.223059073091
velZ: 0.243968248367
accX: 0.0
accY: 0.0
accZ: 0.0
---
header: 
  seq: 22826
  stamp: 
    secs: 1596613579
    nsecs: 806205031
  frame_id: "node1_radarinterface_radarscan"
range: 1.71979725361
angle: -0.0322637856007
elev: 0.250670641661
doppler: -0.0795030742884
snr: 306
noise: 408
frame_num: 1592
point_id: 22
x: -0.0537436641753
y: 1.6651802063
z: 0.426602065563
doppler_bin: 31
target_idx: 4
posX: -0.0833478868008
posY: 1.62469160557
posZ: 0.507056236267
velX: 0.280932635069
velY: -0.223059073091
velZ: 0.243968248367
accX: 0.0
accY: 0.0
accZ: 0.0
---
header: 
  seq: 22827
  stamp: 
    secs: 1596613579
    nsecs: 806225097
  frame_id: "node1_radarinterface_radarscan"
range: 1.79796981812
angle: 0.0
elev: 0.25873234868
doppler: -0.0795030742884
snr: 278
noise: 430
frame_num: 1592
point_id: 23
x: 0.0
y: 1.73812460899
z: 0.46002009511
doppler_bin: 31
target_idx: 4
posX: -0.0833478868008
posY: 1.62469160557
posZ: 0.507056236267
velX: 0.280932635069
velY: -0.223059073091
velZ: 0.243968248367
accX: 0.0
accY: 0.0
accZ: 0.0
---
header: 
  seq: 22828
  stamp: 
    secs: 1596613579
    nsecs: 905792656
  frame_id: "node1_radarinterface_radarscan"
range: 1.79796981812
angle: 0.0
elev: 0.413557887077
doppler: 0.0
snr: 185
noise: 475
frame_num: 1593
point_id: 3
x: 0.0
y: 1.64639520645
z: 0.722549796104
doppler_bin: 32
target_idx: 4
posX: -0.13962417841
posY: 1.60599601269
posZ: 0.734981894493
velX: -0.068232268095
velY: -0.13017000258
velZ: 0.987817645073
accX: 0.0
accY: 0.0
accZ: 0.0
---
header: 
  seq: 22829
  stamp: 
    secs: 1596613579
    nsecs: 905859761
  frame_id: "node1_radarinterface_radarscan"
range: 1.71979725361
angle: -0.0641415938735
elev: 0.22373688221
doppler: 0.0795030742884
snr: 236
noise: 458
frame_num: 1593
point_id: 9
x: -0.1074873209
y: 1.67348313332
z: 0.381579846144
doppler_bin: 33
target_idx: 4
posX: -0.13962417841
posY: 1.60599601269
posZ: 0.734981894493
velX: -0.068232268095
velY: -0.13017000258
velZ: 0.987817645073
accX: 0.0
accY: 0.0
accZ: 0.0
---
header: 
  seq: 22830
  stamp: 
    secs: 1596613579
    nsecs: 905897922
  frame_id: "node1_radarinterface_radarscan"
range: 1.71979725361
angle: -0.0325224846601
elev: 0.280044436455
doppler: 0.159006148577
snr: 213
noise: 430
frame_num: 1593
point_id: 13
x: -0.0537436679006
y: 1.65192532539
z: 0.475349128246
doppler_bin: 34
target_idx: 4
posX: -0.13962417841
posY: 1.60599601269
posZ: 0.734981894493
velX: -0.068232268095
velY: -0.13017000258
velZ: 0.987817645073
accX: 0.0
accY: 0.0
accZ: 0.0
---
header: 
  seq: 22831
  stamp: 
    secs: 1596613579
    nsecs: 905954229
  frame_id: "node1_radarinterface_radarscan"
range: 1.95431506634
angle: -0.109610691667
elev: 0.541348040104
doppler: 0.159006148577
snr: 132
noise: 493
frame_num: 1593
point_id: 16
x: -0.183217033744
y: 1.66482555866
z: 1.00704240799
doppler_bin: 34
target_idx: 4
posX: -0.13962417841
posY: 1.60599601269
posZ: 0.734981894493
velX: -0.068232268095
velY: -0.13017000258
velZ: 0.987817645073
accX: 0.0
accY: 0.0
accZ: 0.0
---
header: 
  seq: 22832
  stamp: 
    secs: 1596613579
    nsecs: 905979600
  frame_id: "node1_radarinterface_radarscan"
range: 2.03248763084
angle: -0.150949507952
elev: 0.589453518391
doppler: 0.238509222865
snr: 139
noise: 452
frame_num: 1593
point_id: 18
x: -0.254060953856
y: 1.67028272152
z: 1.12987375259
doppler_bin: 35
target_idx: 4
posX: -0.13962417841
posY: 1.60599601269
posZ: 0.734981894493
velX: -0.068232268095
velY: -0.13017000258
velZ: 0.987817645073
accX: 0.0
accY: 0.0
accZ: 0.0
---
header: 
  seq: 22833
  stamp: 
    secs: 1596613579
    nsecs: 906109490
  frame_id: "node1_radarinterface_radarscan"
range: 1.56345200539
angle: -0.0736153796315
elev: 0.55523866415
doppler: 1.19254612923
snr: 266
noise: 360
frame_num: 1593
point_id: 21
x: -0.0977157503366
y: 1.3249835968
z: 0.824167668819
doppler_bin: 47
target_idx: 4
posX: -0.13962417841
posY: 1.60599601269
posZ: 0.734981894493
velX: -0.068232268095
velY: -0.13017000258
velZ: 0.987817645073
accX: 0.0
accY: 0.0
accZ: 0.0
---
header: 
  seq: 22834
  stamp: 
    secs: 1596613579
    nsecs: 906158937
  frame_id: "node1_radarinterface_radarscan"
range: 1.32893419266
angle: -0.0750061050057
elev: 0.584392547607
doppler: 1.27204918861
snr: 197
noise: 354
frame_num: 1593
point_id: 22
x: -0.0830583870411
y: 1.10527765751
z: 0.73316347599
doppler_bin: 48
target_idx: 4
posX: -0.13962417841
posY: 1.60599601269
posZ: 0.734981894493
velX: -0.068232268095
velY: -0.13017000258
velZ: 0.987817645073
accX: 0.0
accY: 0.0
accZ: 0.0
---
header: 
  seq: 22835
  stamp: 
    secs: 1596613579
    nsecs: 906244019
  frame_id: "node1_radarinterface_radarscan"
range: 1.40710687637
angle: -0.074560560286
elev: 0.575313150883
doppler: 1.27204918861
snr: 305
noise: 353
frame_num: 1593
point_id: 23
x: -0.0879441872239
y: 1.177313447
z: 0.765603423119
doppler_bin: 48
target_idx: 4
posX: -0.13962417841
posY: 1.60599601269
posZ: 0.734981894493
velX: -0.068232268095
velY: -0.13017000258
velZ: 0.987817645073
accX: 0.0
accY: 0.0
accZ: 0.0
---
header: 
  seq: 22836
  stamp: 
    secs: 1596613579
    nsecs: 906271326
  frame_id: "node1_radarinterface_radarscan"
range: 1.56345200539
angle: -0.0745533555746
elev: 0.575164377689
doppler: 1.27204918861
snr: 292
noise: 357
frame_num: 1593
point_id: 25
x: -0.0977157577872
y: 1.30825293064
z: 0.850475251675
doppler_bin: 48
target_idx: 4
posX: -0.13962417841
posY: 1.60599601269
posZ: 0.734981894493
velX: -0.068232268095
velY: -0.13017000258
velZ: 0.987817645073
accX: 0.0
accY: 0.0
accZ: 0.0
---
header: 
  seq: 22837
  stamp: 
    secs: 1596613579
    nsecs: 906292678
  frame_id: "node1_radarinterface_radarscan"
range: 1.6416246891
angle: -0.07424685359
elev: 0.568776786327
doppler: 1.27204918861
snr: 171
noise: 361
frame_num: 1593
point_id: 26
x: -0.102601543069
y: 1.37935733795
z: 0.884182035923
doppler_bin: 48
target_idx: 4
posX: -0.13962417841
posY: 1.60599601269
posZ: 0.734981894493
velX: -0.068232268095
velY: -0.13017000258
velZ: 0.987817645073
accX: 0.0
accY: 0.0
accZ: 0.0
---
header: 
  seq: 22838
  stamp: 
    secs: 1596613579
    nsecs: 906307048
  frame_id: "node1_radarinterface_radarscan"
range: 1.32893419266
angle: -0.0747647359967
elev: 0.579503059387
doppler: 1.351552248
snr: 202
noise: 353
frame_num: 1593
point_id: 27
x: -0.0830583795905
y: 1.1088591814
z: 0.727735280991
doppler_bin: 49
target_idx: 4
posX: -0.13962417841
posY: 1.60599601269
posZ: 0.734981894493
velX: -0.068232268095
velY: -0.13017000258
velZ: 0.987817645073
accX: 0.0
accY: 0.0
accZ: 0.0
---
header: 
  seq: 22839
  stamp: 
    secs: 1596613579
    nsecs: 906320304
  frame_id: "node1_radarinterface_radarscan"
range: 1.48527944088
angle: -0.0748068019748
elev: 0.580359995365
doppler: 1.351552248
snr: 328
noise: 356
frame_num: 1593
point_id: 29
x: -0.0928299725056
y: 1.23861396313
z: 0.814415872097
doppler_bin: 49
target_idx: 4
posX: -0.13962417841
posY: 1.60599601269
posZ: 0.734981894493
velX: -0.068232268095
velY: -0.13017000258
velZ: 0.987817645073
accX: 0.0
accY: 0.0
accZ: 0.0
---
header: 
  seq: 22840
  stamp: 
    secs: 1596613579
    nsecs: 906332961
  frame_id: "node1_radarinterface_radarscan"
range: 1.6416246891
angle: -0.0762537792325
elev: 0.608639955521
doppler: 1.351552248
snr: 152
noise: 365
frame_num: 1593
point_id: 31
x: -0.102601543069
y: 1.342918396
z: 0.938602507114
doppler_bin: 49
target_idx: 4
posX: -0.13962417841
posY: 1.60599601269
posZ: 0.734981894493
velX: -0.068232268095
velY: -0.13017000258
velZ: 0.987817645073
accX: 0.0
accY: 0.0
accZ: 0.0
---
header: 
  seq: 22841
  stamp: 
    secs: 1596613579
    nsecs: 906345857
  frame_id: "node1_radarinterface_radarscan"
range: 1.56345200539
angle: -0.0753517448902
elev: 0.5912784338
doppler: 1.43105530739
snr: 264
noise: 355
frame_num: 1593
point_id: 35
x: -0.0977157503366
y: 1.29433953762
z: 0.871503889561
doppler_bin: 50
target_idx: 4
posX: -0.13962417841
posY: 1.60599601269
posZ: 0.734981894493
velX: -0.068232268095
velY: -0.13017000258
velZ: 0.987817645073
accX: 0.0
accY: 0.0
accZ: 0.0
---
header: 
  seq: 22842
  stamp: 
    secs: 1596613579
    nsecs: 906365936
  frame_id: "node1_radarinterface_radarscan"
range: 1.48527944088
angle: -0.117668114603
elev: 0.645874083042
doppler: 2.22608613968
snr: 269
noise: 351
frame_num: 1593
point_id: 36
x: -0.139244943857
y: 1.17790365219
z: 0.893984794617
doppler_bin: 60
target_idx: 4
posX: -0.13962417841
posY: 1.60599601269
posZ: 0.734981894493
velX: -0.068232268095
velY: -0.13017000258
velZ: 0.987817645073
accX: 0.0
accY: 0.0
accZ: 0.0
---
header: 
  seq: 22843
  stamp: 
    secs: 1596613579
    nsecs: 906385420
  frame_id: "node1_radarinterface_radarscan"
range: 1.40710687637
angle: -0.156289502978
elev: 0.638378322124
doppler: 2.38509225845
snr: 215
noise: 360
frame_num: 1593
point_id: 37
x: -0.175888374448
y: 1.11622285843
z: 0.838486433029
doppler_bin: 62
target_idx: 4
posX: -0.13962417841
posY: 1.60599601269
posZ: 0.734981894493
velX: -0.068232268095
velY: -0.13017000258
velZ: 0.987817645073
accX: 0.0
accY: 0.0
accZ: 0.0
---
header: 
  seq: 22844
  stamp: 
    secs: 1596613579
    nsecs: 906405591
  frame_id: "node1_radarinterface_radarscan"
range: 1.56345200539
angle: -0.154606252909
elev: 0.623678803444
doppler: 2.38509225845
snr: 222
noise: 363
frame_num: 1593
point_id: 39
x: -0.195431500673
y: 1.2539716959
z: 0.913095533848
doppler_bin: 62
target_idx: 4
posX: -0.13962417841
posY: 1.60599601269
posZ: 0.734981894493
velX: -0.068232268095
velY: -0.13017000258
velZ: 0.987817645073
accX: 0.0
accY: 0.0
accZ: 0.0
---
header: 
  seq: 22845
  stamp: 
    secs: 1596613579
    nsecs: 906422234
  frame_id: "node1_radarinterface_radarscan"
range: 1.40710687637
angle: -0.157637611032
elev: 0.649722635746
doppler: 2.46459531784
snr: 246
noise: 352
frame_num: 1593
point_id: 40
x: -0.175888359547
y: 1.10651910305
z: 0.851251244545
doppler_bin: 63
target_idx: 4
posX: -0.13962417841
posY: 1.60599601269
posZ: 0.734981894493
velX: -0.068232268095
velY: -0.13017000258
velZ: 0.987817645073
accX: 0.0
accY: 0.0
accZ: 0.0
---
header: 
  seq: 22846
  stamp: 
    secs: 1596613579
    nsecs: 906441658
  frame_id: "node1_radarinterface_radarscan"
range: 1.48527944088
angle: -0.156606972218
elev: 0.641083061695
doppler: 2.46459531784
snr: 282
noise: 355
frame_num: 1593
point_id: 41
x: -0.18565993011
y: 1.17580735683
z: 0.88829189539
doppler_bin: 63
target_idx: 4
posX: -0.13962417841
posY: 1.60599601269
posZ: 0.734981894493
velX: -0.068232268095
velY: -0.13017000258
velZ: 0.987817645073
accX: 0.0
accY: 0.0
accZ: 0.0
---
header: 
  seq: 22847
  stamp: 
    secs: 1596613579
    nsecs: 906461619
  frame_id: "node1_radarinterface_radarscan"
range: 1.56345200539
angle: -0.156199291348
elev: 0.637606024742
doppler: 2.46459531784
snr: 254
noise: 357
frame_num: 1593
point_id: 42
x: -0.195431485772
y: 1.24097561836
z: 0.930681586266
doppler_bin: 63
target_idx: 4
posX: -0.13962417841
posY: 1.60599601269
posZ: 0.734981894493
velX: -0.068232268095
velY: -0.13017000258
velZ: 0.987817645073
accX: 0.0
accY: 0.0
accZ: 0.0
---
header: 
  seq: 22848
  stamp: 
    secs: 1596613579
    nsecs: 906481993
  frame_id: "node1_radarinterface_radarscan"
range: 2.26700544357
angle: -0.17527961731
elev: 0.46008720994
doppler: -1.59006142616
snr: 148
noise: 400
frame_num: 1593
point_id: 49
x: -0.354219585657
y: 2.00014472008
z: 1.00660991669
doppler_bin: 12
target_idx: 4
posX: -0.13962417841
posY: 1.60599601269
posZ: 0.734981894493
velX: -0.068232268095
velY: -0.13017000258
velZ: 0.987817645073
accX: 0.0
accY: 0.0
accZ: 0.0
---
header: 
  seq: 22849
  stamp: 
    secs: 1596613579
    nsecs: 906501731
  frame_id: "node1_radarinterface_radarscan"
range: 2.34517812729
angle: -0.173860549927
elev: 0.443506866693
doppler: -1.59006142616
snr: 195
noise: 397
frame_num: 1593
point_id: 50
x: -0.36643409729
y: 2.08635306358
z: 1.00633859634
doppler_bin: 12
target_idx: 4
posX: -0.13962417841
posY: 1.60599601269
posZ: 0.734981894493
velX: -0.068232268095
velY: -0.13017000258
velZ: 0.987817645073
accX: 0.0
accY: 0.0
accZ: 0.0
---
header: 
  seq: 22850
  stamp: 
    secs: 1596613579
    nsecs: 906522104
  frame_id: "node1_radarinterface_radarscan"
range: 2.42335057259
angle: -0.173095107079
elev: 0.43420112133
doppler: -1.59006142616
snr: 173
noise: 397
frame_num: 1593
point_id: 51
x: -0.378648519516
y: 2.16562604904
z: 1.01946914196
doppler_bin: 12
target_idx: 4
posX: -0.13962417841
posY: 1.60599601269
posZ: 0.734981894493
velX: -0.068232268095
velY: -0.13017000258
velZ: 0.987817645073
accX: 0.0
accY: 0.0
accZ: 0.0
---
header: 
  seq: 22851
  stamp: 
    secs: 1596613579
    nsecs: 906543414
  frame_id: "node1_radarinterface_radarscan"
range: 2.26700544357
angle: -0.174245491624
elev: 0.448088020086
doppler: -1.43105530739
snr: 207
noise: 388
frame_num: 1593
point_id: 56
x: -0.354219585657
y: 2.01226115227
z: 0.982164502144
doppler_bin: 14
target_idx: 4
posX: -0.13962417841
posY: 1.60599601269
posZ: 0.734981894493
velX: -0.068232268095
velY: -0.13017000258
velZ: 0.987817645073
accX: 0.0
accY: 0.0
accZ: 0.0
---
header: 
  seq: 22852
  stamp: 
    secs: 1596613579
    nsecs: 906609474
  frame_id: "node1_radarinterface_radarscan"
range: 2.42335057259
angle: -0.170841082931
elev: 0.405115634203
doppler: -1.351552248
snr: 164
noise: 397
frame_num: 1593
point_id: 61
x: -0.378648519516
y: 2.19477367401
z: 0.955103158951
doppler_bin: 15
target_idx: 4
posX: -0.13962417841
posY: 1.60599601269
posZ: 0.734981894493
velX: -0.068232268095
velY: -0.13017000258
velZ: 0.987817645073
accX: 0.0
accY: 0.0
accZ: 0.0
---
header: 
  seq: 22853
  stamp: 
    secs: 1596613579
    nsecs: 906624352
  frame_id: "node1_radarinterface_radarscan"
range: 1.6416246891
angle: -0.0945627242327
elev: 0.119364097714
doppler: -0.0795030742884
snr: 241
noise: 379
frame_num: 1593
point_id: 64
x: -0.153902322054
y: 1.62266170979
z: 0.195486068726
doppler_bin: 31
target_idx: 4
posX: -0.13962417841
posY: 1.60599601269
posZ: 0.734981894493
velX: -0.068232268095
velY: -0.13017000258
velZ: 0.987817645073
accX: 0.0
accY: 0.0
accZ: 0.0
---
header: 
  seq: 22854
  stamp: 
    secs: 1596613579
    nsecs: 906637879
  frame_id: "node1_radarinterface_radarscan"
range: 2.03248763084
angle: 0.0
elev: 0.173877090216
doppler: -0.0795030742884
snr: 122
noise: 482
frame_num: 1593
point_id: 66
x: 0.0
y: 2.00184059143
z: 0.351624965668
doppler_bin: 31
target_idx: 4
posX: -0.13962417841
posY: 1.60599601269
posZ: 0.734981894493
velX: -0.068232268095
velY: -0.13017000258
velZ: 0.987817645073
accX: 0.0
accY: 0.0
accZ: 0.0
---
header: 
  seq: 22855
  stamp: 
    secs: 1596613580
    nsecs:   4530086
  frame_id: "node1_radarinterface_radarscan"
range: 1.79796981812
angle: 0.0
elev: 0.314141869545
doppler: 0.0
snr: 275
noise: 443
frame_num: 1594
point_id: 3
x: 0.0
y: 1.70998060703
z: 0.55557346344
doppler_bin: 32
target_idx: 4
posX: -0.0952381044626
posY: 1.62577688694
posZ: 0.719881415367
velX: 0.176241755486
velY: -0.0264265760779
velZ: 0.715400636196
accX: 0.0
accY: 0.0
accZ: 0.0
---
header: 
  seq: 22856
  stamp: 
    secs: 1596613580
    nsecs:   4641477
  frame_id: "node1_radarinterface_radarscan"
range: 1.56345200539
angle: -0.032740496099
elev: 0.302327722311
doppler: 0.0795030742884
snr: 202
noise: 386
frame_num: 1594
point_id: 9
x: -0.0488578751683
y: 1.49174332619
z: 0.465507149696
doppler_bin: 33
target_idx: 4
posX: -0.0952381044626
posY: 1.62577688694
posZ: 0.719881415367
velX: 0.176241755486
velY: -0.0264265760779
velZ: 0.715400636196
accX: 0.0
accY: 0.0
accZ: 0.0
---
header: 
  seq: 22857
  stamp: 
    secs: 1596613580
    nsecs:   4656787
  frame_id: "node1_radarinterface_radarscan"
range: 1.87614250183
angle: -0.066026173532
elev: 0.326151520014
doppler: 0.0795030742884
snr: 190
noise: 490
frame_num: 1594
point_id: 13
x: -0.117258906364
y: 1.7733643055
z: 0.601115703583
doppler_bin: 33
target_idx: 4
posX: -0.0952381044626
posY: 1.62577688694
posZ: 0.719881415367
velX: 0.176241755486
velY: -0.0264265760779
velZ: 0.715400636196
accX: 0.0
accY: 0.0
accZ: 0.0
---
header: 
  seq: 22858
  stamp: 
    secs: 1596613580
    nsecs:   4671909
  frame_id: "node1_radarinterface_radarscan"
range: 1.6416246891
angle: -0.0330782532692
elev: 0.333502054214
doppler: 0.159006148577
snr: 275
noise: 382
frame_num: 1594
point_id: 16
x: -0.0513007715344
y: 1.55032551289
z: 0.537392616272
doppler_bin: 34
target_idx: 4
posX: -0.0952381044626
posY: 1.62577688694
posZ: 0.719881415367
velX: 0.176241755486
velY: -0.0264265760779
velZ: 0.715400636196
accX: 0.0
accY: 0.0
accZ: 0.0
---
header: 
  seq: 22859
  stamp: 
    secs: 1596613580
    nsecs:   4686196
  frame_id: "node1_radarinterface_radarscan"
range: 1.48527944088
angle: -0.035580996424
elev: 0.49816006422
doppler: 0.238509222865
snr: 186
noise: 355
frame_num: 1594
point_id: 18
x: -0.0464149825275
y: 1.30393743515
z: 0.709681391716
doppler_bin: 35
target_idx: 4
posX: -0.0952381044626
posY: 1.62577688694
posZ: 0.719881415367
velX: 0.176241755486
velY: -0.0264265760779
velZ: 0.715400636196
accX: 0.0
accY: 0.0
accZ: 0.0
---
header: 
  seq: 22860
  stamp: 
    secs: 1596613580
    nsecs:   4700587
  frame_id: "node1_radarinterface_radarscan"
range: 1.48527944088
angle: -0.0359811969101
elev: 0.518231451511
doppler: 0.397515356541
snr: 211
noise: 355
frame_num: 1594
point_id: 21
x: -0.0464149825275
y: 1.28942203522
z: 0.735725104809
doppler_bin: 37
target_idx: 4
posX: -0.0952381044626
posY: 1.62577688694
posZ: 0.719881415367
velX: 0.176241755486
velY: -0.0264265760779
velZ: 0.715400636196
accX: 0.0
accY: 0.0
accZ: 0.0
---
header: 
  seq: 22861
  stamp: 
    secs: 1596613580
    nsecs:   4714911
  frame_id: "node1_radarinterface_radarscan"
range: 1.71979725361
angle: 0.0
elev: 0.207889586687
doppler: -0.159006148577
snr: 306
noise: 358
frame_num: 1594
point_id: 22
x: 0.0
y: 1.68276774883
z: 0.354958206415
doppler_bin: 30
target_idx: 4
posX: -0.0952381044626
posY: 1.62577688694
posZ: 0.719881415367
velX: 0.176241755486
velY: -0.0264265760779
velZ: 0.715400636196
accX: 0.0
accY: 0.0
accZ: 0.0
---
header: 
  seq: 22862
  stamp: 
    secs: 1596613580
    nsecs:   4728892
  frame_id: "node1_radarinterface_radarscan"
range: 1.79796981812
angle: 0.0
elev: 0.234790965915
doppler: -0.159006148577
snr: 321
noise: 367
frame_num: 1594
point_id: 23
x: 0.0
y: 1.74863886833
z: 0.418279141188
doppler_bin: 30
target_idx: 4
posX: -0.0952381044626
posY: 1.62577688694
posZ: 0.719881415367
velX: 0.176241755486
velY: -0.0264265760779
velZ: 0.715400636196
accX: 0.0
accY: 0.0
accZ: 0.0
---
header: 
  seq: 22863
  stamp: 
    secs: 1596613580
    nsecs:   4742869
  frame_id: "node1_radarinterface_radarscan"
range: 1.6416246891
angle: 0.0
elev: 0.132970765233
doppler: -0.0795030742884
snr: 324
noise: 363
frame_num: 1594
point_id: 25
x: 0.0
y: 1.62713313103
z: 0.217645391822
doppler_bin: 31
target_idx: 4
posX: -0.0952381044626
posY: 1.62577688694
posZ: 0.719881415367
velX: 0.176241755486
velY: -0.0264265760779
velZ: 0.715400636196
accX: 0.0
accY: 0.0
accZ: 0.0
---
header: 
  seq: 22864
  stamp: 
    secs: 1596613580
    nsecs:   4756752
  frame_id: "node1_radarinterface_radarscan"
range: 1.71979725361
angle: 0.0
elev: 0.198836192489
doppler: -0.0795030742884
snr: 385
noise: 379
frame_num: 1594
point_id: 26
x: 0.0
y: 1.68591225147
z: 0.33970913291
doppler_bin: 31
target_idx: 4
posX: -0.0952381044626
posY: 1.62577688694
posZ: 0.719881415367
velX: 0.176241755486
velY: -0.0264265760779
velZ: 0.715400636196
accX: 0.0
accY: 0.0
accZ: 0.0
---
header: 
  seq: 22865
  stamp: 
    secs: 1596613580
    nsecs:   4770586
  frame_id: "node1_radarinterface_radarscan"
range: 1.79796981812
angle: -0.0321476608515
elev: 0.236156627536
doppler: -0.0795030742884
snr: 373
noise: 400
frame_num: 1594
point_id: 27
x: -0.0561865568161
y: 1.74716281891
z: 0.42066681385
doppler_bin: 31
target_idx: 4
posX: -0.0952381044626
posY: 1.62577688694
posZ: 0.719881415367
velX: 0.176241755486
velY: -0.0264265760779
velZ: 0.715400636196
accX: 0.0
accY: 0.0
accZ: 0.0
---
header: 
  seq: 22866
  stamp: 
    secs: 1596613580
    nsecs:   4784458
  frame_id: "node1_radarinterface_radarscan"
range: 1.95431506634
angle: -0.096375502646
elev: 0.227359056473
doppler: -0.0795030742884
snr: 213
noise: 434
frame_num: 1594
point_id: 29
x: -0.183217033744
y: 1.89518523216
z: 0.440513044596
doppler_bin: 31
target_idx: 4
posX: -0.0952381044626
posY: 1.62577688694
posZ: 0.719881415367
velX: 0.176241755486
velY: -0.0264265760779
velZ: 0.715400636196
accX: 0.0
accY: 0.0
accZ: 0.0
---
header: 
  seq: 22867
  stamp: 
    secs: 1596613580
    nsecs: 105281447
  frame_id: "node1_radarinterface_radarscan"
range: 1.6416246891
angle: -0.0315309539437
elev: 0.132354825735
doppler: 0.0
snr: 273
noise: 405
frame_num: 1595
point_id: 5
x: -0.0513007752597
y: 1.62645804882
z: 0.21664313972
doppler_bin: 32
target_idx: 4
posX: -0.0768657624722
posY: 1.67789387703
posZ: 0.612415015697
velX: 0.218074947596
velY: 0.166983485222
velZ: 0.173816800117
accX: 0.0
accY: 0.0
accZ: 0.0
---
header: 
  seq: 22868
  stamp: 
    secs: 1596613580
    nsecs: 105333573
  frame_id: "node1_radarinterface_radarscan"
range: 1.71979725361
angle: -0.0315371714532
elev: 0.133827522397
doppler: 0.0
snr: 286
noise: 434
frame_num: 1595
point_id: 6
x: -0.0537436641753
y: 1.70357203484
z: 0.229469805956
doppler_bin: 32
target_idx: 4
posX: -0.0768657624722
posY: 1.67789387703
posZ: 0.612415015697
velX: 0.218074947596
velY: 0.166983485222
velZ: 0.173816800117
accX: 0.0
accY: 0.0
accZ: 0.0
---
header: 
  seq: 22869
  stamp: 
    secs: 1596613580
    nsecs: 105347020
  frame_id: "node1_radarinterface_radarscan"
range: 1.79796981812
angle: -0.0314301364124
elev: 0.105572924018
doppler: 0.0
snr: 237
noise: 464
frame_num: 1595
point_id: 7
x: -0.0561865530908
y: 1.78707623482
z: 0.189464524388
doppler_bin: 32
target_idx: 4
posX: -0.0768657624722
posY: 1.67789387703
posZ: 0.612415015697
velX: 0.218074947596
velY: 0.166983485222
velZ: 0.173816800117
accX: 0.0
accY: 0.0
accZ: 0.0
---
header: 
  seq: 22870
  stamp: 
    secs: 1596613580
    nsecs: 105387640
  frame_id: "node1_radarinterface_radarscan"
range: 1.95431506634
angle: -0.0744310840964
elev: 0.572630107403
doppler: 0.0
snr: 163
noise: 485
frame_num: 1595
point_id: 9
x: -0.122144699097
y: 1.63801252842
z: 1.05893480778
doppler_bin: 32
target_idx: 4
posX: -0.0768657624722
posY: 1.67789387703
posZ: 0.612415015697
velX: 0.218074947596
velY: 0.166983485222
velZ: 0.173816800117
accX: 0.0
accY: 0.0
accZ: 0.0
---
header: 
  seq: 22871
  stamp: 
    secs: 1596613580
    nsecs: 105401928
  frame_id: "node1_radarinterface_radarscan"
range: 1.6416246891
angle: -0.0630394369364
elev: 0.125782072544
doppler: 0.0795030742884
snr: 273
noise: 402
frame_num: 1595
point_id: 16
x: -0.102601550519
y: 1.62542057037
z: 0.20594291389
doppler_bin: 33
target_idx: 4
posX: -0.0768657624722
posY: 1.67789387703
posZ: 0.612415015697
velX: 0.218074947596
velY: 0.166983485222
velZ: 0.173816800117
accX: 0.0
accY: 0.0
accZ: 0.0
---
header: 
  seq: 22872
  stamp: 
    secs: 1596613580
    nsecs: 105430289
  frame_id: "node1_radarinterface_radarscan"
range: 1.79796981812
angle: -0.0320931896567
elev: 0.228999644518
doppler: 0.0795030742884
snr: 243
noise: 481
frame_num: 1595
point_id: 18
x: -0.0561865568161
y: 1.75013029575
z: 0.40814524889
doppler_bin: 33
target_idx: 4
posX: -0.0768657624722
posY: 1.67789387703
posZ: 0.612415015697
velX: 0.218074947596
velY: 0.166983485222
velZ: 0.173816800117
accX: 0.0
accY: 0.0
accZ: 0.0
---
header: 
  seq: 22873
  stamp: 
    secs: 1596613580
    nsecs: 105460384
  frame_id: "node1_radarinterface_radarscan"
range: 1.79796981812
angle: -0.0325509570539
elev: 0.283069133759
doppler: 0.159006148577
snr: 206
noise: 452
frame_num: 1595
point_id: 25
x: -0.0561865530908
y: 1.72550094128
z: 0.502180099487
doppler_bin: 34
target_idx: 4
posX: -0.0768657624722
posY: 1.67789387703
posZ: 0.612415015697
velX: 0.218074947596
velY: 0.166983485222
velZ: 0.173816800117
accX: 0.0
accY: 0.0
accZ: 0.0
---
header: 
  seq: 22874
  stamp: 
    secs: 1596613580
    nsecs: 105516100
  frame_id: "node1_radarinterface_radarscan"
range: 1.87614250183
angle: -0.0694459080696
elev: 0.449407100677
doppler: 0.159006148577
snr: 198
noise: 466
frame_num: 1595
point_id: 26
x: -0.117258906364
y: 1.68577730656
z: 0.815055549145
doppler_bin: 34
target_idx: 4
posX: -0.0768657624722
posY: 1.67789387703
posZ: 0.612415015697
velX: 0.218074947596
velY: 0.166983485222
velZ: 0.173816800117
accX: 0.0
accY: 0.0
accZ: 0.0
---
header: 
  seq: 22875
  stamp: 
    secs: 1596613580
    nsecs: 105529174
  frame_id: "node1_radarinterface_radarscan"
range: 1.95431506634
angle: -0.108673855662
elev: 0.526893436909
doppler: 0.159006148577
snr: 179
noise: 470
frame_num: 1595
point_id: 27
x: -0.183217033744
y: 1.67929255962
z: 0.982728362083
doppler_bin: 34
target_idx: 4
posX: -0.0768657624722
posY: 1.67789387703
posZ: 0.612415015697
velX: 0.218074947596
velY: 0.166983485222
velZ: 0.173816800117
accX: 0.0
accY: 0.0
accZ: 0.0
---
header: 
  seq: 22876
  stamp: 
    secs: 1596613580
    nsecs: 105540456
  frame_id: "node1_radarinterface_radarscan"
range: 1.6416246891
angle: -0.0314016453922
elev: 0.0966362804174
doppler: -0.159006148577
snr: 307
noise: 360
frame_num: 1595
point_id: 29
x: -0.0513007715344
y: 1.63315999508
z: 0.158393710852
doppler_bin: 30
target_idx: 4
posX: -0.0768657624722
posY: 1.67789387703
posZ: 0.612415015697
velX: 0.218074947596
velY: 0.166983485222
velZ: 0.173816800117
accX: 0.0
accY: 0.0
accZ: 0.0
---
header: 
  seq: 22877
  stamp: 
    secs: 1596613580
    nsecs: 105557355
  frame_id: "node1_radarinterface_radarscan"
range: 1.87614250183
angle: -0.03152198717
elev: 0.130201995373
doppler: -0.159006148577
snr: 213
noise: 411
frame_num: 1595
point_id: 32
x: -0.0586294531822
y: 1.85933816433
z: 0.243587896228
doppler_bin: 30
target_idx: 4
posX: -0.0768657624722
posY: 1.67789387703
posZ: 0.612415015697
velX: 0.218074947596
velY: 0.166983485222
velZ: 0.173816800117
accX: 0.0
accY: 0.0
accZ: 0.0
---
header: 
  seq: 22878
  stamp: 
    secs: 1596613580
    nsecs: 105612704
  frame_id: "node1_radarinterface_radarscan"
range: 1.48527944088
angle: -0.0364693179727
elev: 0.541231989861
doppler: -0.0795030742884
snr: 204
noise: 367
frame_num: 1595
point_id: 35
x: -0.0464149825275
y: 1.27214884758
z: 0.765204489231
doppler_bin: 31
target_idx: 4
posX: -0.0768657624722
posY: 1.67789387703
posZ: 0.612415015697
velX: 0.218074947596
velY: 0.166983485222
velZ: 0.173816800117
accX: 0.0
accY: 0.0
accZ: 0.0
---
header: 
  seq: 22879
  stamp: 
    secs: 1596613580
    nsecs: 105634929
  frame_id: "node1_radarinterface_radarscan"
range: 1.56345200539
angle: -0.0635331571102
elev: 0.176863580942
doppler: -0.0795030742884
snr: 267
noise: 369
frame_num: 1595
point_id: 37
x: -0.0977157428861
y: 1.53595757484
z: 0.275078356266
doppler_bin: 31
target_idx: 4
posX: -0.0768657624722
posY: 1.67789387703
posZ: 0.612415015697
velX: 0.218074947596
velY: 0.166983485222
velZ: 0.173816800117
accX: 0.0
accY: 0.0
accZ: 0.0
---
header: 
  seq: 22880
  stamp: 
    secs: 1596613580
    nsecs: 105647111
  frame_id: "node1_radarinterface_radarscan"
range: 1.71979725361
angle: -0.0314498282969
elev: 0.111323848367
doppler: -0.0795030742884
snr: 378
noise: 407
frame_num: 1595
point_id: 39
x: -0.05374366045
y: 1.70830631256
z: 0.191059246659
doppler_bin: 31
target_idx: 4
posX: -0.0768657624722
posY: 1.67789387703
posZ: 0.612415015697
velX: 0.218074947596
velY: 0.166983485222
velZ: 0.173816800117
accX: 0.0
accY: 0.0
accZ: 0.0
---
header: 
  seq: 22881
  stamp: 
    secs: 1596613580
    nsecs: 105658327
  frame_id: "node1_radarinterface_radarscan"
range: 1.95431506634
angle: -0.12790890038
elev: 0.200696617365
doppler: -0.0795030742884
snr: 132
noise: 490
frame_num: 1595
point_id: 42
x: -0.244289398193
y: 1.89944314957
z: 0.389596641064
doppler_bin: 31
target_idx: 4
posX: -0.0768657624722
posY: 1.67789387703
posZ: 0.612415015697
velX: 0.218074947596
velY: 0.166983485222
velZ: 0.173816800117
accX: 0.0
accY: 0.0
accZ: 0.0
---
header: 
  seq: 22882
  stamp: 
    secs: 1596613580
    nsecs: 204195628
  frame_id: "node1_radarinterface_radarscan"
range: 1.6416246891
angle: -0.0312998816371
elev: 0.0534974038601
doppler: 0.0
snr: 221
noise: 399
frame_num: 1596
point_id: 2
x: -0.0513007715344
y: 1.63847327232
z: 0.0877807736397
doppler_bin: 32
target_idx: 4
posX: -0.0819208398461
posY: 1.68399488926
posZ: 0.675434410572
velX: 0.121121779084
velY: 0.128503143787
velZ: 0.290992617607
accX: 0.0
accY: 0.0
accZ: 0.0
---
header: 
  seq: 22883
  stamp: 
    secs: 1596613580
    nsecs: 204268720
  frame_id: "node1_radarinterface_radarscan"
range: 1.87614250183
angle: -0.0362324230373
elev: 0.530259370804
doppler: 0.0
snr: 222
noise: 466
frame_num: 1596
point_id: 5
x: -0.0586294531822
y: 1.61744070053
z: 0.948872387409
doppler_bin: 32
target_idx: 4
posX: -0.0819208398461
posY: 1.68399488926
posZ: 0.675434410572
velX: 0.121121779084
velY: 0.128503143787
velZ: 0.290992617607
accX: 0.0
accY: 0.0
accZ: 0.0
---
header: 
  seq: 22884
  stamp: 
    secs: 1596613580
    nsecs: 204337580
  frame_id: "node1_radarinterface_radarscan"
range: 1.56345200539
angle: -0.0323177836835
elev: 0.257112681866
doppler: 0.0795030742884
snr: 225
noise: 386
frame_num: 1596
point_id: 11
x: -0.0488578788936
y: 1.51126909256
z: 0.397568970919
doppler_bin: 33
target_idx: 4
posX: -0.0819208398461
posY: 1.68399488926
posZ: 0.675434410572
velX: 0.121121779084
velY: 0.128503143787
velZ: 0.290992617607
accX: 0.0
accY: 0.0
accZ: 0.0
---
header: 
  seq: 22885
  stamp: 
    secs: 1596613580
    nsecs: 204358917
  frame_id: "node1_radarinterface_radarscan"
range: 1.71979725361
angle: -0.0329186320305
elev: 0.319215476513
doppler: 0.0795030742884
snr: 315
noise: 439
frame_num: 1596
point_id: 13
x: -0.0537436641753
y: 1.63203167915
z: 0.539709806442
doppler_bin: 33
target_idx: 4
posX: -0.0819208398461
posY: 1.68399488926
posZ: 0.675434410572
velX: 0.121121779084
velY: 0.128503143787
velZ: 0.290992617607
accX: 0.0
accY: 0.0
accZ: 0.0
---
header: 
  seq: 22886
  stamp: 
    secs: 1596613580
    nsecs: 204379309
  frame_id: "node1_radarinterface_radarscan"
range: 1.79796981812
angle: -0.0653534531593
elev: 0.294252336025
doppler: 0.0795030742884
snr: 241
noise: 470
frame_num: 1596
point_id: 14
x: -0.112373113632
y: 1.71701836586
z: 0.521455109119
doppler_bin: 33
target_idx: 4
posX: -0.0819208398461
posY: 1.68399488926
posZ: 0.675434410572
velX: 0.121121779084
velY: 0.128503143787
velZ: 0.290992617607
accX: 0.0
accY: 0.0
accZ: 0.0
---
header: 
  seq: 22887
  stamp: 
    secs: 1596613580
    nsecs: 204410093
  frame_id: "node1_radarinterface_radarscan"
range: 2.03248763084
angle: -0.070988073945
elev: 0.492466330528
doppler: 0.0795030742884
snr: 121
noise: 532
frame_num: 1596
point_id: 17
x: -0.127030476928
y: 1.78645527363
z: 0.960961341858
doppler_bin: 33
target_idx: 4
posX: -0.0819208398461
posY: 1.68399488926
posZ: 0.675434410572
velX: 0.121121779084
velY: 0.128503143787
velZ: 0.290992617607
accX: 0.0
accY: 0.0
accZ: 0.0
---
header: 
  seq: 22888
  stamp: 
    secs: 1596613580
    nsecs: 204429485
  frame_id: "node1_radarinterface_radarscan"
range: 1.6416246891
angle: -0.033005528152
elev: 0.327084571123
doppler: 0.159006148577
snr: 285
noise: 377
frame_num: 1596
point_id: 20
x: -0.0513007715344
y: 1.55374407768
z: 0.527426958084
doppler_bin: 34
target_idx: 4
posX: -0.0819208398461
posY: 1.68399488926
posZ: 0.675434410572
velX: 0.121121779084
velY: 0.128503143787
velZ: 0.290992617607
accX: 0.0
accY: 0.0
accZ: 0.0
---
header: 
  seq: 22889
  stamp: 
    secs: 1596613580
    nsecs: 204477852
  frame_id: "node1_radarinterface_radarscan"
range: 1.71979725361
angle: -0.0330814085901
elev: 0.333777159452
doppler: 0.159006148577
snr: 297
noise: 403
frame_num: 1596
point_id: 21
x: -0.0537436641753
y: 1.62399542332
z: 0.563429772854
doppler_bin: 34
target_idx: 4
posX: -0.0819208398461
posY: 1.68399488926
posZ: 0.675434410572
velX: 0.121121779084
velY: 0.128503143787
velZ: 0.290992617607
accX: 0.0
accY: 0.0
accZ: 0.0
---
header: 
  seq: 22890
  stamp: 
    secs: 1596613580
    nsecs: 204491909
  frame_id: "node1_radarinterface_radarscan"
range: 1.79796981812
angle: -0.0325354747474
elev: 0.281429201365
doppler: 0.159006148577
snr: 232
noise: 429
frame_num: 1596
point_id: 22
x: -0.0561865530908
y: 1.72632265091
z: 0.499348193407
doppler_bin: 34
target_idx: 4
posX: -0.0819208398461
posY: 1.68399488926
posZ: 0.675434410572
velX: 0.121121779084
velY: 0.128503143787
velZ: 0.290992617607
accX: 0.0
accY: 0.0
accZ: 0.0
---
header: 
  seq: 22891
  stamp: 
    secs: 1596613580
    nsecs: 204503677
  frame_id: "node1_radarinterface_radarscan"
range: 2.5015232563
angle: 0.0
elev: 0.544866740704
doppler: 0.159006148577
snr: 119
noise: 457
frame_num: 1596
point_id: 26
x: 0.0
y: 2.13929367065
z: 1.29654979706
doppler_bin: 34
target_idx: 4
posX: -0.0819208398461
posY: 1.68399488926
posZ: 0.675434410572
velX: 0.121121779084
velY: 0.128503143787
velZ: 0.290992617607
accX: 0.0
accY: 0.0
accZ: 0.0
---
header: 
  seq: 22892
  stamp: 
    secs: 1596613580
    nsecs: 204514879
  frame_id: "node1_radarinterface_radarscan"
range: 2.57969594002
angle: 0.0
elev: 0.524801313877
doppler: 0.159006148577
snr: 120
noise: 461
frame_num: 1596
point_id: 27
x: 0.0
y: 2.23252940178
z: 1.29253363609
doppler_bin: 34
target_idx: 4
posX: -0.0819208398461
posY: 1.68399488926
posZ: 0.675434410572
velX: 0.121121779084
velY: 0.128503143787
velZ: 0.290992617607
accX: 0.0
accY: 0.0
accZ: 0.0
---
header: 
  seq: 22893
  stamp: 
    secs: 1596613580
    nsecs: 204529532
  frame_id: "node1_radarinterface_radarscan"
range: 2.26700544357
angle: -0.136859208345
elev: 0.412291914225
doppler: 1.27204918861
snr: 221
noise: 378
frame_num: 1596
point_id: 31
x: -0.283375680447
y: 2.0576198101
z: 0.908412277699
doppler_bin: 48
target_idx: 4
posX: -0.0819208398461
posY: 1.68399488926
posZ: 0.675434410572
velX: 0.121121779084
velY: 0.128503143787
velZ: 0.290992617607
accX: 0.0
accY: 0.0
accZ: 0.0
---
header: 
  seq: 22894
  stamp: 
    secs: 1596613580
    nsecs: 204541696
  frame_id: "node1_radarinterface_radarscan"
range: 2.34517812729
angle: -0.137241616845
elev: 0.418577671051
doppler: 1.27204918861
snr: 226
noise: 382
frame_num: 1596
point_id: 32
x: -0.293147295713
y: 2.12256669998
z: 0.953224241734
doppler_bin: 48
target_idx: 4
posX: -0.0819208398461
posY: 1.68399488926
posZ: 0.675434410572
velX: 0.121121779084
velY: 0.128503143787
velZ: 0.290992617607
accX: 0.0
accY: 0.0
accZ: 0.0
---
header: 
  seq: 22895
  stamp: 
    secs: 1596613580
    nsecs: 204555549
  frame_id: "node1_radarinterface_radarscan"
range: 2.26700544357
angle: -0.137458905578
elev: 0.422094881535
doppler: 1.351552248
snr: 230
noise: 380
frame_num: 1596
point_id: 34
x: -0.283375680447
y: 2.04852962494
z: 0.928729474545
doppler_bin: 49
target_idx: 4
posX: -0.0819208398461
posY: 1.68399488926
posZ: 0.675434410572
velX: 0.121121779084
velY: 0.128503143787
velZ: 0.290992617607
accX: 0.0
accY: 0.0
accZ: 0.0
---
header: 
  seq: 22896
  stamp: 
    secs: 1596613580
    nsecs: 204568779
  frame_id: "node1_radarinterface_radarscan"
range: 2.34517812729
angle: -0.138019666076
elev: 0.430996567011
doppler: 1.351552248
snr: 239
noise: 381
frame_num: 1596
point_id: 35
x: -0.293147265911
y: 2.1104490757
z: 0.979760169983
doppler_bin: 49
target_idx: 4
posX: -0.0819208398461
posY: 1.68399488926
posZ: 0.675434410572
velX: 0.121121779084
velY: 0.128503143787
velZ: 0.290992617607
accX: 0.0
accY: 0.0
accZ: 0.0
---
header: 
  seq: 22897
  stamp: 
    secs: 1596613580
    nsecs: 204588353
  frame_id: "node1_radarinterface_radarscan"
