header: 
  seq: 22726
  stamp: 
    secs: 1596523258
    nsecs: 640937713
  frame_id: "node1_radarinterface_radarscan"
range: 1.87614250183
angle: -0.356063038111
elev: 0.166781142354
doppler: 0.0
snr: 156
noise: 394
frame_num: 4177
point_id: 1
x: -0.644923985004
y: 1.73406410217
z: 0.311456590891
doppler_bin: 32
target_idx: 10
posX: -0.608437955379
posY: 1.77025222778
posZ: 0.327953636646
velX: -0.174838110805
velY: 0.0375095456839
velZ: -0.293895542622
accX: 0.0
accY: 0.0
accZ: 0.0
---
header: 
  seq: 22727
  stamp: 
    secs: 1596523258
    nsecs: 641049929
  frame_id: "node1_radarinterface_radarscan"
range: 1.71979725361
angle: -0.289214998484
elev: 0.166623517871
doppler: 0.0795030742884
snr: 151
noise: 426
frame_num: 4177
point_id: 4
x: -0.483693003654
y: 1.62554144859
z: 0.285234540701
doppler_bin: 33
target_idx: 10
posX: -0.608437955379
posY: 1.77025222778
posZ: 0.327953636646
velX: -0.174838110805
velY: 0.0375095456839
velZ: -0.293895542622
accX: 0.0
accY: 0.0
accZ: 0.0
---
header: 
  seq: 22728
  stamp: 
    secs: 1596523258
    nsecs: 641072477
  frame_id: "node1_radarinterface_radarscan"
range: 1.79796981812
angle: -0.351213663816
elev: 0.0408951453865
doppler: 0.0795030742884
snr: 198
noise: 426
frame_num: 4177
point_id: 5
x: -0.618052124977
y: 1.68680286407
z: 0.0735077410936
doppler_bin: 33
target_idx: 10
posX: -0.608437955379
posY: 1.77025222778
posZ: 0.327953636646
velX: -0.174838110805
velY: 0.0375095456839
velZ: -0.293895542622
accX: 0.0
accY: 0.0
accZ: 0.0
---
header: 
  seq: 22729
  stamp: 
    secs: 1596523258
    nsecs: 641086737
  frame_id: "node1_radarinterface_radarscan"
range: 1.95431506634
angle: -0.390788733959
elev: 0.176499351859
doppler: 0.0795030742884
snr: 242
noise: 404
frame_num: 4177
point_id: 7
x: -0.732868134975
y: 1.77890455723
z: 0.343147218227
doppler_bin: 33
target_idx: 10
posX: -0.608437955379
posY: 1.77025222778
posZ: 0.327953636646
velX: -0.174838110805
velY: 0.0375095456839
velZ: -0.293895542622
accX: 0.0
accY: 0.0
accZ: 0.0
---
header: 
  seq: 22730
  stamp: 
    secs: 1596523258
    nsecs: 641100369
  frame_id: "node1_radarinterface_radarscan"
range: 2.03248763084
angle: -0.406362324953
elev: 0.321642756462
doppler: 0.0795030742884
snr: 184
noise: 411
frame_num: 4177
point_id: 8
x: -0.762182891369
y: 1.77122843266
z: 0.64252114296
doppler_bin: 33
target_idx: 10
posX: -0.608437955379
posY: 1.77025222778
posZ: 0.327953636646
velX: -0.174838110805
velY: 0.0375095456839
velZ: -0.293895542622
accX: 0.0
accY: 0.0
accZ: 0.0
---
header: 
  seq: 22731
  stamp: 
    secs: 1596523258
    nsecs: 641114153
  frame_id: "node1_radarinterface_radarscan"
range: 1.87614250183
angle: -0.384490221739
elev: -0.0214936174452
doppler: -0.0795030742884
snr: 222
noise: 408
frame_num: 4177
point_id: 13
x: -0.703553438187
y: 1.73876321316
z: -0.040321983397
doppler_bin: 31
target_idx: 10
posX: -0.608437955379
posY: 1.77025222778
posZ: 0.327953636646
velX: -0.174838110805
velY: 0.0375095456839
velZ: -0.293895542622
accX: 0.0
accY: 0.0
accZ: 0.0
---
header: 
  seq: 22732
  stamp: 
    secs: 1596523258
    nsecs: 641127315
  frame_id: "node1_radarinterface_radarscan"
range: 2.03248763084
angle: -0.412282139063
elev: 0.360106676817
doppler: -0.0795030742884
snr: 150
noise: 413
frame_num: 4177
point_id: 15
x: -0.762182891369
y: 1.74274122715
z: 0.716195940971
doppler_bin: 31
target_idx: 10
posX: -0.608437955379
posY: 1.77025222778
posZ: 0.327953636646
velX: -0.174838110805
velY: 0.0375095456839
velZ: -0.293895542622
accX: 0.0
accY: 0.0
accZ: 0.0
---
header: 
  seq: 22733
  stamp: 
    secs: 1596523258
    nsecs: 730494223
  frame_id: "node1_radarinterface_radarscan"
range: 1.79796981812
angle: -0.38456389308
elev: -0.0287392698228
doppler: 0.0795030742884
snr: 129
noise: 487
frame_num: 4178
point_id: 3
x: -0.674238681793
y: 1.6659617424
z: -0.0516652278602
doppler_bin: 33
target_idx: 10
posX: -0.623882830143
posY: 1.77122926712
posZ: 0.271276593208
velX: -0.189099520445
velY: 0.0198917649686
velZ: -0.397165089846
accX: 0.0
accY: 0.0
accZ: 0.0
---
header: 
  seq: 22734
  stamp: 
    secs: 1596523258
    nsecs: 730558911
  frame_id: "node1_radarinterface_radarscan"
range: 1.87614250183
angle: -0.103248275816
elev: 0.428426027298
doppler: -0.0795030742884
snr: 135
noise: 460
frame_num: 4178
point_id: 13
x: -0.175888359547
y: 1.69748997688
z: 0.779423892498
doppler_bin: 31
target_idx: 10
posX: -0.623882830143
posY: 1.77122926712
posZ: 0.271276593208
velX: -0.189099520445
velY: 0.0198917649686
velZ: -0.397165089846
accX: 0.0
accY: 0.0
accZ: 0.0
---
header: 
  seq: 22735
  stamp: 
    secs: 1596523258
    nsecs: 835279498
  frame_id: "node1_radarinterface_radarscan"
range: 1.71979725361
angle: -0.286843001842
elev: 0.108888812363
doppler: -0.0795030742884
snr: 114
noise: 453
frame_num: 4179
point_id: 13
x: -0.48369294405
y: 1.6397601366
z: 0.186896830797
doppler_bin: 31
target_idx: 10
posX: -0.600829124451
posY: 1.77909243107
posZ: 0.221093043685
velX: -0.0608826577663
velY: 0.0121635552496
velZ: -0.461375683546
accX: 0.0
accY: 0.0
accZ: 0.0
---
header: 
  seq: 22736
  stamp: 
    secs: 1596523258
    nsecs: 835352267
  frame_id: "node1_radarinterface_radarscan"
range: 1.87614250183
angle: -0.285292059183
elev: 0.0365272164345
doppler: -0.0795030742884
snr: 184
noise: 456
frame_num: 4179
point_id: 15
x: -0.52766507864
y: 1.79910695553
z: 0.0685150250793
doppler_bin: 31
target_idx: 10
posX: -0.600829124451
posY: 1.77909243107
posZ: 0.221093043685
velX: -0.0608826577663
velY: 0.0121635552496
velZ: -0.461375683546
accX: 0.0
accY: 0.0
accZ: 0.0
---
header: 
  seq: 22737
  stamp: 
    secs: 1596523258
    nsecs: 940277486
  frame_id: "node1_radarinterface_radarscan"
range: 1.87614250183
angle: -0.386982768774
elev: 0.112743489444
doppler: 0.0795030742884
snr: 175
noise: 457
frame_num: 4180
point_id: 1
x: -0.703553438187
y: 1.72637498379
z: 0.211075022817
doppler_bin: 33
target_idx: 10
posX: -0.653003156185
posY: 1.75914168358
posZ: 0.189395144582
velX: -0.210279077291
velY: -0.0554227977991
velZ: -0.463440090418
accX: 0.0
accY: 0.0
accZ: 0.0
---
header: 
  seq: 22738
  stamp: 
    secs: 1596523259
    nsecs:  30480712
  frame_id: "node1_radarinterface_radarscan"
range: 1.95431506634
angle: -0.156923726201
elev: -0.0197505503893
doppler: 0.0795030742884
snr: 133
noise: 480
frame_num: 4181
point_id: 5
x: -0.305361717939
y: 1.92992544174
z: -0.0385962873697
doppler_bin: 33
target_idx: 10
posX: -0.615472137928
posY: 1.77508473396
posZ: 0.172580212355
velX: -0.0581792742014
velY: 0.0031687989831
velZ: -0.423415541649
accX: 0.0
accY: 0.0
accZ: 0.0
---
header: 
  seq: 22739
  stamp: 
    secs: 1596523259
    nsecs:  30593407
  frame_id: "node1_radarinterface_radarscan"
range: 1.79796981812
angle: -0.424487411976
elev: 0.165149062872
doppler: -0.0795030742884
snr: 136
noise: 447
frame_num: 4181
point_id: 9
x: -0.730425238609
y: 1.61610770226
z: 0.295585095882
doppler_bin: 31
target_idx: 10
posX: -0.615472137928
posY: 1.77508473396
posZ: 0.172580212355
velX: -0.0581792742014
velY: 0.0031687989831
velZ: -0.423415541649
accX: 0.0
accY: 0.0
accZ: 0.0
---
header: 
  seq: 22740
  stamp: 
    secs: 1596523259
    nsecs:  30614684
  frame_id: "node1_radarinterface_radarscan"
range: 1.95431506634
angle: -0.446178019047
elev: 0.343927353621
doppler: -0.0795030742884
snr: 154
noise: 444
frame_num: 4181
point_id: 11
x: -0.793940484524
y: 1.65974831581
z: 0.658969700336
doppler_bin: 31
target_idx: 10
posX: -0.615472137928
posY: 1.77508473396
posZ: 0.172580212355
velX: -0.0581792742014
velY: 0.0031687989831
velZ: -0.423415541649
accX: 0.0
accY: 0.0
accZ: 0.0
---
header: 
  seq: 22741
  stamp: 
    secs: 1596523259
    nsecs: 135155816
  frame_id: "node1_radarinterface_radarscan"
range: 1.87614250183
angle: -0.350963413715
elev: 0.0175006259233
doppler: 0.0795030742884
snr: 125
noise: 504
frame_num: 4182
point_id: 7
x: -0.644923985004
y: 1.76150667667
z: 0.032831992954
doppler_bin: 33
target_idx: 10
posX: -0.643415033817
posY: 1.76329493523
posZ: 0.0793130397797
velX: -0.116024337709
velY: -0.0515087917447
velZ: -0.575420439243
accX: 0.0
accY: 0.0
accZ: 0.0
---
header: 
  seq: 22742
  stamp: 
    secs: 1596523259
    nsecs: 135239017
  frame_id: "node1_radarinterface_radarscan"
range: 1.71979725361
angle: -0.350936055183
elev: 0.0125242946669
doppler: -0.0795030742884
snr: 119
noise: 439
frame_num: 4182
point_id: 22
x: -0.591180324554
y: 1.61485123634
z: 0.0215386841446
doppler_bin: 31
target_idx: 10
posX: -0.643415033817
posY: 1.76329493523
posZ: 0.0793130397797
velX: -0.116024337709
velY: -0.0515087917447
velZ: -0.575420439243
accX: 0.0
accY: 0.0
accZ: 0.0
---
header: 
  seq: 22743
  stamp: 
    secs: 1596523259
    nsecs: 135255204
  frame_id: "node1_radarinterface_radarscan"
range: 1.79796981812
angle: -0.351298570633
elev: -0.0462114997208
doppler: -0.0795030742884
snr: 170
noise: 442
frame_num: 4182
point_id: 23
x: -0.618052124977
y: 1.68635964394
z: -0.0830573141575
doppler_bin: 31
target_idx: 10
posX: -0.643415033817
posY: 1.76329493523
posZ: 0.0793130397797
velX: -0.116024337709
velY: -0.0515087917447
velZ: -0.575420439243
accX: 0.0
accY: 0.0
accZ: 0.0
---
header: 
  seq: 22744
  stamp: 
    secs: 1596523259
    nsecs: 135268680
  frame_id: "node1_radarinterface_radarscan"
range: 1.95431506634
angle: -0.418371677399
elev: 0.0106661822647
doppler: -0.0795030742884
snr: 124
noise: 447
frame_num: 4182
point_id: 25
x: -0.793940484524
y: 1.78565704823
z: 0.0208446849138
doppler_bin: 31
target_idx: 10
posX: -0.643415033817
posY: 1.76329493523
posZ: 0.0793130397797
velX: -0.116024337709
velY: -0.0515087917447
velZ: -0.575420439243
accX: 0.0
accY: 0.0
accZ: 0.0
---
header: 
  seq: 22745
  stamp: 
    secs: 1596523259
    nsecs: 233493897
  frame_id: "node1_radarinterface_radarscan"
range: 1.95431506634
angle: -0.389812320471
elev: 0.162637576461
doppler: -0.0795030742884
snr: 120
noise: 470
frame_num: 4183
point_id: 18
x: -0.732868134975
y: 1.78384804726
z: 0.316445708275
doppler_bin: 31
target_idx: 10
posX: -0.676198482513
posY: 1.75356543064
posZ: 0.069359973073
velX: -0.186600804329
velY: -0.0696044191718
velZ: -0.501925826073
accX: 0.0
accY: 0.0
accZ: 0.0
---
header: 
  seq: 22746
  stamp: 
    secs: 1596523259
    nsecs: 333444036
  frame_id: "node1_radarinterface_radarscan"
range: 1.79796981812
angle: -0.35256049037
elev: 0.0948450341821
doppler: 0.159006148577
snr: 157
noise: 426
frame_num: 4184
point_id: 17
x: -0.618052124977
y: 1.67979586124
z: 0.170272961259
doppler_bin: 34
target_idx: 10
posX: -0.65374571085
posY: 1.75684785843
posZ: 0.0204270221293
velX: -0.0906959995627
velY: -0.0424946807325
velZ: -0.52849894762
accX: 0.0
accY: 0.0
accZ: 0.0
---
header: 
  seq: 22747
  stamp: 
    secs: 1596523259
    nsecs: 333491143
  frame_id: "node1_radarinterface_radarscan"
range: 2.18883275986
angle: -0.436974048615
elev: -0.283978044987
doppler: -0.238509222865
snr: 144
noise: 402
frame_num: 4184
point_id: 18
x: -0.889213323593
y: 1.9037334919
z: -0.613259673119
doppler_bin: 29
target_idx: 10
posX: -0.65374571085
posY: 1.75684785843
posZ: 0.0204270221293
velX: -0.0906959995627
velY: -0.0424946807325
velZ: -0.52849894762
accX: 0.0
accY: 0.0
accZ: 0.0
---
header: 
  seq: 22748
  stamp: 
    secs: 1596523259
    nsecs: 333508637
  frame_id: "node1_radarinterface_radarscan"
range: 1.79796981812
angle: -0.318340688944
elev: 0.0560228899121
doppler: -0.0795030742884
snr: 173
noise: 483
frame_num: 4184
point_id: 25
x: -0.561865627766
y: 1.70495378971
z: 0.100674785674
doppler_bin: 31
target_idx: 10
posX: -0.65374571085
posY: 1.75684785843
posZ: 0.0204270221293
velX: -0.0906959995627
velY: -0.0424946807325
velZ: -0.52849894762
accX: 0.0
accY: 0.0
accZ: 0.0
---
header: 
  seq: 22749
  stamp: 
    secs: 1596523259
    nsecs: 435981423
  frame_id: "node1_radarinterface_radarscan"
range: 1.79796981812
angle: -0.296245485544
elev: 0.271344006062
doppler: 0.159006148577
snr: 153
noise: 427
frame_num: 4185
point_id: 17
x: -0.505679011345
y: 1.65672969818
z: 0.481903582811
doppler_bin: 34
target_idx: 10
posX: -0.597542345524
posY: 1.78172266483
posZ: 0.164897784591
velX: 0.0698254182935
velY: 0.0966996401548
velZ: -0.109635025263
accX: 0.0
accY: 0.0
accZ: 0.0
---
header: 
  seq: 22750
  stamp: 
    secs: 1596523259
    nsecs: 436162231
  frame_id: "node1_radarinterface_radarscan"
range: 1.87614250183
angle: -0.295795559883
elev: 0.265985608101
doppler: 0.159006148577
snr: 154
noise: 424
frame_num: 4185
point_id: 18
x: -0.52766507864
y: 1.73155140877
z: 0.493163466454
doppler_bin: 34
target_idx: 10
posX: -0.597542345524
posY: 1.78172266483
posZ: 0.164897784591
velX: 0.0698254182935
velY: 0.0966996401548
velZ: -0.109635025263
accX: 0.0
accY: 0.0
accZ: 0.0
---
header: 
  seq: 22751
  stamp: 
    secs: 1596523259
    nsecs: 436263863
  frame_id: "node1_radarinterface_radarscan"
range: 1.71979725361
angle: -0.289568632841
elev: 0.173539102077
doppler: -0.0795030742884
snr: 119
noise: 476
frame_num: 4185
point_id: 25
x: -0.483693003654
y: 1.62344098091
z: 0.296956300735
doppler_bin: 31
target_idx: 10
posX: -0.597542345524
posY: 1.78172266483
posZ: 0.164897784591
velX: 0.0698254182935
velY: 0.0966996401548
velZ: -0.109635025263
accX: 0.0
accY: 0.0
accZ: 0.0
---
header: 
  seq: 22752
  stamp: 
    secs: 1596523259
    nsecs: 436301771
  frame_id: "node1_radarinterface_radarscan"
range: 1.87614250183
angle: -0.290608584881
elev: 0.192367598414
doppler: -0.0795030742884
snr: 170
noise: 486
frame_num: 4185
point_id: 27
x: -0.52766507864
y: 1.76431965828
z: 0.358687222004
doppler_bin: 31
target_idx: 10
posX: -0.597542345524
posY: 1.78172266483
posZ: 0.164897784591
velX: 0.0698254182935
velY: 0.0966996401548
velZ: -0.109635025263
accX: 0.0
accY: 0.0
accZ: 0.0
---
header: 
  seq: 22753
  stamp: 
    secs: 1596523259
    nsecs: 535506567
  frame_id: "node1_radarinterface_radarscan"
range: 1.87614250183
angle: -0.225244596601
elev: 0.20319224894
doppler: 0.0
snr: 115
noise: 427
frame_num: 4186
point_id: 2
x: -0.410406172276
y: 1.79112803936
z: 0.378599792719
doppler_bin: 32
target_idx: 10
posX: -0.524921178818
posY: 1.80685937405
posZ: 0.250461369753
velX: 0.277437180281
velY: 0.170324414968
velZ: 0.13507129252
accX: 0.0
accY: 0.0
accZ: 0.0
---
header: 
  seq: 22754
  stamp: 
    secs: 1596523259
    nsecs: 535569048
  frame_id: "node1_radarinterface_radarscan"
range: 1.79796981812
angle: -0.261050492525
elev: 0.251125633717
doppler: 0.0795030742884
snr: 190
noise: 474
frame_num: 4186
point_id: 7
x: -0.449492424726
y: 1.68256783485
z: 0.446785509586
doppler_bin: 33
target_idx: 10
posX: -0.524921178818
posY: 1.80685937405
posZ: 0.250461369753
velX: 0.277437180281
velY: 0.170324414968
velZ: 0.13507129252
accX: 0.0
accY: 0.0
accZ: 0.0
---
header: 
  seq: 22755
  stamp: 
    secs: 1596523259
    nsecs: 535582060
  frame_id: "node1_radarinterface_radarscan"
range: 1.87614250183
angle: -0.227945789695
elev: 0.253585278988
doppler: 0.0795030742884
snr: 203
noise: 462
frame_num: 4186
point_id: 8
x: -0.410406172276
y: 1.76916313171
z: 0.470679461956
doppler_bin: 33
target_idx: 10
posX: -0.524921178818
posY: 1.80685937405
posZ: 0.250461369753
velX: 0.277437180281
velY: 0.170324414968
velZ: 0.13507129252
accX: 0.0
accY: 0.0
accZ: 0.0
---
header: 
  seq: 22756
  stamp: 
    secs: 1596523259
    nsecs: 535619752
  frame_id: "node1_radarinterface_radarscan"
range: 1.87614250183
angle: -0.228544741869
elev: 0.263338208199
doppler: 0.159006148577
snr: 173
noise: 405
frame_num: 4186
point_id: 13
x: -0.410406172276
y: 1.76436185837
z: 0.488369494677
doppler_bin: 34
target_idx: 10
posX: -0.524921178818
posY: 1.80685937405
posZ: 0.250461369753
velX: 0.277437180281
velY: 0.170324414968
velZ: 0.13507129252
accX: 0.0
accY: 0.0
accZ: 0.0
---
header: 
  seq: 22757
  stamp: 
    secs: 1596523259
    nsecs: 535635021
  frame_id: "node1_radarinterface_radarscan"
range: 1.79796981812
angle: -0.258561223745
elev: 0.211357444525
doppler: -0.0795030742884
snr: 155
noise: 497
frame_num: 4186
point_id: 19
x: -0.449492484331
y: 1.69952309132
z: 0.377191275358
doppler_bin: 31
target_idx: 10
posX: -0.524921178818
posY: 1.80685937405
posZ: 0.250461369753
velX: 0.277437180281
velY: 0.170324414968
velZ: 0.13507129252
accX: 0.0
accY: 0.0
accZ: 0.0
---
header: 
  seq: 22758
  stamp: 
    secs: 1596523259
    nsecs: 535654522
  frame_id: "node1_radarinterface_radarscan"
range: 1.87614250183
angle: -0.226312622428
elev: 0.224597528577
doppler: -0.0795030742884
snr: 167
noise: 482
frame_num: 4186
point_id: 20
x: -0.410406172276
y: 1.78238165379
z: 0.417843222618
doppler_bin: 31
target_idx: 10
posX: -0.524921178818
posY: 1.80685937405
posZ: 0.250461369753
velX: 0.277437180281
velY: 0.170324414968
velZ: 0.13507129252
accX: 0.0
accY: 0.0
accZ: 0.0
---
header: 
  seq: 22759
  stamp: 
    secs: 1596523259
    nsecs: 835480170
  frame_id: "node1_radarinterface_radarscan"
range: 1.79796981812
angle: -0.351174801588
elev: 0.0382143072784
doppler: 0.0795030742884
snr: 132
noise: 480
frame_num: 4189
point_id: 8
x: -0.618052124977
y: 1.68700587749
z: 0.0686914473772
doppler_bin: 33
target_idx: 10
posX: -0.548906624317
posY: 1.80315756798
posZ: 0.195795789361
velX: 0.154873177409
velY: 0.152506798506
velZ: 0.0212581306696
accX: 0.0
accY: 0.0
accZ: 0.0
---
header: 
  seq: 22760
  stamp: 
    secs: 1596523259
    nsecs: 835535742
  frame_id: "node1_radarinterface_radarscan"
range: 1.79796981812
angle: -0.350912749767
elev: -0.00543617783114
doppler: -0.0795030742884
snr: 164
noise: 460
frame_num: 4189
point_id: 19
x: -0.618052124977
y: 1.68837535381
z: -0.00977403577417
doppler_bin: 31
target_idx: 10
posX: -0.548906624317
posY: 1.80315756798
posZ: 0.195795789361
velX: 0.154873177409
velY: 0.152506798506
velZ: 0.0212581306696
accX: 0.0
accY: 0.0
accZ: 0.0
---
header: 
  seq: 22761
  stamp: 
    secs: 1596523259
    nsecs: 835575507
  frame_id: "node1_radarinterface_radarscan"
range: 1.87614250183
angle: -0.384764403105
elev: -0.0426159203053
doppler: -0.0795030742884
snr: 172
noise: 453
frame_num: 4189
point_id: 20
x: -0.703553438187
y: 1.73739302158
z: -0.0799293443561
doppler_bin: 31
target_idx: 10
posX: -0.548906624317
posY: 1.80315756798
posZ: 0.195795789361
velX: 0.154873177409
velY: 0.152506798506
velZ: 0.0212581306696
accX: 0.0
accY: 0.0
accZ: 0.0
---
header: 
  seq: 22762
  stamp: 
    secs: 1596523260
    nsecs: 233732517
  frame_id: "node1_radarinterface_radarscan"
range: 1.71979725361
angle: -0.294624507427
elev: 0.251434355974
doppler: 0.0795030742884
snr: 120
noise: 463
frame_num: 4193
point_id: 5
x: -0.483692973852
y: 1.59394705296
z: 0.427874326706
doppler_bin: 33
target_idx: 10
posX: -0.543459355831
posY: 1.79314148426
posZ: 0.35076969862
velX: 0.120834767818
velY: 0.0817176401615
velZ: 0.446376383305
accX: 0.0
accY: 0.0
accZ: 0.0
---
header: 
  seq: 22763
  stamp: 
    secs: 1596523260
    nsecs: 233806560
  frame_id: "node1_radarinterface_radarscan"
range: 1.95431506634
angle: -0.328321963549
elev: 0.249130159616
doppler: 0.0795030742884
snr: 114
noise: 466
frame_num: 4193
point_id: 8
x: -0.610723495483
y: 1.79281258583
z: 0.48185801506
doppler_bin: 33
target_idx: 10
posX: -0.543459355831
posY: 1.79314148426
posZ: 0.35076969862
velX: 0.120834767818
velY: 0.0817176401615
velZ: 0.446376383305
accX: 0.0
accY: 0.0
accZ: 0.0
---
header: 
  seq: 22764
  stamp: 
    secs: 1596523260
    nsecs: 233818238
  frame_id: "node1_radarinterface_radarscan"
range: 1.87614250183
angle: -0.258599728346
elev: 0.212034747005
doppler: -0.159006148577
snr: 153
noise: 400
frame_num: 4193
point_id: 13
x: -0.46903565526
y: 1.77313923836
z: 0.394833266735
doppler_bin: 30
target_idx: 10
posX: -0.543459355831
posY: 1.79314148426
posZ: 0.35076969862
velX: 0.120834767818
velY: 0.0817176401615
velZ: 0.446376383305
accX: 0.0
accY: 0.0
accZ: 0.0
---
header: 
  seq: 22765
  stamp: 
    secs: 1596523260
    nsecs: 233835867
  frame_id: "node1_radarinterface_radarscan"
range: 1.79796981812
angle: -0.292513221502
elev: 0.222518905997
doppler: -0.0795030742884
snr: 205
noise: 440
frame_num: 4193
point_id: 18
x: -0.505679011345
y: 1.67914950848
z: 0.396788775921
doppler_bin: 31
target_idx: 10
posX: -0.543459355831
posY: 1.79314148426
posZ: 0.35076969862
velX: 0.120834767818
velY: 0.0817176401615
velZ: 0.446376383305
accX: 0.0
accY: 0.0
accZ: 0.0
---
header: 
  seq: 22766
  stamp: 
    secs: 1596523260
    nsecs: 233923997
  frame_id: "node1_radarinterface_radarscan"
range: 1.95431506634
angle: -0.293645322323
elev: 0.238503903151
doppler: -0.0795030742884
snr: 134
noise: 453
frame_num: 4193
point_id: 20
x: -0.549651145935
y: 1.81770718098
z: 0.461705267429
doppler_bin: 31
target_idx: 10
posX: -0.543459355831
posY: 1.79314148426
posZ: 0.35076969862
velX: 0.120834767818
velY: 0.0817176401615
velZ: 0.446376383305
accX: 0.0
accY: 0.0
accZ: 0.0
---
header: 
  seq: 22767
  stamp: 
    secs: 1596523260
    nsecs: 333908930
  frame_id: "node1_radarinterface_radarscan"
range: 1.87614250183
angle: -0.320748567581
elev: 0.132824882865
doppler: -0.159006148577
snr: 180
noise: 398
frame_num: 4194
point_id: 18
x: -0.586294531822
y: 1.76477587223
z: 0.248466312885
doppler_bin: 30
target_idx: 10
posX: -0.556896150112
posY: 1.77312886715
posZ: 0.331294834614
velX: 0.0593936368823
velY: -0.023813508451
velZ: 0.322868049145
accX: 0.0
accY: 0.0
accZ: 0.0
---
header: 
  seq: 22768
  stamp: 
    secs: 1596523260
    nsecs: 333997393
  frame_id: "node1_radarinterface_radarscan"
range: 1.95431506634
angle: -0.290443003178
elev: 0.189502805471
doppler: -0.0795030742884
snr: 159
noise: 446
frame_num: 4194
point_id: 27
x: -0.54965108633
y: 1.83894193172
z: 0.368135541677
doppler_bin: 31
target_idx: 10
posX: -0.556896150112
posY: 1.77312886715
posZ: 0.331294834614
velX: 0.0593936368823
velY: -0.023813508451
velZ: 0.322868049145
accX: 0.0
accY: 0.0
accZ: 0.0
---
header: 
  seq: 22769
  stamp: 
    secs: 1596523260
    nsecs: 334011383
  frame_id: "node1_radarinterface_radarscan"
range: 2.03248763084
angle: -0.318940460682
elev: 0.457961320877
doppler: -0.0795030742884
snr: 140
noise: 448
frame_num: 4194
point_id: 28
x: -0.571637153625
y: 1.73111152649
z: 0.898604273796
doppler_bin: 31
target_idx: 10
posX: -0.556896150112
posY: 1.77312886715
posZ: 0.331294834614
velX: 0.0593936368823
velY: -0.023813508451
velZ: 0.322868049145
accX: 0.0
accY: 0.0
accZ: 0.0
---
header: 
  seq: 22770
  stamp: 
    secs: 1596523260
    nsecs: 433790678
  frame_id: "node1_radarinterface_radarscan"
range: 1.71979725361
angle: -0.292070537806
elev: 0.215915888548
doppler: 0.0
snr: 118
noise: 429
frame_num: 4195
point_id: 3
x: -0.48369294405
y: 1.6087218523
z: 0.36845305562
doppler_bin: 32
target_idx: 10
posX: -0.547550141811
posY: 1.74895715714
posZ: 0.361570447683
velX: 0.0675495713949
velY: -0.087190233171
velZ: 0.379814118147
accX: 0.0
accY: 0.0
accZ: 0.0
---
header: 
  seq: 22771
  stamp: 
    secs: 1596523260
    nsecs: 433858118
  frame_id: "node1_radarinterface_radarscan"
range: 1.79796981812
angle: -0.323908299208
elev: 0.190771222115
doppler: 0.0795030742884
snr: 230
noise: 462
frame_num: 4195
point_id: 8
x: -0.561865568161
y: 1.67355108261
z: 0.340924173594
doppler_bin: 33
target_idx: 10
posX: -0.547550141811
posY: 1.74895715714
posZ: 0.361570447683
velX: 0.0675495713949
velY: -0.087190233171
velZ: 0.379814118147
accX: 0.0
accY: 0.0
accZ: 0.0
---
header: 
  seq: 22772
  stamp: 
    secs: 1596523260
    nsecs: 433872778
  frame_id: "node1_radarinterface_radarscan"
range: 1.71979725361
angle: -0.289136201143
elev: 0.165041342378
doppler: -0.159006148577
snr: 165
noise: 420
frame_num: 4195
point_id: 13
x: -0.483692973852
y: 1.62601006031
z: 0.28255084157
doppler_bin: 30
target_idx: 10
posX: -0.547550141811
posY: 1.74895715714
posZ: 0.361570447683
velX: 0.0675495713949
velY: -0.087190233171
velZ: 0.379814118147
accX: 0.0
accY: 0.0
accZ: 0.0
---
header: 
  seq: 22773
  stamp: 
    secs: 1596523260
    nsecs: 433887412
  frame_id: "node1_radarinterface_radarscan"
range: 1.79796981812
angle: -0.321958303452
elev: 0.15766710043
doppler: -0.159006148577
snr: 209
noise: 414
frame_num: 4195
point_id: 14
x: -0.561865568161
y: 1.68443012238
z: 0.282307654619
doppler_bin: 30
target_idx: 10
posX: -0.547550141811
posY: 1.74895715714
posZ: 0.361570447683
velX: 0.0675495713949
velY: -0.087190233171
velZ: 0.379814118147
accX: 0.0
accY: 0.0
accZ: 0.0
---
header: 
  seq: 22774
  stamp: 
    secs: 1596523260
    nsecs: 433906746
  frame_id: "node1_radarinterface_radarscan"
range: 1.71979725361
angle: -0.289658874273
elev: 0.175257995725
doppler: -0.0795030742884
snr: 195
noise: 475
frame_num: 4195
point_id: 21
x: -0.483692973852
y: 1.6229057312
z: 0.299867600203
doppler_bin: 31
target_idx: 10
posX: -0.547550141811
posY: 1.74895715714
posZ: 0.361570447683
velX: 0.0675495713949
velY: -0.087190233171
velZ: 0.379814118147
accX: 0.0
accY: 0.0
accZ: 0.0
---
header: 
  seq: 22775
  stamp: 
    secs: 1596523260
    nsecs: 433971489
  frame_id: "node1_radarinterface_radarscan"
range: 1.79796981812
angle: -0.322647631168
elev: 0.170147463679
doppler: -0.0795030742884
snr: 243
noise: 467
frame_num: 4195
point_id: 22
x: -0.561865568161
y: 1.68056988716
z: 0.304446071386
doppler_bin: 31
target_idx: 10
posX: -0.547550141811
posY: 1.74895715714
posZ: 0.361570447683
velX: 0.0675495713949
velY: -0.087190233171
velZ: 0.379814118147
accX: 0.0
accY: 0.0
accZ: 0.0
---
header: 
  seq: 22776
  stamp: 
    secs: 1596523260
    nsecs: 533889906
  frame_id: "node1_radarinterface_radarscan"
range: 1.87614250183
angle: -0.382970035076
elev: 0.402939945459
doppler: 0.0
snr: 114
noise: 422
frame_num: 4196
point_id: 5
x: -0.644923985004
y: 1.60086107254
z: 0.735681474209
doppler_bin: 32
target_idx: 10
posX: -0.590011656284
posY: 1.69086134434
posZ: 0.517343878746
velX: -0.110334157944
velY: -0.26905554533
velZ: 0.754600524902
accX: 0.0
accY: 0.0
accZ: 0.0
---
header: 
  seq: 22777
  stamp: 
    secs: 1596523260
    nsecs: 534040431
  frame_id: "node1_radarinterface_radarscan"
range: 1.79796981812
angle: -0.34184139967
elev: 0.370306015015
doppler: -0.159006148577
snr: 142
noise: 422
frame_num: 4196
point_id: 16
x: -0.561865568161
y: 1.57911670208
z: 0.650686562061
doppler_bin: 30
target_idx: 10
posX: -0.590011656284
posY: 1.69086134434
posZ: 0.517343878746
velX: -0.110334157944
velY: -0.26905554533
velZ: 0.754600524902
accX: 0.0
accY: 0.0
accZ: 0.0
---
header: 
  seq: 22778
  stamp: 
    secs: 1596523260
    nsecs: 534147518
  frame_id: "node1_radarinterface_radarscan"
range: 1.71979725361
angle: -0.33249232173
elev: 0.292885988951
doppler: -0.0795030742884
snr: 117
noise: 493
frame_num: 4196
point_id: 22
x: -0.5374366045
y: 1.55637991428
z: 0.496533870697
doppler_bin: 31
target_idx: 10
posX: -0.590011656284
posY: 1.69086134434
posZ: 0.517343878746
velX: -0.110334157944
velY: -0.26905554533
velZ: 0.754600524902
accX: 0.0
accY: 0.0
accZ: 0.0
---
header: 
  seq: 22779
  stamp: 
    secs: 1596523260
    nsecs: 635276141
  frame_id: "node1_radarinterface_radarscan"
range: 1.79796981812
angle: -0.263893783092
elev: 0.289325743914
doppler: 0.0
snr: 162
noise: 429
frame_num: 4197
point_id: 3
x: -0.449492454529
y: 1.66358399391
z: 0.512971699238
doppler_bin: 32
target_idx: 10
posX: -0.565151274204
posY: 1.68065404892
posZ: 0.564588367939
velX: 0.00603964924812
velY: -0.273416131735
velZ: 0.730333089828
accX: 0.0
accY: 0.0
accZ: 0.0
---
header: 
  seq: 22780
  stamp: 
    secs: 1596523260
    nsecs: 635384511
  frame_id: "node1_radarinterface_radarscan"
range: 1.95431506634
angle: -0.337629675865
elev: 0.338084042072
doppler: 0.0
snr: 158
noise: 415
frame_num: 4197
point_id: 5
x: -0.610723435879
y: 1.73959505558
z: 0.648207604885
doppler_bin: 32
target_idx: 10
posX: -0.565151274204
posY: 1.68065404892
posZ: 0.564588367939
velX: 0.00603964924812
velY: -0.273416131735
velZ: 0.730333089828
accX: 0.0
accY: 0.0
accZ: 0.0
---
header: 
  seq: 22781
  stamp: 
    secs: 1596523260
    nsecs: 635400254
  frame_id: "node1_radarinterface_radarscan"
range: 1.95431506634
angle: -0.374758392572
elev: 0.350837260485
doppler: 0.0795030742884
snr: 183
noise: 475
frame_num: 4197
point_id: 13
x: -0.671795785427
y: 1.70789372921
z: 0.671667158604
doppler_bin: 33
target_idx: 10
posX: -0.565151274204
posY: 1.68065404892
posZ: 0.564588367939
velX: 0.00603964924812
velY: -0.273416131735
velZ: 0.730333089828
accX: 0.0
accY: 0.0
accZ: 0.0
---
header: 
  seq: 22782
  stamp: 
    secs: 1596523260
    nsecs: 635414664
  frame_id: "node1_radarinterface_radarscan"
range: 2.03248763084
angle: -0.413363426924
elev: 0.366599291563
doppler: 0.0795030742884
snr: 118
noise: 476
frame_num: 4197
point_id: 14
x: -0.762182891369
y: 1.73762094975
z: 0.728530526161
doppler_bin: 33
target_idx: 10
posX: -0.565151274204
posY: 1.68065404892
posZ: 0.564588367939
velX: 0.00603964924812
velY: -0.273416131735
velZ: 0.730333089828
accX: 0.0
accY: 0.0
accZ: 0.0
---
header: 
  seq: 22783
  stamp: 
    secs: 1596523260
    nsecs: 635429051
  frame_id: "node1_radarinterface_radarscan"
range: 1.71979725361
angle: -0.294067084789
elev: 0.244166612625
doppler: -0.159006148577
snr: 146
noise: 409
frame_num: 4197
point_id: 18
x: -0.48369294405
y: 1.59715044498
z: 0.415757089853
doppler_bin: 30
target_idx: 10
posX: -0.565151274204
posY: 1.68065404892
posZ: 0.564588367939
velX: 0.00603964924812
velY: -0.273416131735
velZ: 0.730333089828
accX: 0.0
accY: 0.0
accZ: 0.0
---
header: 
  seq: 22784
  stamp: 
    secs: 1596523260
    nsecs: 635488305
  frame_id: "node1_radarinterface_radarscan"
range: 1.87614250183
angle: -0.297051489353
elev: 0.280653983355
doppler: -0.159006148577
snr: 221
noise: 403
frame_num: 4197
point_id: 20
x: -0.52766507864
y: 1.7237842083
z: 0.519661664963
doppler_bin: 30
target_idx: 10
posX: -0.565151274204
posY: 1.68065404892
posZ: 0.564588367939
velX: 0.00603964924812
velY: -0.273416131735
velZ: 0.730333089828
accX: 0.0
accY: 0.0
accZ: 0.0
---
header: 
  seq: 22785
  stamp: 
    secs: 1596523260
    nsecs: 635502653
  frame_id: "node1_radarinterface_radarscan"
range: 1.95431506634
angle: -0.334257513285
elev: 0.309300273657
doppler: -0.159006148577
snr: 193
noise: 404
frame_num: 4197
point_id: 21
x: -0.610723435879
y: 1.75854599476
z: 0.594878256321
doppler_bin: 30
target_idx: 10
posX: -0.565151274204
posY: 1.68065404892
posZ: 0.564588367939
velX: 0.00603964924812
velY: -0.273416131735
velZ: 0.730333089828
accX: 0.0
accY: 0.0
accZ: 0.0
---
header: 
  seq: 22786
  stamp: 
    secs: 1596523260
    nsecs: 635516926
  frame_id: "node1_radarinterface_radarscan"
range: 1.71979725361
angle: -0.294105440378
elev: 0.244674399495
doppler: -0.0795030742884
snr: 170
noise: 469
frame_num: 4197
point_id: 27
x: -0.483692973852
y: 1.59692978859
z: 0.416604429483
doppler_bin: 31
target_idx: 10
posX: -0.565151274204
posY: 1.68065404892
posZ: 0.564588367939
velX: 0.00603964924812
velY: -0.273416131735
velZ: 0.730333089828
accX: 0.0
accY: 0.0
accZ: 0.0
---
header: 
  seq: 22787
  stamp: 
    secs: 1596523260
    nsecs: 635529418
  frame_id: "node1_radarinterface_radarscan"
range: 1.87614250183
angle: -0.298093676567
elev: 0.292191982269
doppler: -0.0795030742884
snr: 247
noise: 460
frame_num: 4197
point_id: 29
x: -0.527665138245
y: 1.71738743782
z: 0.540426552296
doppler_bin: 31
target_idx: 10
posX: -0.565151274204
posY: 1.68065404892
posZ: 0.564588367939
velX: 0.00603964924812
velY: -0.273416131735
velZ: 0.730333089828
accX: 0.0
accY: 0.0
accZ: 0.0
---
header: 
  seq: 22788
  stamp: 
    secs: 1596523260
    nsecs: 733474023
  frame_id: "node1_radarinterface_radarscan"
range: 1.87614250183
angle: -0.164339020848
elev: 0.300894916058
doppler: -0.0795030742884
snr: 185
noise: 450
frame_num: 4198
point_id: 18
x: -0.293147265911
y: 1.76770830154
z: 0.556041777134
doppler_bin: 31
target_idx: 10
posX: -0.506831169128
posY: 1.67665231228
posZ: 0.633831679821
velX: 0.224382027984
velY: -0.234127283096
velZ: 0.775327563286
accX: 0.0
accY: 0.0
accZ: 0.0
---
header: 
  seq: 22789
  stamp: 
    secs: 1596523260
    nsecs: 733560917
  frame_id: "node1_radarinterface_radarscan"
range: 2.03248763084
angle: -0.331902772188
elev: 0.287159860134
doppler: -0.0795030742884
snr: 134
noise: 455
frame_num: 4198
point_id: 20
x: -0.63515239954
y: 1.84287881851
z: 0.575660526752
doppler_bin: 31
target_idx: 10
posX: -0.506831169128
posY: 1.67665231228
posZ: 0.633831679821
velX: 0.224382027984
velY: -0.234127283096
velZ: 0.775327563286
accX: 0.0
accY: 0.0
accZ: 0.0
---
header: 
  seq: 22790
  stamp: 
    secs: 1596523260
    nsecs: 836165309
  frame_id: "node1_radarinterface_radarscan"
range: 1.79796981812
angle: -0.226752489805
elev: 0.232795998454
doppler: 0.0
snr: 145
noise: 416
frame_num: 4199
point_id: 3
x: -0.393305897713
y: 1.70468628407
z: 0.414789825678
doppler_bin: 32
target_idx: 10
posX: -0.445619106293
posY: 1.69458138943
posZ: 0.635544896126
velX: 0.405154168606
velY: -0.128157258034
velZ: 0.596200466156
accX: 0.0
accY: 0.0
accZ: 0.0
---
header: 
  seq: 22791
  stamp: 
    secs: 1596523260
    nsecs: 836301470
  frame_id: "node1_radarinterface_radarscan"
range: 1.95431506634
angle: -0.298015981913
elev: 0.291349977255
doppler: 0.0
snr: 132
noise: 412
frame_num: 4199
point_id: 5
x: -0.549651145935
y: 1.78944027424
z: 0.561368346214
doppler_bin: 32
target_idx: 10
posX: -0.445619106293
posY: 1.69458138943
posZ: 0.635544896126
velX: 0.405154168606
velY: -0.128157258034
velZ: 0.596200466156
accX: 0.0
accY: 0.0
accZ: 0.0
---
header: 
  seq: 22792
  stamp: 
    secs: 1596523260
    nsecs: 836375120
  frame_id: "node1_radarinterface_radarscan"
range: 1.79796981812
angle: -0.193596228957
elev: 0.225926369429
doppler: -0.159006148577
snr: 160
noise: 416
frame_num: 4199
point_id: 14
x: -0.337119311094
y: 1.7195430994
z: 0.402761936188
doppler_bin: 30
target_idx: 10
posX: -0.445619106293
posY: 1.69458138943
posZ: 0.635544896126
velX: 0.405154168606
velY: -0.128157258034
velZ: 0.596200466156
accX: 0.0
accY: 0.0
accZ: 0.0
---
header: 
  seq: 22793
  stamp: 
    secs: 1596523260
    nsecs: 836395177
  frame_id: "node1_radarinterface_radarscan"
range: 1.95431506634
angle: -0.265913695097
elev: 0.313284367323
doppler: -0.159006148577
snr: 138
noise: 413
frame_num: 4199
point_id: 16
x: -0.488578796387
y: 1.79384636879
z: 0.602290213108
doppler_bin: 30
target_idx: 10
posX: -0.445619106293
posY: 1.69458138943
posZ: 0.635544896126
velX: 0.405154168606
velY: -0.128157258034
velZ: 0.596200466156
accX: 0.0
accY: 0.0
accZ: 0.0
---
header: 
  seq: 22794
  stamp: 
    secs: 1596523260
    nsecs: 836415805
  frame_id: "node1_radarinterface_radarscan"
range: 1.87614250183
angle: -0.229257449508
elev: 0.274439066648
doppler: -0.0795030742884
snr: 206
noise: 472
frame_num: 4199
point_id: 24
x: -0.410406172276
y: 1.75868082047
z: 0.508447825909
doppler_bin: 31
target_idx: 10
posX: -0.445619106293
posY: 1.69458138943
posZ: 0.635544896126
velX: 0.405154168606
velY: -0.128157258034
velZ: 0.596200466156
accX: 0.0
accY: 0.0
accZ: 0.0
---
header: 
  seq: 22795
  stamp: 
    secs: 1596523260
    nsecs: 935049955
  frame_id: "node1_radarinterface_radarscan"
range: 1.87614250183
angle: -0.195607498288
elev: 0.266523659229
doppler: 0.0
snr: 172
noise: 420
frame_num: 4200
point_id: 3
x: -0.351776719093
y: 1.77538502216
z: 0.494137346745
doppler_bin: 32
target_idx: 10
posX: -0.375133782625
posY: 1.70416593552
posZ: 0.654775738716
velX: 0.568359136581
velY: -0.0726655647159
velZ: 0.493681281805
accX: 0.0
accY: 0.0
accZ: 0.0
---
header: 
  seq: 22796
  stamp: 
    secs: 1596523260
    nsecs: 935157969
  frame_id: "node1_radarinterface_radarscan"
range: 1.95431506634
angle: -0.27188205719
elev: 0.373808979988
doppler: 0.0795030742884
snr: 125
noise: 463
frame_num: 4200
point_id: 8
x: -0.488578736782
y: 1.75252628326
z: 0.713645517826
doppler_bin: 33
target_idx: 10
posX: -0.375133782625
posY: 1.70416593552
posZ: 0.654775738716
velX: 0.568359136581
velY: -0.0726655647159
velZ: 0.493681281805
accX: 0.0
accY: 0.0
accZ: 0.0
---
header: 
  seq: 22797
  stamp: 
    secs: 1596523260
    nsecs: 935185827
  frame_id: "node1_radarinterface_radarscan"
range: 1.87614250183
angle: -0.197395294905
elev: 0.297516644001
doppler: -0.0795030742884
snr: 204
noise: 472
frame_num: 4200
point_id: 16
x: -0.351776719093
y: 1.75888597965
z: 0.549985289574
doppler_bin: 31
target_idx: 10
posX: -0.375133782625
posY: 1.70416593552
posZ: 0.654775738716
velX: 0.568359136581
velY: -0.0726655647159
velZ: 0.493681281805
accX: 0.0
accY: 0.0
accZ: 0.0
---
header: 
  seq: 22798
  stamp: 
    secs: 1596523261
    nsecs:  35745228
  frame_id: "node1_radarinterface_radarscan"
range: 1.79796981812
angle: -0.228048220277
elev: 0.255282670259
doppler: 0.0795030742884
snr: 173
noise: 466
frame_num: 4201
point_id: 8
x: -0.393305897713
y: 1.69465947151
z: 0.454021424055
doppler_bin: 33
target_idx: 10
posX: -0.361755549908
posY: 1.73411846161
posZ: 0.59100663662
velX: 0.49198448658
velY: 0.0387070551515
velZ: 0.188728868961
accX: 0.0
accY: 0.0
accZ: 0.0
---
header: 
  seq: 22799
  stamp: 
    secs: 1596523261
    nsecs:  35824560
  frame_id: "node1_radarinterface_radarscan"
range: 1.79796981812
angle: -0.224363982677
elev: 0.18352521956
doppler: -0.159006148577
snr: 141
noise: 429
frame_num: 4201
point_id: 13
x: -0.393305897713
y: 1.72346770763
z: 0.328123599291
doppler_bin: 30
target_idx: 10
posX: -0.361755549908
posY: 1.73411846161
posZ: 0.59100663662
velX: 0.49198448658
velY: 0.0387070551515
velZ: 0.188728868961
accX: 0.0
accY: 0.0
accZ: 0.0
---
header: 
  seq: 22800
  stamp: 
    secs: 1596523261
    nsecs:  35868562
  frame_id: "node1_radarinterface_radarscan"
range: 1.87614250183
angle: -0.224188178778
elev: 0.179324105382
doppler: -0.159006148577
snr: 149
noise: 424
frame_num: 4201
point_id: 14
x: -0.410406142473
y: 1.79985976219
z: 0.334637314081
doppler_bin: 30
target_idx: 10
posX: -0.361755549908
posY: 1.73411846161
posZ: 0.59100663662
velX: 0.49198448658
velY: 0.0387070551515
velZ: 0.188728868961
accX: 0.0
accY: 0.0
accZ: 0.0
---
header: 
  seq: 22801
  stamp: 
    secs: 1596523261
    nsecs:  35884585
  frame_id: "node1_radarinterface_radarscan"
range: 1.79796981812
angle: -0.225781589746
elev: 0.214243352413
doppler: -0.0795030742884
snr: 174
noise: 484
frame_num: 4201
point_id: 21
x: -0.393305927515
y: 1.71227359772
z: 0.38226300478
doppler_bin: 31
target_idx: 10
posX: -0.361755549908
posY: 1.73411846161
posZ: 0.59100663662
velX: 0.49198448658
velY: 0.0387070551515
velZ: 0.188728868961
accX: 0.0
accY: 0.0
accZ: 0.0
---
header: 
  seq: 22802
  stamp: 
    secs: 1596523261
    nsecs:  35926242
  frame_id: "node1_radarinterface_radarscan"
range: 1.87614250183
angle: -0.225741505623
elev: 0.213439911604
doppler: -0.0795030742884
snr: 181
noise: 479
frame_num: 4201
point_id: 22
x: -0.410406172276
y: 1.78704857826
z: 0.39741012454
doppler_bin: 31
target_idx: 10
posX: -0.361755549908
posY: 1.73411846161
posZ: 0.59100663662
velX: 0.49198448658
velY: 0.0387070551515
velZ: 0.188728868961
accX: 0.0
accY: 0.0
accZ: 0.0
---
header: 
  seq: 22803
  stamp: 
    secs: 1596523261
    nsecs: 136077523
  frame_id: "node1_radarinterface_radarscan"
range: 1.87614250183
angle: -0.197265580297
elev: 0.295392543077
doppler: -0.0795030742884
snr: 169
noise: 472
frame_num: 4202
point_id: 16
x: -0.351776719093
y: 1.76007318497
z: 0.546173989773
doppler_bin: 31
target_idx: 10
posX: -0.321182399988
posY: 1.73920416832
posZ: 0.596168637276
velX: 0.509293794632
velY: 0.052180968225
velZ: 0.121470123529
accX: 0.0
accY: 0.0
accZ: 0.0
---
header: 
  seq: 22804
  stamp: 
    secs: 1596523261
    nsecs: 234894881
  frame_id: "node1_radarinterface_radarscan"
range: 1.95431506634
angle: -0.48784917593
elev: 0.367080748081
doppler: 0.0795030742884
snr: 130
noise: 458
frame_num: 4203
point_id: 5
x: -0.855012834072
y: 1.61132085323
z: 0.701388418674
doppler_bin: 33
target_idx: 10
posX: -0.411493748426
posY: 1.74535119534
posZ: 0.565995931625
velX: 0.09244120121
velY: 0.0567277930677
velZ: -0.000150762498379
accX: 0.0
accY: 0.0
accZ: 0.0
---
header: 
  seq: 22805
  stamp: 
    secs: 1596523261
    nsecs: 234980929
  frame_id: "node1_radarinterface_radarscan"
range: 1.87614250183
angle: -0.156935319304
elev: -0.0231646373868
doppler: -0.0795030742884
snr: 117
noise: 485
frame_num: 4203
point_id: 16
x: -0.293147265911
y: 1.85258924961
z: -0.0434562750161
doppler_bin: 31
target_idx: 10
posX: -0.411493748426
posY: 1.74535119534
posZ: 0.565995931625
velX: 0.09244120121
velY: 0.0567277930677
velZ: -0.000150762498379
accX: 0.0
accY: 0.0
accZ: 0.0
---
header: 
  seq: 22806
  stamp: 
    secs: 1596523261
    nsecs: 334874598
  frame_id: "node1_radarinterface_radarscan"
range: 1.79796981812
angle: -0.301422148943
elev: 0.325918257236
doppler: 0.0795030742884
snr: 115
noise: 473
frame_num: 4204
point_id: 8
x: -0.505679011345
y: 1.6265257597
z: 0.57567191124
doppler_bin: 33
target_idx: 10
posX: -0.467427045107
posY: 1.7403267622
posZ: 0.564492046833
velX: -0.13257971406
velY: 0.0358459316194
velZ: -0.0382421016693
accX: 0.0
accY: 0.0
accZ: 0.0
---
header: 
  seq: 22807
  stamp: 
    secs: 1596523261
    nsecs: 334954376
  frame_id: "node1_radarinterface_radarscan"
range: 1.87614250183
angle: -0.334353715181
elev: 0.310165673494
doppler: -0.0795030742884
snr: 120
noise: 495
frame_num: 4204
point_id: 19
x: -0.586294531822
y: 1.68768024445
z: 0.572629451752
doppler_bin: 31
target_idx: 10
posX: -0.467427045107
posY: 1.7403267622
posZ: 0.564492046833
velX: -0.13257971406
velY: 0.0358459316194
velZ: -0.0382421016693
accX: 0.0
accY: 0.0
accZ: 0.0
---
header: 
  seq: 22808
  stamp: 
    secs: 1596523261
    nsecs: 733463741
  frame_id: "node1_radarinterface_radarscan"
range: 1.79796981812
angle: -0.320029258728
elev: 0.115452840924
doppler: 0.0795030742884
snr: 113
noise: 501
frame_num: 4208
point_id: 13
x: -0.561865568161
y: 1.69531822205
z: 0.207119882107
doppler_bin: 33
target_idx: 10
posX: -0.591224551201
posY: 1.75268733501
posZ: 0.374363958836
velX: -0.437707185745
velY: -0.024203389883
velZ: -0.546869516373
accX: 0.0
accY: 0.0
accZ: 0.0
---
header: 
  seq: 22809
  stamp: 
    secs: 1596523261
    nsecs: 733550934
  frame_id: "node1_radarinterface_radarscan"
range: 1.87614250183
angle: -0.319438487291
elev: 0.0988658964634
doppler: 0.0795030742884
snr: 121
noise: 498
frame_num: 4208
point_id: 14
x: -0.586294531822
y: 1.77253377438
z: 0.18518447876
doppler_bin: 33
target_idx: 10
posX: -0.591224551201
posY: 1.75268733501
posZ: 0.374363958836
velX: -0.437707185745
velY: -0.024203389883
velZ: -0.546869516373
accX: 0.0
accY: 0.0
accZ: 0.0
---
header: 
  seq: 22810
  stamp: 
    secs: 1596523261
    nsecs: 733571934
  frame_id: "node1_radarinterface_radarscan"
range: 1.71979725361
angle: -0.32159280777
elev: 0.150610625744
doppler: -0.0795030742884
snr: 116
noise: 450
frame_num: 4208
point_id: 27
x: -0.537436664104
y: 1.6131581068
z: 0.258041590452
doppler_bin: 31
target_idx: 10
posX: -0.591224551201
posY: 1.75268733501
posZ: 0.374363958836
velX: -0.437707185745
velY: -0.024203389883
velZ: -0.546869516373
accX: 0.0
accY: 0.0
accZ: 0.0
---
header: 
  seq: 22811
  stamp: 
    secs: 1596523261
    nsecs: 733618658
  frame_id: "node1_radarinterface_radarscan"
range: 1.79796981812
angle: -0.320158749819
elev: 0.118772856891
doppler: -0.0795030742884
snr: 150
noise: 464
frame_num: 4208
point_id: 28
x: -0.561865568161
y: 1.69458341599
z: 0.213048279285
doppler_bin: 31
target_idx: 10
posX: -0.591224551201
posY: 1.75268733501
posZ: 0.374363958836
velX: -0.437707185745
velY: -0.024203389883
velZ: -0.546869516373
accX: 0.0
accY: 0.0
accZ: 0.0
---
header: 
  seq: 22812
  stamp: 
    secs: 1596523261
    nsecs: 834766292
  frame_id: "node1_radarinterface_radarscan"
range: 1.95431506634
angle: -0.358436852694
elev: 0.200973466039
doppler: -0.0795030742884
snr: 154
noise: 415
frame_num: 4209
point_id: 27
x: -0.671795785427
y: 1.79327607155
z: 0.390126824379
doppler_bin: 31
target_idx: 10
posX: -0.583090722561
posY: 1.74366927147
posZ: 0.354913055897
velX: -0.36964994669
velY: -0.0503378435969
velZ: -0.548512756824
accX: 0.0
accY: 0.0
accZ: 0.0
---
header: 
  seq: 22813
  stamp: 
    secs: 1596523262
    nsecs:  34643802
  frame_id: "node1_radarinterface_radarscan"
range: 1.71979725361
angle: -0.256247222424
elev: 0.16523565352
doppler: -0.0795030742884
snr: 154
noise: 432
frame_num: 4211
point_id: 19
x: -0.429949313402
y: 1.64098286629
z: 0.282880485058
doppler_bin: 31
target_idx: 10
posX: -0.551545798779
posY: 1.75017392635
posZ: 0.304914981127
velX: -0.245824173093
velY: -0.0161593966186
velZ: -0.618470132351
accX: 0.0
accY: 0.0
accZ: 0.0
---
header: 
  seq: 22814
  stamp: 
    secs: 1596523262
    nsecs: 135038247
  frame_id: "node1_radarinterface_radarscan"
range: 1.79796981812
angle: -0.22766713798
elev: 0.248902320862
doppler: -0.0795030742884
snr: 171
noise: 459
frame_num: 4212
point_id: 19
x: -0.393305897713
y: 1.6975966692
z: 0.442912340164
doppler_bin: 31
target_idx: 10
posX: -0.495565950871
posY: 1.75977563858
posZ: 0.32550996542
velX: -0.0747986733913
velY: 0.0544546991587
velZ: -0.507069826126
accX: 0.0
accY: 0.0
accZ: 0.0
---
header: 
  seq: 22815
  stamp: 
    secs: 1596523262
    nsecs: 235538194
  frame_id: "node1_radarinterface_radarscan"
range: 1.79796981812
angle: -0.194487437606
elev: 0.244835600257
doppler: 0.0795030742884
snr: 146
noise: 467
frame_num: 4213
point_id: 8
x: -0.337119340897
y: 1.71146285534
z: 0.435822188854
doppler_bin: 33
target_idx: 10
posX: -0.529002845287
posY: 1.72606480122
posZ: 0.449018120766
velX: -0.174421429634
velY: -0.0015820376575
velZ: -0.132705658674
accX: 0.0
accY: 0.0
accZ: 0.0
---
header: 
  seq: 22816
  stamp: 
    secs: 1596523262
    nsecs: 235592794
  frame_id: "node1_radarinterface_radarscan"
range: 1.71979725361
angle: -0.332598179579
elev: 0.293900489807
doppler: -0.0795030742884
snr: 133
noise: 436
frame_num: 4213
point_id: 13
x: -0.537436664104
y: 1.55584621429
z: 0.498204052448
doppler_bin: 31
target_idx: 10
posX: -0.529002845287
posY: 1.72606480122
posZ: 0.449018120766
velX: -0.174421429634
velY: -0.0015820376575
velZ: -0.132705658674
accX: 0.0
accY: 0.0
accZ: 0.0
---
header: 
  seq: 22817
  stamp: 
    secs: 1596523262
    nsecs: 235672007
  frame_id: "node1_radarinterface_radarscan"
range: 1.79796981812
angle: -0.44354134798
elev: 0.507753431797
doppler: -0.0795030742884
snr: 148
noise: 445
frame_num: 4213
point_id: 14
x: -0.674238681793
y: 1.41910934448
z: 0.8742005229
doppler_bin: 31
target_idx: 10
posX: -0.529002845287
posY: 1.72606480122
posZ: 0.449018120766
velX: -0.174421429634
velY: -0.0015820376575
velZ: -0.132705658674
accX: 0.0
accY: 0.0
accZ: 0.0
---
header: 
  seq: 22818
  stamp: 
    secs: 1596523262
    nsecs: 235684950
  frame_id: "node1_radarinterface_radarscan"
range: 1.87614250183
angle: -0.509785950184
elev: 0.587198853493
doppler: -0.0795030742884
snr: 157
noise: 453
frame_num: 4213
point_id: 16
x: -0.762182891369
y: 1.36328613758
z: 1.03944158554
doppler_bin: 31
target_idx: 10
posX: -0.529002845287
posY: 1.72606480122
posZ: 0.449018120766
velX: -0.174421429634
velY: -0.0015820376575
velZ: -0.132705658674
accX: 0.0
accY: 0.0
accZ: 0.0
---
header: 
  seq: 22819
  stamp: 
    secs: 1596523262
    nsecs: 334952184
  frame_id: "node1_radarinterface_radarscan"
range: 1.87614250183
angle: -0.197405740619
elev: 0.297686904669
doppler: 0.0795030742884
snr: 189
noise: 450
frame_num: 4214
point_id: 6
x: -0.351776719093
y: 1.75879049301
z: 0.550290644169
doppler_bin: 33
target_idx: 10
posX: -0.466664493084
posY: 1.74582827091
posZ: 0.466784387827
velX: 0.0484027713537
velY: 0.0626902282238
velZ: -0.0567197054625
accX: 0.0
accY: 0.0
accZ: 0.0
---
header: 
  seq: 22820
  stamp: 
    secs: 1596523262
    nsecs: 335052300
  frame_id: "node1_radarinterface_radarscan"
range: 1.95431506634
angle: -0.231144562364
elev: 0.301616996527
doppler: 0.0795030742884
snr: 136
noise: 451
frame_num: 4214
point_id: 7
x: -0.427506417036
y: 1.81646311283
z: 0.580557823181
doppler_bin: 33
target_idx: 10
posX: -0.466664493084
posY: 1.74582827091
posZ: 0.466784387827
velX: 0.0484027713537
velY: 0.0626902282238
velZ: -0.0567197054625
accX: 0.0
accY: 0.0
accZ: 0.0
---
header: 
  seq: 22821
  stamp: 
    secs: 1596523262
    nsecs: 433461942
  frame_id: "node1_radarinterface_radarscan"
range: 1.79796981812
angle: -0.226826891303
elev: 0.234151944518
doppler: 0.0
snr: 127
noise: 427
frame_num: 4215
point_id: 0
x: -0.393305897713
y: 1.70410752296
z: 0.417161643505
doppler_bin: 32
target_idx: 10
posX: -0.471671640873
posY: 1.7424519062
posZ: 0.464721649885
velX: 0.0317790918052
velY: 0.0557437129319
velZ: -0.0317084677517
accX: 0.0
accY: 0.0
accZ: 0.0
---
header: 
  seq: 22822
  stamp: 
    secs: 1596523262
    nsecs: 433531453
  frame_id: "node1_radarinterface_radarscan"
range: 1.87614250183
angle: -0.26235806942
elev: 0.269454717636
doppler: 0.0795030742884
snr: 244
noise: 452
frame_num: 4215
point_id: 8
x: -0.469035625458
y: 1.74656116962
z: 0.499440133572
doppler_bin: 33
target_idx: 10
posX: -0.471671640873
posY: 1.7424519062
posZ: 0.464721649885
velX: 0.0317790918052
velY: 0.0557437129319
velZ: -0.0317084677517
accX: 0.0
accY: 0.0
accZ: 0.0
---
header: 
  seq: 22823
  stamp: 
    secs: 1596523262
    nsecs: 433546870
  frame_id: "node1_radarinterface_radarscan"
range: 1.79796981812
angle: -0.259658634663
elev: 0.22982019186
doppler: -0.0795030742884
snr: 225
noise: 448
frame_num: 4215
point_id: 16
x: -0.449492424726
y: 1.69200897217
z: 0.409581929445
doppler_bin: 31
target_idx: 10
posX: -0.471671640873
posY: 1.7424519062
posZ: 0.464721649885
velX: 0.0317790918052
velY: 0.0557437129319
velZ: -0.0317084677517
accX: 0.0
accY: 0.0
accZ: 0.0
---
header: 
  seq: 22824
  stamp: 
    secs: 1596523262
    nsecs: 533925299
  frame_id: "node1_radarinterface_radarscan"
range: 1.79796981812
angle: -0.228419810534
elev: 0.261337399483
doppler: 0.0
snr: 150
noise: 442
frame_num: 4216
point_id: 3
x: -0.393305897713
y: 1.69180452824
z: 0.464546442032
doppler_bin: 32
target_idx: 10
posX: -0.484920531511
posY: 1.74027717113
posZ: 0.505430698395
velX: -0.0140121877193
velY: 0.0311729684472
velZ: 0.103687390685
accX: 0.0
accY: 0.0
accZ: 0.0
---
header: 
  seq: 22825
  stamp: 
    secs: 1596523262
    nsecs: 533980747
  frame_id: "node1_radarinterface_radarscan"
range: 1.95431506634
angle: -0.331575244665
elev: 0.283920884132
doppler: 0.0
snr: 142
noise: 430
frame_num: 4216
point_id: 5
x: -0.610723495483
y: 1.77388477325
z: 0.547446072102
doppler_bin: 32
target_idx: 10
posX: -0.484920531511
posY: 1.74027717113
posZ: 0.505430698395
velX: -0.0140121877193
velY: 0.0311729684472
velZ: 0.103687390685
accX: 0.0
accY: 0.0
accZ: 0.0
---
header: 
  seq: 22826
  stamp: 
    secs: 1596523262
    nsecs: 534005272
  frame_id: "node1_radarinterface_radarscan"
range: 2.03248763084
angle: -0.431692451239
elev: 0.241664990783
doppler: 0.0795030742884
snr: 136
noise: 463
frame_num: 4216
point_id: 13
x: -0.825698077679
y: 1.7923810482
z: 0.486414045095
doppler_bin: 33
target_idx: 10
posX: -0.484920531511
posY: 1.74027717113
posZ: 0.505430698395
velX: -0.0140121877193
velY: 0.0311729684472
velZ: 0.103687390685
accX: 0.0
accY: 0.0
accZ: 0.0
---
header: 
  seq: 22827
  stamp: 
    secs: 1596523262
    nsecs: 534076874
  frame_id: "node1_radarinterface_radarscan"
range: 1.79796981812
angle: -0.199737951159
elev: 0.333198845387
doppler: 0.159006148577
snr: 175
noise: 406
frame_num: 4216
point_id: 14
x: -0.337119340897
y: 1.66530311108
z: 0.588057696819
doppler_bin: 34
target_idx: 10
posX: -0.484920531511
posY: 1.74027717113
posZ: 0.505430698395
velX: -0.0140121877193
velY: 0.0311729684472
velZ: 0.103687390685
accX: 0.0
accY: 0.0
accZ: 0.0
---
header: 
  seq: 22828
  stamp: 
    secs: 1596523262
    nsecs: 534179003
  frame_id: "node1_radarinterface_radarscan"
range: 1.95431506634
angle: -0.373183429241
elev: 0.339679151773
doppler: 0.159006148577
snr: 187
noise: 397
frame_num: 4216
point_id: 16
x: -0.671795785427
y: 1.71582174301
z: 0.651147663593
doppler_bin: 34
target_idx: 10
posX: -0.484920531511
posY: 1.74027717113
posZ: 0.505430698395
velX: -0.0140121877193
velY: 0.0311729684472
velZ: 0.103687390685
accX: 0.0
accY: 0.0
accZ: 0.0
---
header: 
  seq: 22829
  stamp: 
    secs: 1596523262
    nsecs: 633854046
  frame_id: "node1_radarinterface_radarscan"
range: 1.79796981812
angle: -0.197769537568
elev: 0.303548574448
doppler: 0.0
snr: 194
noise: 431
frame_num: 4217
point_id: 3
x: -0.337119340897
y: 1.68232488632
z: 0.537428319454
doppler_bin: 32
target_idx: 10
posX: -0.464793235064
posY: 1.72823739052
posZ: 0.564307391644
velX: 0.0617940202355
velY: -0.00997107475996
velZ: 0.282463490963
accX: 0.0
accY: 0.0
accZ: 0.0
---
header: 
  seq: 22830
  stamp: 
    secs: 1596523262
    nsecs: 633966146
  frame_id: "node1_radarinterface_radarscan"
range: 1.95431506634
angle: -0.239498689771
elev: 0.397176980972
doppler: 0.0
snr: 180
noise: 412
frame_num: 4217
point_id: 5
x: -0.427506417036
y: 1.75074493885
z: 0.755961537361
doppler_bin: 32
target_idx: 10
posX: -0.464793235064
posY: 1.72823739052
posZ: 0.564307391644
velX: 0.0617940202355
velY: -0.00997107475996
velZ: 0.282463490963
accX: 0.0
accY: 0.0
accZ: 0.0
---
header: 
  seq: 22831
  stamp: 
    secs: 1596523262
    nsecs: 633981568
  frame_id: "node1_radarinterface_radarscan"
range: 2.03248763084
angle: -0.472855120897
elev: 0.281532943249
doppler: 0.0795030742884
snr: 149
noise: 456
frame_num: 4217
point_id: 13
x: -0.889213323593
y: 1.73822855949
z: 0.564683139324
doppler_bin: 33
target_idx: 10
posX: -0.464793235064
posY: 1.72823739052
posZ: 0.564307391644
velX: 0.0617940202355
velY: -0.00997107475996
velZ: 0.282463490963
accX: 0.0
accY: 0.0
accZ: 0.0
---
header: 
  seq: 22832
  stamp: 
    secs: 1596523262
    nsecs: 634008610
  frame_id: "node1_radarinterface_radarscan"
range: 1.71979725361
angle: -0.23249669373
elev: 0.319464236498
doppler: 0.159006148577
snr: 175
noise: 390
frame_num: 4217
point_id: 14
x: -0.376205652952
y: 1.58885073662
z: 0.540116012096
doppler_bin: 34
target_idx: 10
posX: -0.464793235064
posY: 1.72823739052
posZ: 0.564307391644
velX: 0.0617940202355
velY: -0.00997107475996
velZ: 0.282463490963
accX: 0.0
accY: 0.0
accZ: 0.0
---
header: 
  seq: 22833
  stamp: 
    secs: 1596523262
    nsecs: 634022865
  frame_id: "node1_radarinterface_radarscan"
range: 1.87614250183
angle: -0.236784040928
elev: 0.369447022676
doppler: 0.159006148577
snr: 256
noise: 397
frame_num: 4217
point_id: 16
x: -0.410406172276
y: 1.70073664188
z: 0.677474737167
doppler_bin: 34
target_idx: 10
posX: -0.464793235064
posY: 1.72823739052
posZ: 0.564307391644
velX: 0.0617940202355
velY: -0.00997107475996
velZ: 0.282463490963
accX: 0.0
accY: 0.0
accZ: 0.0
---
header: 
  seq: 22834
  stamp: 
    secs: 1596523262
    nsecs: 634096371
  frame_id: "node1_radarinterface_radarscan"
range: 1.79796981812
angle: -0.229377761483
elev: 0.276263386011
doppler: -0.0795030742884
snr: 217
noise: 480
frame_num: 4217
point_id: 27
x: -0.393305897713
y: 1.68448650837
z: 0.490418970585
doppler_bin: 31
target_idx: 10
posX: -0.464793235064
posY: 1.72823739052
posZ: 0.564307391644
velX: 0.0617940202355
velY: -0.00997107475996
velZ: 0.282463490963
accX: 0.0
accY: 0.0
accZ: 0.0
---
header: 
  seq: 22835
  stamp: 
    secs: 1596523262
    nsecs: 634118174
  frame_id: "node1_radarinterface_radarscan"
range: 1.95431506634
angle: -0.362343013287
elev: 0.24651645124
doppler: -0.0795030742884
snr: 175
noise: 475
frame_num: 4217
point_id: 29
x: -0.671795785427
y: 1.77217328548
z: 0.476906061172
doppler_bin: 31
target_idx: 10
posX: -0.464793235064
posY: 1.72823739052
posZ: 0.564307391644
velX: 0.0617940202355
velY: -0.00997107475996
velZ: 0.282463490963
accX: 0.0
accY: 0.0
accZ: 0.0
---
header: 
  seq: 22836
  stamp: 
    secs: 1596523262
    nsecs: 734731902
  frame_id: "node1_radarinterface_radarscan"
range: 1.79796981812
angle: -0.194796830416
elev: 0.251035124063
doppler: 0.0
snr: 229
noise: 416
frame_num: 4218
point_id: 3
x: -0.337119340897
y: 1.70867478848
z: 0.446627885103
doppler_bin: 32
target_idx: 10
posX: -0.406887888908
posY: 1.74535810947
posZ: 0.54955881834
velX: 0.262089401484
velY: 0.0598568879068
velZ: 0.192437797785
accX: 0.0
accY: 0.0
accZ: 0.0
---
header: 
  seq: 22837
  stamp: 
    secs: 1596523262
    nsecs: 734796526
  frame_id: "node1_radarinterface_radarscan"
range: 1.95431506634
angle: -0.160235464573
elev: 0.203759282827
doppler: 0.0
snr: 184
noise: 412
frame_num: 4218
point_id: 5
x: -0.305361717939
y: 1.88936829567
z: 0.39546006918
doppler_bin: 32
target_idx: 10
posX: -0.406887888908
posY: 1.74535810947
posZ: 0.54955881834
velX: 0.262089401484
velY: 0.0598568879068
velZ: 0.192437797785
accX: 0.0
accY: 0.0
accZ: 0.0
---
header: 
  seq: 22838
  stamp: 
    secs: 1596523262
    nsecs: 734843680
  frame_id: "node1_radarinterface_radarscan"
range: 1.71979725361
angle: -0.195913389325
elev: 0.272112101316
doppler: 0.0795030742884
snr: 226
noise: 422
frame_num: 4218
point_id: 8
x: -0.322461992502
y: 1.6248292923
z: 0.462223768234
doppler_bin: 33
target_idx: 10
posX: -0.406887888908
posY: 1.74535810947
posZ: 0.54955881834
velX: 0.262089401484
velY: 0.0598568879068
velZ: 0.192437797785
accX: 0.0
accY: 0.0
accZ: 0.0
---
header: 
  seq: 22839
  stamp: 
    secs: 1596523262
    nsecs: 734857305
  frame_id: "node1_radarinterface_radarscan"
range: 2.03248763084
angle: -0.483985841274
elev: 0.347486793995
doppler: 0.0795030742884
snr: 148
noise: 462
frame_num: 4218
point_id: 13
x: -0.889213323593
y: 1.69152438641
z: 0.692134976387
doppler_bin: 33
target_idx: 10
posX: -0.406887888908
posY: 1.74535810947
posZ: 0.54955881834
velX: 0.262089401484
velY: 0.0598568879068
velZ: 0.192437797785
accX: 0.0
accY: 0.0
accZ: 0.0
---
header: 
  seq: 22840
  stamp: 
    secs: 1596523262
    nsecs: 734893965
  frame_id: "node1_radarinterface_radarscan"
range: 1.71979725361
angle: -0.196577176452
elev: 0.283812999725
doppler: 0.159006148577
snr: 179
noise: 387
frame_num: 4218
point_id: 14
x: -0.322461992502
y: 1.61919939518
z: 0.481574416161
doppler_bin: 34
target_idx: 10
posX: -0.406887888908
posY: 1.74535810947
posZ: 0.54955881834
velX: 0.262089401484
velY: 0.0598568879068
velZ: 0.192437797785
accX: 0.0
accY: 0.0
accZ: 0.0
---
header: 
  seq: 22841
  stamp: 
    secs: 1596523262
    nsecs: 734915045
  frame_id: "node1_radarinterface_radarscan"
range: 1.87614250183
angle: -0.164509862661
elev: 0.30419370532
doppler: 0.159006148577
snr: 267
noise: 388
frame_num: 4218
point_id: 16
x: -0.293147265911
y: 1.76583921909
z: 0.561949670315
doppler_bin: 34
target_idx: 10
posX: -0.406887888908
posY: 1.74535810947
posZ: 0.54955881834
velX: 0.262089401484
velY: 0.0598568879068
velZ: 0.192437797785
accX: 0.0
accY: 0.0
accZ: 0.0
---
header: 
  seq: 22842
  stamp: 
    secs: 1596523262
    nsecs: 734936027
  frame_id: "node1_radarinterface_radarscan"
range: 1.95431506634
angle: -0.561658263206
elev: 0.494655638933
doppler: -0.0795030742884
snr: 158
noise: 486
frame_num: 4218
point_id: 27
x: -0.916085243225
y: 1.45580887794
z: 0.927769243717
doppler_bin: 31
target_idx: 10
posX: -0.406887888908
posY: 1.74535810947
posZ: 0.54955881834
velX: 0.262089401484
velY: 0.0598568879068
velZ: 0.192437797785
accX: 0.0
accY: 0.0
accZ: 0.0
---
header: 
  seq: 22843
  stamp: 
    secs: 1596523262
    nsecs: 834985223
  frame_id: "node1_radarinterface_radarscan"
range: 1.71979725361
angle: -0.196369633079
elev: 0.280214130878
doppler: 0.0
snr: 146
noise: 392
frame_num: 4219
point_id: 0
x: -0.322461992502
y: 1.62095570564
z: 0.475629597902
doppler_bin: 32
target_idx: 10
posX: -0.412948846817
posY: 1.74796271324
posZ: 0.531106829643
velX: 0.183025315404
velY: 0.0607714802027
velZ: 0.108685649931
accX: 0.0
accY: 0.0
accZ: 0.0
---
header: 
  seq: 22844
  stamp: 
    secs: 1596523262
    nsecs: 835075052
  frame_id: "node1_radarinterface_radarscan"
range: 1.95431506634
angle: -0.227626681328
elev: 0.248214170337
doppler: 0.0
snr: 200
noise: 396
frame_num: 4219
point_id: 3
x: -0.427506446838
y: 1.84555351734
z: 0.480122953653
doppler_bin: 32
target_idx: 10
posX: -0.412948846817
posY: 1.74796271324
posZ: 0.531106829643
velX: 0.183025315404
velY: 0.0607714802027
velZ: 0.108685649931
accX: 0.0
accY: 0.0
accZ: 0.0
---
header: 
  seq: 22845
  stamp: 
    secs: 1596523262
    nsecs: 835091015
