header: 
  seq: 102965
  stamp: 
    secs: 1596524043
    nsecs: 967178802
  frame_id: "node1_radarinterface_radarscan"
range: 2.11066031456
angle: -0.265159398317
elev: 0.304594069719
doppler: 0.0795030742884
snr: 142
noise: 442
frame_num: 11795
point_id: 8
x: -0.52766507864
y: 1.94313359261
z: 0.63299959898
doppler_bin: 33
target_idx: 13
posX: -0.652217507362
posY: 2.1707034111
posZ: 0.441831558943
velX: -0.0334004759789
velY: -0.0392624512315
velZ: 0.23153424263
accX: 0.0
accY: 0.0
accZ: 0.0
---
header: 
  seq: 102966
  stamp: 
    secs: 1596524043
    nsecs: 967253764
  frame_id: "node1_radarinterface_radarscan"
range: 2.26700544357
angle: -0.296362072229
elev: 0.27271297574
doppler: 0.0795030742884
snr: 313
noise: 416
frame_num: 11795
point_id: 10
x: -0.637595295906
y: 2.08804821968
z: 0.610606908798
doppler_bin: 33
target_idx: 13
posX: -0.652217507362
posY: 2.1707034111
posZ: 0.441831558943
velX: -0.0334004759789
velY: -0.0392624512315
velZ: 0.23153424263
accX: 0.0
accY: 0.0
accZ: 0.0
---
header: 
  seq: 102967
  stamp: 
    secs: 1596524043
    nsecs: 967275643
  frame_id: "node1_radarinterface_radarscan"
range: 2.18883275986
angle: -0.299401015043
elev: 0.305960357189
doppler: 0.159006148577
snr: 228
noise: 382
frame_num: 11795
point_id: 13
x: -0.615609169006
y: 1.99432754517
z: 0.659296274185
doppler_bin: 34
target_idx: 13
posX: -0.652217507362
posY: 2.1707034111
posZ: 0.441831558943
velX: -0.0334004759789
velY: -0.0392624512315
velZ: 0.23153424263
accX: 0.0
accY: 0.0
accZ: 0.0
---
header: 
  seq: 102968
  stamp: 
    secs: 1596524043
    nsecs: 967308482
  frame_id: "node1_radarinterface_radarscan"
range: 2.26700544357
angle: -0.291756868362
elev: 0.211101517081
doppler: -0.159006148577
snr: 236
noise: 379
frame_num: 11795
point_id: 16
x: -0.637595295906
y: 2.12300276756
z: 0.475021719933
doppler_bin: 30
target_idx: 13
posX: -0.652217507362
posY: 2.1707034111
posZ: 0.441831558943
velX: -0.0334004759789
velY: -0.0392624512315
velZ: 0.23153424263
accX: 0.0
accY: 0.0
accZ: 0.0
---
header: 
  seq: 102969
  stamp: 
    secs: 1596524043
    nsecs: 967326448
  frame_id: "node1_radarinterface_radarscan"
range: 2.11066031456
angle: -0.260240286589
elev: 0.238978475332
doppler: -0.0795030742884
snr: 135
noise: 427
frame_num: 11795
point_id: 21
x: -0.52766507864
y: 1.98162591457
z: 0.499614953995
doppler_bin: 31
target_idx: 13
posX: -0.652217507362
posY: 2.1707034111
posZ: 0.441831558943
velX: -0.0334004759789
velY: -0.0392624512315
velZ: 0.23153424263
accX: 0.0
accY: 0.0
accZ: 0.0
---
header: 
  seq: 102970
  stamp: 
    secs: 1596524043
    nsecs: 967365697
  frame_id: "node1_radarinterface_radarscan"
range: 2.18883275986
angle: -0.293978452682
elev: 0.242988735437
doppler: -0.0795030742884
snr: 266
noise: 408
frame_num: 11795
point_id: 22
x: -0.615609228611
y: 2.03338670731
z: 0.526643276215
doppler_bin: 31
target_idx: 13
posX: -0.652217507362
posY: 2.1707034111
posZ: 0.441831558943
velX: -0.0334004759789
velY: -0.0392624512315
velZ: 0.23153424263
accX: 0.0
accY: 0.0
accZ: 0.0
---
header: 
  seq: 102971
  stamp: 
    secs: 1596524043
    nsecs: 967381172
  frame_id: "node1_radarinterface_radarscan"
range: 2.26700544357
angle: -0.292981147766
elev: 0.229274004698
doppler: -0.0795030742884
snr: 318
noise: 392
frame_num: 11795
point_id: 23
x: -0.637595295906
y: 2.1136059761
z: 0.515223681927
doppler_bin: 31
target_idx: 13
posX: -0.652217507362
posY: 2.1707034111
posZ: 0.441831558943
velX: -0.0334004759789
velY: -0.0392624512315
velZ: 0.23153424263
accX: 0.0
accY: 0.0
accZ: 0.0
---
header: 
  seq: 102972
  stamp: 
    secs: 1596524043
    nsecs: 967394851
  frame_id: "node1_radarinterface_radarscan"
range: 2.34517812729
angle: -0.291716188192
elev: 0.210468292236
doppler: -0.0795030742884
snr: 305
noise: 383
frame_num: 11795
point_id: 24
x: -0.659581303596
y: 2.1965341568
z: 0.489949643612
doppler_bin: 31
target_idx: 13
posX: -0.652217507362
posY: 2.1707034111
posZ: 0.441831558943
velX: -0.0334004759789
velY: -0.0392624512315
velZ: 0.23153424263
accX: 0.0
accY: 0.0
accZ: 0.0
---
header: 
  seq: 102973
  stamp: 
    secs: 1596524044
    nsecs:  68347990
  frame_id: "node1_radarinterface_radarscan"
range: 2.26700544357
angle: -0.270319998264
elev: 0.359166890383
doppler: 0.0795030742884
snr: 242
noise: 450
frame_num: 11796
point_id: 10
x: -0.566751420498
y: 2.04527592659
z: 0.79683971405
doppler_bin: 33
target_idx: 13
posX: -0.644417345524
posY: 2.15091466904
posZ: 0.586252987385
velX: -0.00591763108969
velY: -0.0880110412836
velZ: 0.582992434502
accX: 0.0
accY: 0.0
accZ: 0.0
---
header: 
  seq: 102974
  stamp: 
    secs: 1596524044
    nsecs:  68433685
  frame_id: "node1_radarinterface_radarscan"
range: 2.5015232563
angle: -0.311350166798
elev: 0.407574176788
doppler: 0.0795030742884
snr: 160
noise: 424
frame_num: 11796
point_id: 13
x: -0.703553378582
y: 2.18619179726
z: 0.991562247276
doppler_bin: 33
target_idx: 13
posX: -0.644417345524
posY: 2.15091466904
posZ: 0.586252987385
velX: -0.00591763108969
velY: -0.0880110412836
velZ: 0.582992434502
accX: 0.0
accY: 0.0
accZ: 0.0
---
header: 
  seq: 102975
  stamp: 
    secs: 1596524044
    nsecs:  68447022
  frame_id: "node1_radarinterface_radarscan"
range: 2.26700544357
angle: -0.270792782307
elev: 0.363676339388
doppler: 0.159006148577
snr: 216
noise: 393
frame_num: 11796
point_id: 16
x: -0.566751360893
y: 2.04152441025
z: 0.806402206421
doppler_bin: 34
target_idx: 13
posX: -0.644417345524
posY: 2.15091466904
posZ: 0.586252987385
velX: -0.00591763108969
velY: -0.0880110412836
velZ: 0.582992434502
accX: 0.0
accY: 0.0
accZ: 0.0
---
header: 
  seq: 102976
  stamp: 
    secs: 1596524044
    nsecs:  68457969
  frame_id: "node1_radarinterface_radarscan"
range: 2.18883275986
angle: -0.270958244801
elev: 0.365238159895
doppler: -0.0795030742884
snr: 202
noise: 427
frame_num: 11796
point_id: 20
x: -0.547208189964
y: 1.96986234188
z: 0.781789243221
doppler_bin: 31
target_idx: 13
posX: -0.644417345524
posY: 2.15091466904
posZ: 0.586252987385
velX: -0.00591763108969
velY: -0.0880110412836
velZ: 0.582992434502
accX: 0.0
accY: 0.0
accZ: 0.0
---
header: 
  seq: 102977
  stamp: 
    secs: 1596524044
    nsecs:  68466656
  frame_id: "node1_radarinterface_radarscan"
range: 2.26700544357
angle: -0.268999934196
elev: 0.346191078424
doppler: -0.0795030742884
snr: 247
noise: 412
frame_num: 11796
point_id: 21
x: -0.566751420498
y: 2.05581736565
z: 0.769234240055
doppler_bin: 31
target_idx: 13
posX: -0.644417345524
posY: 2.15091466904
posZ: 0.586252987385
velX: -0.00591763108969
velY: -0.0880110412836
velZ: 0.582992434502
accX: 0.0
accY: 0.0
accZ: 0.0
---
header: 
  seq: 102978
  stamp: 
    secs: 1596524044
    nsecs:  68476448
  frame_id: "node1_radarinterface_radarscan"
range: 2.34517812729
angle: -0.293370962143
elev: 0.23473970592
doppler: -0.0795030742884
snr: 255
noise: 397
frame_num: 11796
point_id: 22
x: -0.659581303596
y: 2.18341040611
z: 0.545464575291
doppler_bin: 31
target_idx: 13
posX: -0.644417345524
posY: 2.15091466904
posZ: 0.586252987385
velX: -0.00591763108969
velY: -0.0880110412836
velZ: 0.582992434502
accX: 0.0
accY: 0.0
accZ: 0.0
---
header: 
  seq: 102979
  stamp: 
    secs: 1596524044
    nsecs:  68487411
  frame_id: "node1_radarinterface_radarscan"
range: 2.42335057259
angle: -0.29355609417
elev: 0.237287029624
doppler: -0.0795030742884
snr: 234
noise: 388
frame_num: 11796
point_id: 23
x: -0.681567370892
y: 2.25468277931
z: 0.569648623466
doppler_bin: 31
target_idx: 13
posX: -0.644417345524
posY: 2.15091466904
posZ: 0.586252987385
velX: -0.00591763108969
velY: -0.0880110412836
velZ: 0.582992434502
accX: 0.0
accY: 0.0
accZ: 0.0
---
header: 
  seq: 102980
  stamp: 
    secs: 1596524044
    nsecs:  68498740
  frame_id: "node1_radarinterface_radarscan"
range: 2.5015232563
angle: -0.342669337988
elev: 0.376239925623
doppler: -0.0795030742884
snr: 151
noise: 399
frame_num: 11796
point_id: 24
x: -0.781726002693
y: 2.1912856102
z: 0.919124722481
doppler_bin: 31
target_idx: 13
posX: -0.644417345524
posY: 2.15091466904
posZ: 0.586252987385
velX: -0.00591763108969
velY: -0.0880110412836
velZ: 0.582992434502
accX: 0.0
accY: 0.0
accZ: 0.0
---
header: 
  seq: 102981
  stamp: 
    secs: 1596524044
    nsecs: 169132596
  frame_id: "node1_radarinterface_radarscan"
range: 2.18883275986
angle: -0.262582659721
elev: 0.272464126348
doppler: 0.0
snr: 145
noise: 396
frame_num: 11797
point_id: 0
x: -0.547208189964
y: 2.03582882881
z: 0.589026868343
doppler_bin: 32
target_idx: 13
posX: -0.640044927597
posY: 2.13715147972
posZ: 0.645201683044
velX: 0.0121074765921
velY: -0.120316058397
velZ: 0.63654756546
accX: 0.0
accY: 0.0
accZ: 0.0
---
header: 
  seq: 102982
  stamp: 
    secs: 1596524044
    nsecs: 169244550
  frame_id: "node1_radarinterface_radarscan"
range: 2.26700544357
angle: -0.26007565856
elev: 0.236425951123
doppler: 0.0795030742884
snr: 200
noise: 427
frame_num: 11797
point_id: 8
x: -0.566751360893
y: 2.12982296944
z: 0.530999541283
doppler_bin: 33
target_idx: 13
posX: -0.640044927597
posY: 2.13715147972
posZ: 0.645201683044
velX: 0.0121074765921
velY: -0.120316058397
velZ: 0.63654756546
accX: 0.0
accY: 0.0
accZ: 0.0
---
header: 
  seq: 102983
  stamp: 
    secs: 1596524044
    nsecs: 169291234
  frame_id: "node1_radarinterface_radarscan"
range: 2.42335057259
angle: -0.30687057972
elev: 0.373504638672
doppler: 0.0795030742884
snr: 218
noise: 408
frame_num: 11797
point_id: 10
x: -0.681567311287
y: 2.15086603165
z: 0.884233772755
doppler_bin: 33
target_idx: 13
posX: -0.640044927597
posY: 2.13715147972
posZ: 0.645201683044
velX: 0.0121074765921
velY: -0.120316058397
velZ: 0.63654756546
accX: 0.0
accY: 0.0
accZ: 0.0
---
header: 
  seq: 102984
  stamp: 
    secs: 1596524044
    nsecs: 169302065
  frame_id: "node1_radarinterface_radarscan"
range: 2.42335057259
angle: -0.302163660526
elev: 0.332885831594
doppler: -0.0795030742884
snr: 217
noise: 385
frame_num: 11797
point_id: 20
x: -0.681567370892
y: 2.18655347824
z: 0.791882634163
doppler_bin: 31
target_idx: 13
posX: -0.640044927597
posY: 2.13715147972
posZ: 0.645201683044
velX: 0.0121074765921
velY: -0.120316058397
velZ: 0.63654756546
accX: 0.0
accY: 0.0
accZ: 0.0
---
header: 
  seq: 102985
  stamp: 
    secs: 1596524044
    nsecs: 169312749
  frame_id: "node1_radarinterface_radarscan"
range: 2.5015232563
angle: -0.307694643736
elev: 0.380067408085
doppler: -0.0795030742884
snr: 133
noise: 397
frame_num: 11797
point_id: 21
x: -0.703553378582
y: 2.21391153336
z: 0.928022801876
doppler_bin: 31
target_idx: 13
posX: -0.640044927597
posY: 2.13715147972
posZ: 0.645201683044
velX: 0.0121074765921
velY: -0.120316058397
velZ: 0.63654756546
accX: 0.0
accY: 0.0
accZ: 0.0
---
header: 
  seq: 102986
  stamp: 
    secs: 1596524044
    nsecs: 270446723
  frame_id: "node1_radarinterface_radarscan"
range: 2.18883275986
angle: -0.262294203043
elev: 0.268592119217
doppler: 0.0
snr: 160
noise: 392
frame_num: 11798
point_id: 0
x: -0.547208189964
y: 2.03817415237
z: 0.580859959126
doppler_bin: 32
target_idx: 13
posX: -0.606627106667
posY: 2.14554977417
posZ: 0.626082003117
velX: 0.120348192751
velY: -0.0599758327007
velZ: 0.460424184799
accX: 0.0
accY: 0.0
accZ: 0.0
---
header: 
  seq: 102987
  stamp: 
    secs: 1596524044
    nsecs: 271072478
  frame_id: "node1_radarinterface_radarscan"
range: 2.26700544357
angle: -0.295168578625
elev: 0.2583091259
doppler: 0.0795030742884
snr: 306
noise: 394
frame_num: 11798
point_id: 6
x: -0.637595295906
y: 2.09700536728
z: 0.579097807407
doppler_bin: 33
target_idx: 13
posX: -0.606627106667
posY: 2.14554977417
posZ: 0.626082003117
velX: 0.120348192751
velY: -0.0599758327007
velZ: 0.460424184799
accX: 0.0
accY: 0.0
accZ: 0.0
---
header: 
  seq: 102988
  stamp: 
    secs: 1596524044
    nsecs: 271182468
  frame_id: "node1_radarinterface_radarscan"
range: 2.42335057259
angle: -0.127149090171
elev: 0.169009879231
doppler: 0.0795030742884
snr: 167
noise: 385
frame_num: 11798
point_id: 8
x: -0.302918791771
y: 2.36953806877
z: 0.407623112202
doppler_bin: 33
target_idx: 13
posX: -0.606627106667
posY: 2.14554977417
posZ: 0.626082003117
velX: 0.120348192751
velY: -0.0599758327007
velZ: 0.460424184799
accX: 0.0
accY: 0.0
accZ: 0.0
---
header: 
  seq: 102989
  stamp: 
    secs: 1596524044
    nsecs: 271205830
  frame_id: "node1_radarinterface_radarscan"
range: 2.18883275986
angle: -0.298011213541
elev: 0.291298419237
doppler: 0.159006148577
snr: 202
noise: 385
frame_num: 11798
point_id: 10
x: -0.615609169006
y: 2.00420689583
z: 0.62862443924
doppler_bin: 34
target_idx: 13
posX: -0.606627106667
posY: 2.14554977417
posZ: 0.626082003117
velX: 0.120348192751
velY: -0.0599758327007
velZ: 0.460424184799
accX: 0.0
accY: 0.0
accZ: 0.0
---
header: 
  seq: 102990
  stamp: 
    secs: 1596524044
    nsecs: 271228444
  frame_id: "node1_radarinterface_radarscan"
range: 2.18883275986
angle: -0.260210871696
elev: 0.23852442205
doppler: -0.0795030742884
snr: 249
noise: 402
frame_num: 11798
point_id: 13
x: -0.547208189964
y: 2.05526256561
z: 0.517153501511
doppler_bin: 31
target_idx: 13
posX: -0.606627106667
posY: 2.14554977417
posZ: 0.626082003117
velX: 0.120348192751
velY: -0.0599758327007
velZ: 0.460424184799
accX: 0.0
accY: 0.0
accZ: 0.0
---
header: 
  seq: 102991
  stamp: 
    secs: 1596524044
    nsecs: 271267653
  frame_id: "node1_radarinterface_radarscan"
range: 2.42335057259
angle: -0.125467807055
elev: 0.0471159219742
doppler: -0.0795030742884
snr: 144
noise: 393
frame_num: 11798
point_id: 16
x: -0.302918821573
y: 2.40163302422
z: 0.11413615942
doppler_bin: 31
target_idx: 13
posX: -0.606627106667
posY: 2.14554977417
posZ: 0.626082003117
velX: 0.120348192751
velY: -0.0599758327007
velZ: 0.460424184799
accX: 0.0
accY: 0.0
accZ: 0.0
---
header: 
  seq: 102992
  stamp: 
    secs: 1596524044
    nsecs: 370391059
  frame_id: "node1_radarinterface_radarscan"
range: 2.26700544357
angle: -0.293936908245
elev: 0.242434307933
doppler: 0.0
snr: 177
noise: 387
frame_num: 11799
point_id: 0
x: -0.637595236301
y: 2.10632300377
z: 0.544231951237
doppler_bin: 32
target_idx: 13
posX: -0.615368008614
posY: 2.13551020622
posZ: 0.656338095665
velX: 0.0699647292495
velY: -0.0768552199006
velZ: 0.444588720798
accX: 0.0
accY: 0.0
accZ: 0.0
---
header: 
  seq: 102993
  stamp: 
    secs: 1596524044
    nsecs: 370457643
  frame_id: "node1_radarinterface_radarscan"
range: 2.34517812729
angle: -0.295395493507
elev: 0.26111677289
doppler: 0.0795030742884
snr: 270
noise: 399
frame_num: 11799
point_id: 6
x: -0.659581363201
y: 2.16754865646
z: 0.605430305004
doppler_bin: 33
target_idx: 13
posX: -0.615368008614
posY: 2.13551020622
posZ: 0.656338095665
velX: 0.0699647292495
velY: -0.0768552199006
velZ: 0.444588720798
accX: 0.0
accY: 0.0
accZ: 0.0
---
header: 
  seq: 102994
  stamp: 
    secs: 1596524044
    nsecs: 370490533
  frame_id: "node1_radarinterface_radarscan"
range: 2.5015232563
angle: -0.253791928291
elev: 0.513054251671
doppler: 0.0795030742884
snr: 127
noise: 413
frame_num: 11799
point_id: 8
x: -0.547208249569
y: 2.10963702202
z: 1.22784900665
doppler_bin: 33
target_idx: 13
posX: -0.615368008614
posY: 2.13551020622
posZ: 0.656338095665
velX: 0.0699647292495
velY: -0.0768552199006
velZ: 0.444588720798
accX: 0.0
accY: 0.0
accZ: 0.0
---
header: 
  seq: 102995
  stamp: 
    secs: 1596524044
    nsecs: 370511640
  frame_id: "node1_radarinterface_radarscan"
range: 2.26700544357
angle: -0.297143191099
elev: 0.281690776348
doppler: 0.159006148577
snr: 231
noise: 375
frame_num: 11799
point_id: 10
x: -0.637595295906
y: 2.08222365379
z: 0.630182564259
doppler_bin: 34
target_idx: 13
posX: -0.615368008614
posY: 2.13551020622
posZ: 0.656338095665
velX: 0.0699647292495
velY: -0.0768552199006
velZ: 0.444588720798
accX: 0.0
accY: 0.0
accZ: 0.0
---
header: 
  seq: 102996
  stamp: 
    secs: 1596524044
    nsecs: 370555350
  frame_id: "node1_radarinterface_radarscan"
range: 2.26700544357
angle: -0.293394982815
elev: 0.235071718693
doppler: -0.0795030742884
snr: 308
noise: 371
frame_num: 11799
point_id: 13
x: -0.637595355511
y: 2.11044716835
z: 0.528014421463
doppler_bin: 31
target_idx: 13
posX: -0.615368008614
posY: 2.13551020622
posZ: 0.656338095665
velX: 0.0699647292495
velY: -0.0768552199006
velZ: 0.444588720798
accX: 0.0
accY: 0.0
accZ: 0.0
---
header: 
  seq: 102997
  stamp: 
    secs: 1596524044
    nsecs: 370571013
  frame_id: "node1_radarinterface_radarscan"
range: 2.5015232563
angle: -0.138370543718
elev: 0.436443984509
doppler: -0.0795030742884
snr: 137
noise: 393
frame_num: 11799
point_id: 16
x: -0.312690377235
y: 2.24536371231
z: 1.05744254589
doppler_bin: 31
target_idx: 13
posX: -0.615368008614
posY: 2.13551020622
posZ: 0.656338095665
velX: 0.0699647292495
velY: -0.0768552199006
velZ: 0.444588720798
accX: 0.0
accY: 0.0
accZ: 0.0
---
header: 
  seq: 102998
  stamp: 
    secs: 1596524044
    nsecs: 473699380
  frame_id: "node1_radarinterface_radarscan"
range: 2.26700544357
angle: -0.260407745838
elev: 0.2415445894
doppler: 0.0
snr: 164
noise: 395
frame_num: 11800
point_id: 0
x: -0.566751360893
y: 2.12698054314
z: 0.542273759842
doppler_bin: 32
target_idx: 13
posX: -0.630256593227
posY: 2.13236665726
posZ: 0.65388417244
velX: 0.00912080705166
velY: -0.067554064095
velZ: 0.338347673416
accX: 0.0
accY: 0.0
accZ: 0.0
---
header: 
  seq: 102999
  stamp: 
    secs: 1596524044
    nsecs: 473770014
  frame_id: "node1_radarinterface_radarscan"
range: 2.42335057259
angle: -0.327960014343
elev: 0.244914144278
doppler: 0.0795030742884
snr: 215
noise: 398
frame_num: 11800
point_id: 6
x: -0.757297039032
y: 2.22572636604
z: 0.587597131729
doppler_bin: 33
target_idx: 13
posX: -0.630256593227
posY: 2.13236665726
posZ: 0.65388417244
velX: 0.00912080705166
velY: -0.067554064095
velZ: 0.338347673416
accX: 0.0
accY: 0.0
accZ: 0.0
---
header: 
  seq: 103000
  stamp: 
    secs: 1596524044
    nsecs: 473784723
  frame_id: "node1_radarinterface_radarscan"
range: 2.5015232563
angle: -0.434624910355
elev: 0.472160369158
doppler: 0.0795030742884
snr: 117
noise: 411
frame_num: 11800
point_id: 8
x: -0.938071191311
y: 2.02070069313
z: 1.13772118092
doppler_bin: 33
target_idx: 13
posX: -0.630256593227
posY: 2.13236665726
posZ: 0.65388417244
velX: 0.00912080705166
velY: -0.067554064095
velZ: 0.338347673416
accX: 0.0
accY: 0.0
accZ: 0.0
---
header: 
  seq: 103001
  stamp: 
    secs: 1596524044
    nsecs: 473799132
  frame_id: "node1_radarinterface_radarscan"
range: 2.34517812729
angle: -0.295655339956
elev: 0.26429054141
doppler: 0.159006148577
snr: 206
noise: 380
frame_num: 11800
point_id: 10
x: -0.659581363201
y: 2.16552829742
z: 0.612618029118
doppler_bin: 34
target_idx: 13
posX: -0.630256593227
posY: 2.13236665726
posZ: 0.65388417244
velX: 0.00912080705166
velY: -0.067554064095
velZ: 0.338347673416
accX: 0.0
accY: 0.0
accZ: 0.0
---
header: 
  seq: 103002
  stamp: 
    secs: 1596524044
    nsecs: 473826680
  frame_id: "node1_radarinterface_radarscan"
range: 2.26700544357
angle: -0.293910890818
elev: 0.242086663842
doppler: -0.0795030742884
snr: 292
noise: 384
frame_num: 11800
point_id: 13
x: -0.637595236301
y: 2.10652065277
z: 0.543466866016
doppler_bin: 31
target_idx: 13
posX: -0.630256593227
posY: 2.13236665726
posZ: 0.65388417244
velX: 0.00912080705166
velY: -0.067554064095
velZ: 0.338347673416
accX: 0.0
accY: 0.0
accZ: 0.0
---
header: 
  seq: 103003
  stamp: 
    secs: 1596524044
    nsecs: 563668978
  frame_id: "node1_radarinterface_radarscan"
range: 2.11066031456
angle: -0.2949629426
elev: 0.255734831095
doppler: 0.0795030742884
snr: 121
noise: 430
frame_num: 11801
point_id: 0
x: -0.593623220921
y: 1.95382797718
z: 0.533905029297
doppler_bin: 33
target_idx: 13
posX: -0.644426703453
posY: 2.13307452202
posZ: 0.6399512887
velX: -0.0378446616232
velY: -0.0474770441651
velZ: 0.216170728207
accX: 0.0
accY: 0.0
accZ: 0.0
---
header: 
  seq: 103004
  stamp: 
    secs: 1596524044
    nsecs: 563763118
  frame_id: "node1_radarinterface_radarscan"
range: 2.5015232563
angle: -0.353462100029
elev: 0.4445759058
doppler: 0.0795030742884
snr: 113
noise: 406
frame_num: 11801
point_id: 6
x: -0.781726002693
y: 2.11874628067
z: 1.07584273815
doppler_bin: 33
target_idx: 13
posX: -0.644426703453
posY: 2.13307452202
posZ: 0.6399512887
velX: -0.0378446616232
velY: -0.0474770441651
velZ: 0.216170728207
accX: 0.0
accY: 0.0
accZ: 0.0
---
header: 
  seq: 103005
  stamp: 
    secs: 1596524044
    nsecs: 563823509
  frame_id: "node1_radarinterface_radarscan"
range: 2.18883275986
angle: -0.294040501118
elev: 0.243813917041
doppler: -0.0795030742884
snr: 207
noise: 410
frame_num: 11801
point_id: 10
x: -0.615609228611
y: 2.03293180466
z: 0.528396248817
doppler_bin: 31
target_idx: 13
posX: -0.644426703453
posY: 2.13307452202
posZ: 0.6399512887
velX: -0.0378446616232
velY: -0.0474770441651
velZ: 0.216170728207
accX: 0.0
accY: 0.0
accZ: 0.0
---
header: 
  seq: 103006
  stamp: 
    secs: 1596524044
    nsecs: 563854523
  frame_id: "node1_radarinterface_radarscan"
range: 2.42335057259
angle: -0.32029619813
elev: 0.122196026146
doppler: -0.0795030742884
snr: 182
noise: 392
frame_num: 11801
point_id: 13
x: -0.757297098637
y: 2.28295326233
z: 0.295387417078
doppler_bin: 31
target_idx: 13
posX: -0.644426703453
posY: 2.13307452202
posZ: 0.6399512887
velX: -0.0378446616232
velY: -0.0474770441651
velZ: 0.216170728207
accX: 0.0
accY: 0.0
accZ: 0.0
---
header: 
  seq: 103007
  stamp: 
    secs: 1596524044
    nsecs: 669024993
  frame_id: "node1_radarinterface_radarscan"
range: 2.34517812729
angle: -0.294762372971
elev: 0.253196120262
doppler: 0.0795030742884
snr: 236
noise: 420
frame_num: 11802
point_id: 6
x: -0.659581363201
y: 2.17248630524
z: 0.587465822697
doppler_bin: 33
target_idx: 13
posX: -0.635813832283
posY: 2.14503788948
posZ: 0.614707231522
velX: -0.00223664566875
velY: -0.000713095068932
velZ: 0.0812123417854
accX: 0.0
accY: 0.0
accZ: 0.0
---
header: 
  seq: 103008
  stamp: 
    secs: 1596524044
    nsecs: 669155698
  frame_id: "node1_radarinterface_radarscan"
range: 2.26700544357
angle: -0.299631476402
elev: 0.308313190937
doppler: 0.159006148577
snr: 190
noise: 397
frame_num: 11802
point_id: 8
x: -0.637595236301
y: 2.06386590004
z: 0.687926888466
doppler_bin: 34
target_idx: 13
posX: -0.635813832283
posY: 2.14503788948
posZ: 0.614707231522
velX: -0.00223664566875
velY: -0.000713095068932
velZ: 0.0812123417854
accX: 0.0
accY: 0.0
accZ: 0.0
---
header: 
  seq: 103009
  stamp: 
    secs: 1596524044
    nsecs: 669194052
  frame_id: "node1_radarinterface_radarscan"
range: 2.18883275986
angle: -0.261455833912
elev: 0.256964355707
doppler: -0.0795030742884
snr: 210
noise: 417
frame_num: 11802
point_id: 10
x: -0.547208189964
y: 2.04501891136
z: 0.556282579899
doppler_bin: 31
target_idx: 13
posX: -0.635813832283
posY: 2.14503788948
posZ: 0.614707231522
velX: -0.00223664566875
velY: -0.000713095068932
velZ: 0.0812123417854
accX: 0.0
accY: 0.0
accZ: 0.0
---
header: 
  seq: 103010
  stamp: 
    secs: 1596524044
    nsecs: 669266123
  frame_id: "node1_radarinterface_radarscan"
range: 2.42335057259
angle: -0.286999702454
elev: 0.113642185926
doppler: -0.0795030742884
snr: 201
noise: 391
frame_num: 11802
point_id: 13
x: -0.681567311287
y: 2.30923748016
z: 0.274802476168
doppler_bin: 31
target_idx: 13
posX: -0.635813832283
posY: 2.14503788948
posZ: 0.614707231522
velX: -0.00223664566875
velY: -0.000713095068932
velZ: 0.0812123417854
accX: 0.0
accY: 0.0
accZ: 0.0
---
header: 
  seq: 103011
  stamp: 
    secs: 1596524044
    nsecs: 773607695
  frame_id: "node1_radarinterface_radarscan"
range: 2.18883275986
angle: -0.265038520098
elev: 0.303174585104
doppler: 0.0795030742884
snr: 175
noise: 445
frame_num: 11803
point_id: 6
x: -0.547208189964
y: 2.01606464386
z: 0.653479337692
doppler_bin: 33
target_idx: 13
posX: -0.627158284187
posY: 2.15048098564
posZ: 0.613106608391
velX: 0.0263030771166
velY: 0.01493906416
velZ: 0.0311863124371
accX: 0.0
accY: 0.0
accZ: 0.0
---
header: 
  seq: 103012
  stamp: 
    secs: 1596524044
    nsecs: 773670726
  frame_id: "node1_radarinterface_radarscan"
range: 2.34517812729
angle: -0.295230358839
elev: 0.259076982737
doppler: 0.0795030742884
snr: 238
noise: 420
frame_num: 11803
point_id: 8
x: -0.659581363201
y: 2.16883468628
z: 0.600807547569
doppler_bin: 33
target_idx: 13
posX: -0.627158284187
posY: 2.15048098564
posZ: 0.613106608391
velX: 0.0263030771166
velY: 0.01493906416
velZ: 0.0311863124371
accX: 0.0
accY: 0.0
accZ: 0.0
---
header: 
  seq: 103013
  stamp: 
    secs: 1596524044
    nsecs: 773767401
  frame_id: "node1_radarinterface_radarscan"
range: 2.5015232563
angle: -0.230884537101
elev: 0.298040986061
doppler: 0.0795030742884
snr: 128
noise: 418
frame_num: 11803
point_id: 10
x: -0.547208249569
y: 2.32778692245
z: 0.734567582607
doppler_bin: 33
target_idx: 13
posX: -0.627158284187
posY: 2.15048098564
posZ: 0.613106608391
velX: 0.0263030771166
velY: 0.01493906416
velZ: 0.0311863124371
accX: 0.0
accY: 0.0
accZ: 0.0
---
header: 
  seq: 103014
  stamp: 
    secs: 1596524044
    nsecs: 773788836
  frame_id: "node1_radarinterface_radarscan"
range: 2.26700544357
angle: -0.260949015617
elev: 0.249639898539
doppler: -0.0795030742884
snr: 282
noise: 382
frame_num: 11803
point_id: 13
x: -0.566751360893
y: 2.12236237526
z: 0.560075104237
doppler_bin: 31
target_idx: 13
posX: -0.627158284187
posY: 2.15048098564
posZ: 0.613106608391
velX: 0.0263030771166
velY: 0.01493906416
velZ: 0.0311863124371
accX: 0.0
accY: 0.0
accZ: 0.0
---
header: 
  seq: 103015
  stamp: 
    secs: 1596524044
    nsecs: 773811531
  frame_id: "node1_radarinterface_radarscan"
range: 2.5015232563
angle: -0.263182431459
elev: 0.280321359634
doppler: -0.0795030742884
snr: 131
noise: 398
frame_num: 11803
point_id: 16
x: -0.625380814075
y: 2.32110738754
z: 0.692082643509
doppler_bin: 31
target_idx: 13
posX: -0.627158284187
posY: 2.15048098564
posZ: 0.613106608391
velX: 0.0263030771166
velY: 0.01493906416
velZ: 0.0311863124371
accX: 0.0
accY: 0.0
accZ: 0.0
---
header: 
  seq: 103016
  stamp: 
    secs: 1596524044
    nsecs: 863771379
  frame_id: "node1_radarinterface_radarscan"
range: 2.34517812729
angle: -0.297694504261
elev: 0.287835776806
doppler: 0.0795030742884
snr: 235
noise: 419
frame_num: 11804
point_id: 6
x: -0.659581303596
y: 2.14979028702
z: 0.665743768215
doppler_bin: 33
target_idx: 13
posX: -0.630758225918
posY: 2.13717722893
posZ: 0.626820266247
velX: 0.00660974904895
velY: -0.0119438506663
velZ: 0.0338697917759
accX: 0.0
accY: 0.0
accZ: 0.0
---
header: 
  seq: 103017
  stamp: 
    secs: 1596524044
    nsecs: 863857014
  frame_id: "node1_radarinterface_radarscan"
range: 2.18883275986
angle: -0.297561079264
elev: 0.286362379789
doppler: 0.159006148577
snr: 160
noise: 401
frame_num: 11804
point_id: 8
x: -0.615609228611
y: 2.00742602348
z: 0.618267774582
doppler_bin: 34
target_idx: 13
posX: -0.630758225918
posY: 2.13717722893
posZ: 0.626820266247
velX: 0.00660974904895
velY: -0.0119438506663
velZ: 0.0338697917759
accX: 0.0
accY: 0.0
accZ: 0.0
---
header: 
  seq: 103018
  stamp: 
    secs: 1596524044
    nsecs: 863876820
  frame_id: "node1_radarinterface_radarscan"
range: 2.11066031456
angle: -0.261512249708
elev: 0.257765084505
doppler: -0.0795030742884
snr: 126
noise: 397
frame_num: 11804
point_id: 10
x: -0.527665138245
y: 1.9715372324
z: 0.538049757481
doppler_bin: 31
target_idx: 13
posX: -0.630758225918
posY: 2.13717722893
posZ: 0.626820266247
velX: 0.00660974904895
velY: -0.0119438506663
velZ: 0.0338697917759
accX: 0.0
accY: 0.0
accZ: 0.0
---
header: 
  seq: 103019
  stamp: 
    secs: 1596524044
    nsecs: 863894362
  frame_id: "node1_radarinterface_radarscan"
range: 2.34517812729
angle: -0.295833557844
elev: 0.266442716122
doppler: -0.0795030742884
snr: 263
noise: 380
frame_num: 11804
point_id: 13
x: -0.659581422806
y: 2.16414451599
z: 0.617488563061
doppler_bin: 31
target_idx: 13
posX: -0.630758225918
posY: 2.13717722893
posZ: 0.626820266247
velX: 0.00660974904895
velY: -0.0119438506663
velZ: 0.0338697917759
accX: 0.0
accY: 0.0
accZ: 0.0
---
header: 
  seq: 103020
  stamp: 
    secs: 1596524044
    nsecs: 968729749
  frame_id: "node1_radarinterface_radarscan"
range: 2.18883275986
angle: -0.296004801989
elev: 0.268492460251
doppler: 0.0795030742884
snr: 213
noise: 437
frame_num: 11805
point_id: 6
x: -0.615609288216
y: 2.01862835884
z: 0.580649614334
doppler_bin: 33
target_idx: 13
posX: -0.612223088741
posY: 2.15320420265
posZ: 0.577632248402
velX: 0.0625493377447
velY: 0.0404169335961
velZ: -0.123008154333
accX: 0.0
accY: 0.0
accZ: 0.0
---
header: 
  seq: 103021
  stamp: 
    secs: 1596524044
    nsecs: 968823066
  frame_id: "node1_radarinterface_radarscan"
range: 2.34517812729
angle: -0.258826583624
elev: 0.215979009867
doppler: 0.0795030742884
snr: 256
noise: 408
frame_num: 11805
point_id: 8
x: -0.586294591427
y: 2.21439194679
z: 0.502580583096
doppler_bin: 33
target_idx: 13
posX: -0.612223088741
posY: 2.15320420265
posZ: 0.577632248402
velX: 0.0625493377447
velY: 0.0404169335961
velZ: -0.123008154333
accX: 0.0
accY: 0.0
accZ: 0.0
---
header: 
  seq: 103022
  stamp: 
    secs: 1596524044
    nsecs: 968871582
  frame_id: "node1_radarinterface_radarscan"
range: 2.26700544357
angle: -0.295202612877
elev: 0.258732497692
doppler: 0.159006148577
snr: 213
noise: 384
frame_num: 11805
point_id: 10
x: -0.637595295906
y: 2.09674906731
z: 0.580025672913
doppler_bin: 34
target_idx: 13
posX: -0.612223088741
posY: 2.15320420265
posZ: 0.577632248402
velX: 0.0625493377447
velY: 0.0404169335961
velZ: -0.123008154333
accX: 0.0
accY: 0.0
accZ: 0.0
---
header: 
  seq: 103023
  stamp: 
    secs: 1596524044
    nsecs: 968953204
  frame_id: "node1_radarinterface_radarscan"
range: 2.26700544357
angle: -0.258953005075
elev: 0.218143835664
doppler: -0.0795030742884
snr: 281
noise: 398
frame_num: 11805
point_id: 16
x: -0.566751301289
y: 2.13948535919
z: 0.49062037468
doppler_bin: 31
target_idx: 13
posX: -0.612223088741
posY: 2.15320420265
posZ: 0.577632248402
velX: 0.0625493377447
velY: 0.0404169335961
velZ: -0.123008154333
accX: 0.0
accY: 0.0
accZ: 0.0
---
header: 
  seq: 103024
  stamp: 
    secs: 1596524045
    nsecs:  73652386
  frame_id: "node1_radarinterface_radarscan"
range: 2.18883275986
angle: -0.294966250658
elev: 0.255776524544
doppler: 0.0795030742884
snr: 242
noise: 420
frame_num: 11806
point_id: 6
x: -0.615609228611
y: 2.02616786957
z: 0.553767561913
doppler_bin: 33
target_idx: 13
posX: -0.631073653698
posY: 2.15788865089
posZ: 0.528231084347
velX: -0.00663401186466
velY: 0.0618137940764
velZ: -0.251069694757
accX: 0.0
accY: 0.0
accZ: 0.0
---
header: 
  seq: 103025
  stamp: 
    secs: 1596524045
    nsecs:  73717476
  frame_id: "node1_radarinterface_radarscan"
range: 2.34517812729
angle: -0.292339593172
elev: 0.219954654574
doppler: 0.0795030742884
snr: 276
noise: 404
frame_num: 11806
point_id: 8
x: -0.659581303596
y: 2.19157314301
z: 0.51168358326
doppler_bin: 33
target_idx: 13
posX: -0.631073653698
posY: 2.15788865089
posZ: 0.528231084347
velX: -0.00663401186466
velY: 0.0618137940764
velZ: -0.251069694757
accX: 0.0
accY: 0.0
accZ: 0.0
---
header: 
  seq: 103026
  stamp: 
    secs: 1596524045
    nsecs:  73737030
  frame_id: "node1_radarinterface_radarscan"
range: 2.18883275986
angle: -0.29532495141
elev: 0.260247468948
doppler: 0.159006148577
snr: 186
noise: 391
frame_num: 11806
point_id: 10
x: -0.615609169006
y: 2.02355766296
z: 0.563229799271
doppler_bin: 34
target_idx: 13
posX: -0.631073653698
posY: 2.15788865089
posZ: 0.528231084347
velX: -0.00663401186466
velY: 0.0618137940764
velZ: -0.251069694757
accX: 0.0
accY: 0.0
accZ: 0.0
---
header: 
  seq: 103027
  stamp: 
    secs: 1596524045
    nsecs:  73751311
  frame_id: "node1_radarinterface_radarscan"
range: 2.34517812729
angle: -0.290771573782
elev: 0.195144206285
doppler: -0.0795030742884
snr: 264
noise: 402
frame_num: 11806
point_id: 16
x: -0.659581422806
y: 2.20409083366
z: 0.454748809338
doppler_bin: 31
target_idx: 13
posX: -0.631073653698
posY: 2.15788865089
posZ: 0.528231084347
velX: -0.00663401186466
velY: 0.0618137940764
velZ: -0.251069694757
accX: 0.0
accY: 0.0
accZ: 0.0
---
header: 
  seq: 103028
  stamp: 
    secs: 1596524045
    nsecs: 163657826
  frame_id: "node1_radarinterface_radarscan"
range: 2.34517812729
angle: -0.286557883024
elev: 0.0996472314
doppler: 0.0
snr: 170
noise: 384
frame_num: 11807
point_id: 0
x: -0.659581363201
y: 2.23838829994
z: 0.233303964138
doppler_bin: 32
target_idx: 13
posX: -0.64544069767
posY: 2.1733288765
posZ: 0.460824012756
velX: -0.0483980551362
velY: 0.0967028588057
velZ: -0.406335622072
accX: 0.0
accY: 0.0
accZ: 0.0
---
header: 
  seq: 103029
  stamp: 
    secs: 1596524045
    nsecs: 164075327
  frame_id: "node1_radarinterface_radarscan"
range: 2.5015232563
angle: -0.336600720882
elev: 0.329619735479
doppler: 0.0795030742884
snr: 120
noise: 407
frame_num: 11807
point_id: 6
x: -0.781726002693
y: 2.23403382301
z: 0.8097012043
doppler_bin: 33
target_idx: 13
posX: -0.64544069767
posY: 2.1733288765
posZ: 0.460824012756
velX: -0.0483980551362
velY: 0.0967028588057
velZ: -0.406335622072
accX: 0.0
accY: 0.0
accZ: 0.0
---
header: 
  seq: 103030
  stamp: 
    secs: 1596524045
    nsecs: 164093643
  frame_id: "node1_radarinterface_radarscan"
range: 2.34517812729
angle: -0.289834320545
elev: 0.17855001986
doppler: 0.159006148577
snr: 205
noise: 395
frame_num: 11807
point_id: 8
x: -0.659581363201
y: 2.21163582802
z: 0.416510283947
doppler_bin: 34
target_idx: 13
posX: -0.64544069767
posY: 2.1733288765
posZ: 0.460824012756
velX: -0.0483980551362
velY: 0.0967028588057
velZ: -0.406335622072
accX: 0.0
accY: 0.0
accZ: 0.0
---
header: 
  seq: 103031
  stamp: 
    secs: 1596524045
    nsecs: 164103328
  frame_id: "node1_radarinterface_radarscan"
range: 2.34517812729
angle: -0.287992596626
elev: 0.139978155494
doppler: -0.0795030742884
snr: 283
noise: 391
frame_num: 11807
point_id: 13
x: -0.659581363201
y: 2.22660088539
z: 0.327202737331
doppler_bin: 31
target_idx: 13
posX: -0.64544069767
posY: 2.1733288765
posZ: 0.460824012756
velX: -0.0483980551362
velY: 0.0967028588057
velZ: -0.406335622072
accX: 0.0
accY: 0.0
accZ: 0.0
---
header: 
  seq: 103032
  stamp: 
    secs: 1596524045
    nsecs: 269429717
  frame_id: "node1_radarinterface_radarscan"
range: 2.5015232563
angle: -0.158547282219
elev: 0.143989428878
doppler: 0.0795030742884
snr: 131
noise: 419
frame_num: 11808
point_id: 6
x: -0.390863001347
y: 2.44458580017
z: 0.358949542046
doppler_bin: 33
target_idx: 13
posX: -0.62894910574
posY: 2.17406249046
posZ: 0.460655003786
velX: 0.00497190654278
velY: 0.0949906259775
velZ: -0.356952309608
accX: 0.0
accY: 0.0
accZ: 0.0
---
header: 
  seq: 103033
  stamp: 
    secs: 1596524045
    nsecs: 269621410
  frame_id: "node1_radarinterface_radarscan"
range: 2.18883275986
angle: -0.295002013445
elev: 0.256226360798
doppler: 0.159006148577
snr: 189
noise: 392
frame_num: 11808
point_id: 8
x: -0.615609228611
y: 2.02590703964
z: 0.554720103741
doppler_bin: 34
target_idx: 13
posX: -0.62894910574
posY: 2.17406249046
posZ: 0.460655003786
velX: 0.00497190654278
velY: 0.0949906259775
velZ: -0.356952309608
accX: 0.0
accY: 0.0
accZ: 0.0
---
header: 
  seq: 103034
  stamp: 
    secs: 1596524045
    nsecs: 269652555
  frame_id: "node1_radarinterface_radarscan"
range: 2.34517812729
angle: -0.294304907322
elev: 0.247296348214
doppler: 0.159006148577
snr: 219
noise: 388
frame_num: 11808
point_id: 10
x: -0.659581303596
y: 2.17606687546
z: 0.574060797691
doppler_bin: 34
target_idx: 13
posX: -0.62894910574
posY: 2.17406249046
posZ: 0.460655003786
velX: 0.00497190654278
velY: 0.0949906259775
velZ: -0.356952309608
accX: 0.0
accY: 0.0
accZ: 0.0
---
header: 
  seq: 103035
  stamp: 
    secs: 1596524045
    nsecs: 269679742
  frame_id: "node1_radarinterface_radarscan"
range: 2.18883275986
angle: -0.258635014296
elev: 0.212653890252
doppler: -0.0795030742884
snr: 266
noise: 393
frame_num: 11808
point_id: 13
x: -0.54720813036
y: 2.06836676598
z: 0.461963564157
doppler_bin: 31
target_idx: 13
posX: -0.62894910574
posY: 2.17406249046
posZ: 0.460655003786
velX: 0.00497190654278
velY: 0.0949906259775
velZ: -0.356952309608
accX: 0.0
accY: 0.0
accZ: 0.0
---
header: 
  seq: 103036
  stamp: 
    secs: 1596524045
    nsecs: 269809830
  frame_id: "node1_radarinterface_radarscan"
range: 2.42335057259
angle: -0.292882174253
elev: 0.227863177657
doppler: -0.0795030742884
snr: 233
noise: 390
frame_num: 11808
point_id: 16
x: -0.681567370892
y: 2.26018095016
z: 0.54742628336
doppler_bin: 31
target_idx: 13
posX: -0.62894910574
posY: 2.17406249046
posZ: 0.460655003786
velX: 0.00497190654278
velY: 0.0949906259775
velZ: -0.356952309608
accX: 0.0
accY: 0.0
accZ: 0.0
---
header: 
  seq: 103037
  stamp: 
    secs: 1596524045
    nsecs: 373431792
  frame_id: "node1_radarinterface_radarscan"
range: 2.18883275986
angle: -0.296062707901
elev: 0.269181519747
doppler: 0.0795030742884
snr: 227
noise: 406
frame_num: 11809
point_id: 0
x: -0.615609228611
y: 2.0182094574
z: 0.582103729248
doppler_bin: 33
target_idx: 13
posX: -0.641126930714
posY: 2.16683363914
posZ: 0.488389879465
velX: -0.0412867590785
velY: 0.0659745335579
velZ: -0.227016612887
accX: 0.0
accY: 0.0
accZ: 0.0
---
header: 
  seq: 103038
  stamp: 
    secs: 1596524045
    nsecs: 373517280
  frame_id: "node1_radarinterface_radarscan"
range: 2.26700544357
angle: -0.294086754322
elev: 0.244427114725
doppler: -0.0795030742884
snr: 256
noise: 412
frame_num: 11809
point_id: 8
x: -0.637595236301
y: 2.10518550873
z: 0.548616468906
doppler_bin: 31
target_idx: 13
posX: -0.641126930714
posY: 2.16683363914
posZ: 0.488389879465
velX: -0.0412867590785
velY: 0.0659745335579
velZ: -0.227016612887
accX: 0.0
accY: 0.0
accZ: 0.0
---
header: 
  seq: 103039
  stamp: 
    secs: 1596524045
    nsecs: 373526682
  frame_id: "node1_radarinterface_radarscan"
range: 2.42335057259
angle: -0.328076213598
elev: 0.246276661754
doppler: -0.0795030742884
snr: 194
noise: 394
frame_num: 11809
point_id: 10
x: -0.757296979427
y: 2.22487854958
z: 0.590799927711
doppler_bin: 31
target_idx: 13
posX: -0.641126930714
posY: 2.16683363914
posZ: 0.488389879465
velX: -0.0412867590785
velY: 0.0659745335579
velZ: -0.227016612887
accX: 0.0
accY: 0.0
accZ: 0.0
---
header: 
  seq: 103040
  stamp: 
    secs: 1596524045
    nsecs: 463566017
  frame_id: "node1_radarinterface_radarscan"
range: 2.18883275986
angle: -0.296045839787
elev: 0.268981158733
doppler: 0.0795030742884
snr: 137
noise: 409
frame_num: 11810
point_id: 0
x: -0.615609169006
y: 2.01833128929
z: 0.581680953503
doppler_bin: 33
target_idx: 13
posX: -0.663059473038
posY: 2.15682077408
posZ: 0.518194079399
velX: -0.107205510139
velY: 0.0249852389097
velZ: -0.105576977134
accX: 0.0
accY: 0.0
accZ: 0.0
---
header: 
  seq: 103041
  stamp: 
    secs: 1596524045
    nsecs: 463633600
  frame_id: "node1_radarinterface_radarscan"
range: 2.26700544357
angle: -0.296940475702
elev: 0.279392421246
doppler: -0.0795030742884
snr: 169
noise: 402
frame_num: 11810
point_id: 6
x: -0.637595295906
y: 2.08373236656
z: 0.625175893307
doppler_bin: 31
target_idx: 13
posX: -0.663059473038
posY: 2.15682077408
posZ: 0.518194079399
velX: -0.107205510139
velY: 0.0249852389097
velZ: -0.105576977134
accX: 0.0
accY: 0.0
accZ: 0.0
---
header: 
  seq: 103042
  stamp: 
    secs: 1596524045
    nsecs: 463698883
  frame_id: "node1_radarinterface_radarscan"
range: 2.42335057259
angle: -0.367084264755
elev: 0.291548997164
doppler: -0.0795030742884
snr: 140
noise: 393
frame_num: 11810
point_id: 8
x: -0.833026826382
y: 2.16644883156
z: 0.696558654308
doppler_bin: 31
target_idx: 13
posX: -0.663059473038
posY: 2.15682077408
posZ: 0.518194079399
velX: -0.107205510139
velY: 0.0249852389097
velZ: -0.105576977134
accX: 0.0
accY: 0.0
accZ: 0.0
---
header: 
  seq: 103043
  stamp: 
    secs: 1596524045
    nsecs: 568854455
  frame_id: "node1_radarinterface_radarscan"
range: 2.26700544357
angle: -0.289861887693
elev: 0.17906139791
doppler: -0.0795030742884
snr: 207
noise: 372
frame_num: 11811
point_id: 10
x: -0.637595236301
y: 2.1376991272
z: 0.40376740694
doppler_bin: 31
target_idx: 13
posX: -0.647423565388
posY: 2.17091178894
posZ: 0.457586228848
velX: -0.0372499451041
velY: 0.0558130554855
velZ: -0.246261268854
accX: 0.0
accY: 0.0
accZ: 0.0
---
header: 
  seq: 103044
  stamp: 
    secs: 1596524045
    nsecs: 673453323
  frame_id: "node1_radarinterface_radarscan"
range: 2.18883275986
angle: -0.292193114758
elev: 0.217766061425
doppler: 0.0795030742884
snr: 168
noise: 422
frame_num: 11812
point_id: 0
x: -0.615609228611
y: 2.04655432701
z: 0.472895085812
doppler_bin: 33
target_idx: 13
posX: -0.628967106342
posY: 2.18467593193
posZ: 0.412822842598
velX: 0.0258486717939
velY: 0.0861811637878
velZ: -0.319848120213
accX: 0.0
accY: 0.0
accZ: 0.0
---
header: 
  seq: 103045
  stamp: 
    secs: 1596524045
    nsecs: 673523694
  frame_id: "node1_radarinterface_radarscan"
range: 2.18883275986
angle: -0.287862479687
elev: 0.136823818088
doppler: -0.0795030742884
snr: 131
noise: 444
frame_num: 11812
point_id: 8
x: -0.615609228611
y: 2.07915401459
z: 0.298550903797
doppler_bin: 31
target_idx: 13
posX: -0.628967106342
posY: 2.18467593193
posZ: 0.412822842598
velX: 0.0258486717939
velY: 0.0861811637878
velZ: -0.319848120213
accX: 0.0
accY: 0.0
accZ: 0.0
---
header: 
  seq: 103046
  stamp: 
    secs: 1596524045
    nsecs: 673533385
  frame_id: "node1_radarinterface_radarscan"
range: 2.34517812729
angle: -0.285105764866
elev: 0.00798206962645
doppler: -0.0795030742884
snr: 137
noise: 421
frame_num: 11812
point_id: 10
x: -0.659581363201
y: 2.25043606758
z: 0.0187191758305
doppler_bin: 31
target_idx: 13
posX: -0.628967106342
posY: 2.18467593193
posZ: 0.412822842598
velX: 0.0258486717939
velY: 0.0861811637878
velZ: -0.319848120213
accX: 0.0
accY: 0.0
accZ: 0.0
---
header: 
  seq: 103047
  stamp: 
    secs: 1596524045
    nsecs: 763665638
  frame_id: "node1_radarinterface_radarscan"
range: 2.34517812729
angle: -0.28620582819
elev: 0.0868653506041
doppler: 0.0795030742884
snr: 205
noise: 388
frame_num: 11813
point_id: 3
x: -0.659581363201
y: 2.2412981987
z: 0.203458622098
doppler_bin: 33
target_idx: 13
posX: -0.634137630463
posY: 2.19821953773
posZ: 0.327299505472
velX: 0.0123704820871
velY: 0.100146874785
velZ: -0.483493089676
accX: 0.0
accY: 0.0
accZ: 0.0
---
header: 
  seq: 103048
  stamp: 
    secs: 1596524045
    nsecs: 763768955
  frame_id: "node1_radarinterface_radarscan"
range: 2.42335057259
angle: -0.320844113827
elev: 0.134959504008
doppler: 0.0795030742884
snr: 163
noise: 387
frame_num: 11813
point_id: 4
x: -0.757297039032
y: 2.27877426147
z: 0.326062262058
doppler_bin: 33
target_idx: 13
posX: -0.634137630463
posY: 2.19821953773
posZ: 0.327299505472
velX: 0.0123704820871
velY: 0.100146874785
velZ: -0.483493089676
accX: 0.0
accY: 0.0
accZ: 0.0
---
header: 
  seq: 103049
  stamp: 
    secs: 1596524045
    nsecs: 763812270
  frame_id: "node1_radarinterface_radarscan"
range: 2.26700544357
angle: -0.285655260086
elev: 0.0617009811103
doppler: -0.0795030742884
snr: 206
noise: 393
frame_num: 11813
point_id: 9
x: -0.637595295906
y: 2.17100095749
z: 0.139787718654
doppler_bin: 31
target_idx: 13
posX: -0.634137630463
posY: 2.19821953773
posZ: 0.327299505472
velX: 0.0123704820871
velY: 0.100146874785
velZ: -0.483493089676
accX: 0.0
accY: 0.0
accZ: 0.0
---
header: 
  seq: 103050
  stamp: 
    secs: 1596524045
    nsecs: 868799063
  frame_id: "node1_radarinterface_radarscan"
range: 2.18883275986
angle: -0.293322473764
elev: 0.234067127109
doppler: 0.0795030742884
snr: 174
noise: 415
frame_num: 11814
point_id: 2
x: -0.615609288216
y: 2.03820681572
z: 0.507668375969
doppler_bin: 33
target_idx: 13
posX: -0.607292830944
posY: 2.21101403236
posZ: 0.324049651623
velX: 0.0900045260787
velY: 0.109274409711
velZ: -0.412914305925
accX: 0.0
accY: 0.0
accZ: 0.0
---
header: 
  seq: 103051
  stamp: 
    secs: 1596524045
    nsecs: 868875965
  frame_id: "node1_radarinterface_radarscan"
range: 2.42335057259
angle: -0.254451960325
elev: 0.116800859571
doppler: -0.0795030742884
snr: 201
noise: 387
frame_num: 11814
point_id: 13
x: -0.605837643147
y: 2.32934236526
z: 0.282406300306
doppler_bin: 31
target_idx: 13
posX: -0.607292830944
posY: 2.21101403236
posZ: 0.324049651623
velX: 0.0900045260787
velY: 0.109274409711
velZ: -0.412914305925
accX: 0.0
accY: 0.0
accZ: 0.0
---
header: 
  seq: 103052
  stamp: 
    secs: 1596524045
    nsecs: 973623566
  frame_id: "node1_radarinterface_radarscan"
range: 2.5015232563
angle: -0.0633843764663
elev: 0.163227424026
doppler: 0.0795030742884
snr: 123
noise: 398
frame_num: 11815
point_id: 2
x: -0.156345203519
y: 2.46331644058
z: 0.406506478786
doppler_bin: 33
target_idx: 13
posX: -0.554199814796
posY: 2.25451350212
posZ: 0.220427244902
velX: 0.23944735527
velY: 0.182531222701
velZ: -0.601604104042
accX: 0.0
accY: 0.0
accZ: 0.0
---
header: 
  seq: 103053
  stamp: 
    secs: 1596524046
    nsecs:  64103635
  frame_id: "node1_radarinterface_radarscan"
range: 2.26700544357
angle: -0.291980564594
elev: 0.214546918869
doppler: 0.0795030742884
snr: 223
noise: 390
frame_num: 11816
point_id: 2
x: -0.637595236301
y: 2.12127995491
z: 0.482656240463
doppler_bin: 33
target_idx: 13
posX: -0.596490383148
posY: 2.23329806328
posZ: 0.292958766222
velX: 0.0749779641628
velY: 0.0954151600599
velZ: -0.316405922174
accX: 0.0
accY: 0.0
accZ: 0.0
---
header: 
  seq: 103054
  stamp: 
    secs: 1596524046
    nsecs: 168374888
  frame_id: "node1_radarinterface_radarscan"
range: 2.18883275986
angle: -0.261193603277
elev: 0.253203928471
doppler: 0.0795030742884
snr: 193
noise: 395
frame_num: 11817
point_id: 0
x: -0.547208249569
y: 2.04716873169
z: 0.548317968845
doppler_bin: 33
target_idx: 13
posX: -0.602341353893
posY: 2.22139310837
posZ: 0.325899124146
velX: 0.0382713600993
velY: 0.0461954250932
velZ: -0.164294213057
accX: 0.0
accY: 0.0
accZ: 0.0
---
header: 
  seq: 103055
  stamp: 
    secs: 1596524046
    nsecs: 168422044
  frame_id: "node1_radarinterface_radarscan"
range: 2.34517812729
angle: -0.254960656166
elev: 0.132400333881
doppler: 0.0795030742884
snr: 197
noise: 387
frame_num: 11817
point_id: 2
x: -0.586294531822
y: 2.24950432777
z: 0.3095959723
doppler_bin: 33
target_idx: 13
posX: -0.602341353893
posY: 2.22139310837
posZ: 0.325899124146
velX: 0.0382713600993
velY: 0.0461954250932
velZ: -0.164294213057
accX: 0.0
accY: 0.0
accZ: 0.0
---
header: 
  seq: 103056
  stamp: 
    secs: 1596524046
    nsecs: 273561969
  frame_id: "node1_radarinterface_radarscan"
range: 2.18883275986
angle: -0.296457380056
elev: 0.273826241493
doppler: 0.0795030742884
snr: 125
noise: 424
frame_num: 11818
point_id: 2
x: -0.615609228611
y: 2.01535892487
z: 0.591897785664
doppler_bin: 33
target_idx: 13
posX: -0.53034222126
posY: 2.23814558983
posZ: 0.371127188206
velX: 0.231943964958
velY: 0.0713371038437
velZ: -0.00360363721848
accX: 0.0
accY: 0.0
accZ: 0.0
---
header: 
  seq: 103057
  stamp: 
    secs: 1596524046
    nsecs: 273646073
  frame_id: "node1_radarinterface_radarscan"
range: 2.34517812729
angle: -0.319358795881
elev: 0.096405737102
doppler: -0.0795030742884
snr: 168
noise: 377
frame_num: 11818
point_id: 9
x: -0.732868134975
y: 2.21625947952
z: 0.225738570094
doppler_bin: 31
target_idx: 13
posX: -0.53034222126
posY: 2.23814558983
posZ: 0.371127188206
velX: 0.231943964958
velY: 0.0713371038437
velZ: -0.00360363721848
accX: 0.0
accY: 0.0
accZ: 0.0
---
header: 
  seq: 103058
  stamp: 
    secs: 1596524046
    nsecs: 363584109
  frame_id: "node1_radarinterface_radarscan"
range: 2.18883275986
angle: -0.267000079155
elev: 0.325322955847
doppler: 0.0795030742884
snr: 176
noise: 384
frame_num: 11819
point_id: 0
x: -0.547208249569
y: 2.0005338192
z: 0.699583411217
doppler_bin: 33
target_idx: 13
posX: -0.589383482933
posY: 2.21187329292
posZ: 0.486655920744
velX: 0.0161953419447
velY: -0.0221834629774
velZ: 0.312757998705
accX: 0.0
accY: 0.0
accZ: 0.0
---
header: 
  seq: 103059
  stamp: 
    secs: 1596524046
    nsecs: 363653187
  frame_id: "node1_radarinterface_radarscan"
range: 2.34517812729
angle: -0.366867125034
elev: 0.289660334587
doppler: 0.0795030742884
snr: 213
noise: 390
frame_num: 11819
point_id: 2
x: -0.806154966354
y: 2.09792304039
z: 0.66984552145
doppler_bin: 33
target_idx: 13
posX: -0.589383482933
posY: 2.21187329292
posZ: 0.486655920744
velX: 0.0161953419447
velY: -0.0221834629774
velZ: 0.312757998705
accX: 0.0
accY: 0.0
accZ: 0.0
---
header: 
  seq: 103060
  stamp: 
    secs: 1596524046
    nsecs: 363700506
  frame_id: "node1_radarinterface_radarscan"
range: 2.34517812729
angle: -0.326230108738
elev: 0.22354657948
doppler: -0.0795030742884
snr: 206
noise: 390
frame_num: 11819
point_id: 9
x: -0.732868134975
y: 2.16621041298
z: 0.519900977612
doppler_bin: 31
target_idx: 13
posX: -0.589383482933
posY: 2.21187329292
posZ: 0.486655920744
velX: 0.0161953419447
velY: -0.0221834629774
velZ: 0.312757998705
accX: 0.0
accY: 0.0
accZ: 0.0
---
header: 
  seq: 103061
  stamp: 
    secs: 1596524046
    nsecs: 468162163
  frame_id: "node1_radarinterface_radarscan"
range: 2.18883275986
angle: -0.261451512575
elev: 0.256903022528
doppler: 0.0795030742884
snr: 189
noise: 408
frame_num: 11820
point_id: 0
x: -0.547208189964
y: 2.04505419731
z: 0.556152701378
doppler_bin: 33
target_idx: 13
posX: -0.600916624069
posY: 2.20127868652
posZ: 0.483496248722
velX: -0.029939128086
velY: -0.0559692196548
velZ: 0.282998472452
accX: 0.0
accY: 0.0
accZ: 0.0
---
header: 
  seq: 103062
  stamp: 
    secs: 1596524046
    nsecs: 468286677
  frame_id: "node1_radarinterface_radarscan"
range: 2.34517812729
angle: -0.253297030926
elev: 0.0690479576588
doppler: 0.0795030742884
snr: 190
noise: 389
frame_num: 11820
point_id: 2
x: -0.586294531822
y: 2.26493692398
z: 0.161801114678
doppler_bin: 33
target_idx: 13
posX: -0.600916624069
posY: 2.20127868652
posZ: 0.483496248722
velX: -0.029939128086
velY: -0.0559692196548
velZ: 0.282998472452
accX: 0.0
accY: 0.0
accZ: 0.0
---
header: 
  seq: 103063
  stamp: 
    secs: 1596524046
    nsecs: 568629402
  frame_id: "node1_radarinterface_radarscan"
range: 2.18883275986
angle: -0.259345203638
elev: 0.224715292454
doppler: 0.0795030742884
snr: 180
noise: 421
frame_num: 11821
point_id: 0
x: -0.547208189964
y: 2.06244206429
z: 0.487735033035
doppler_bin: 33
target_idx: 13
posX: -0.577303469181
posY: 2.20553207397
posZ: 0.500815153122
velX: 0.0393936671317
velY: -0.0486918799579
velZ: 0.299028038979
accX: 0.0
accY: 0.0
accZ: 0.0
---
header: 
  seq: 103064
  stamp: 
    secs: 1596524046
    nsecs: 568738326
  frame_id: "node1_radarinterface_radarscan"
range: 2.34517812729
angle: -0.261817783117
elev: 0.262055277824
doppler: 0.0795030742884
snr: 208
noise: 409
frame_num: 11821
point_id: 2
x: -0.586294531822
y: 2.18792009354
z: 0.607556402683
doppler_bin: 33
target_idx: 13
posX: -0.577303469181
posY: 2.20553207397
posZ: 0.500815153122
velX: 0.0393936671317
velY: -0.0486918799579
velZ: 0.299028038979
accX: 0.0
accY: 0.0
accZ: 0.0
---
header: 
  seq: 103065
  stamp: 
    secs: 1596524046
    nsecs: 568764832
  frame_id: "node1_radarinterface_radarscan"
range: 2.18883275986
angle: -0.257164806128
elev: 0.184992209077
doppler: -0.0795030742884
snr: 212
noise: 379
frame_num: 11821
point_id: 10
x: -0.547208189964
y: 2.08073449135
z: 0.40261143446
doppler_bin: 31
target_idx: 13
posX: -0.577303469181
posY: 2.20553207397
posZ: 0.500815153122
velX: 0.0393936671317
velY: -0.0486918799579
velZ: 0.299028038979
accX: 0.0
accY: 0.0
accZ: 0.0
---
header: 
  seq: 103066
  stamp: 
    secs: 1596524046
    nsecs: 568795477
  frame_id: "node1_radarinterface_radarscan"
range: 2.42335057259
angle: -0.418617874384
elev: -0.0349379591644
doppler: -0.0795030742884
snr: 168
noise: 384
frame_num: 11821
point_id: 13
x: -0.984486162663
y: 2.21274709702
z: -0.0846496969461
doppler_bin: 31
target_idx: 13
posX: -0.577303469181
posY: 2.20553207397
posZ: 0.500815153122
velX: 0.0393936671317
velY: -0.0486918799579
velZ: 0.299028038979
accX: 0.0
accY: 0.0
accZ: 0.0
---
header: 
  seq: 103067
  stamp: 
    secs: 1596524046
    nsecs: 568804298
  frame_id: "node1_radarinterface_radarscan"
range: 2.5015232563
angle: -0.0631715804338
elev: 0.141345649958
doppler: -0.0795030742884
snr: 123
noise: 393
frame_num: 11821
point_id: 15
x: -0.156345203519
y: 2.47163629532
z: 0.352403283119
doppler_bin: 31
target_idx: 13
posX: -0.577303469181
posY: 2.20553207397
posZ: 0.500815153122
velX: 0.0393936671317
velY: -0.0486918799579
velZ: 0.299028038979
accX: 0.0
accY: 0.0
accZ: 0.0
---
header: 
  seq: 103068
  stamp: 
    secs: 1596524046
    nsecs: 673443341
  frame_id: "node1_radarinterface_radarscan"
range: 2.18883275986
angle: -0.261596947908
elev: 0.258962720633
doppler: 0.0795030742884
snr: 210
noise: 388
frame_num: 11822
point_id: 0
x: -0.54720813036
y: 2.04386353493
z: 0.560511887074
doppler_bin: 33
target_idx: 13
posX: -0.551028370857
posY: 2.20413923264
posZ: 0.534027397633
velX: 0.106575638056
velY: -0.0515452101827
velZ: 0.34878256917
accX: 0.0
accY: 0.0
accZ: 0.0
---
header: 
  seq: 103069
  stamp: 
    secs: 1596524046
    nsecs: 673509949
  frame_id: "node1_radarinterface_radarscan"
range: 2.34517812729
angle: -0.260819017887
elev: 0.247722506523
doppler: 0.0795030742884
snr: 243
noise: 388
frame_num: 11822
point_id: 2
x: -0.586294531822
y: 2.19669294357
z: 0.575029790401
doppler_bin: 33
target_idx: 13
posX: -0.551028370857
posY: 2.20413923264
posZ: 0.534027397633
velX: 0.106575638056
velY: -0.0515452101827
velZ: 0.34878256917
accX: 0.0
accY: 0.0
accZ: 0.0
---
header: 
  seq: 103070
  stamp: 
    secs: 1596524046
    nsecs: 763488935
  frame_id: "node1_radarinterface_radarscan"
range: 2.18883275986
angle: -0.258000344038
elev: 0.201211959124
doppler: 0.0795030742884
snr: 202
noise: 399
frame_num: 11823
point_id: 0
x: -0.547208249569
y: 2.07368922234
z: 0.437453508377
doppler_bin: 33
target_idx: 13
posX: -0.564256250858
posY: 2.19781136513
posZ: 0.528714478016
velX: 0.0407196879387
velY: -0.0615082196891
velZ: 0.286120295525
accX: 0.0
accY: 0.0
accZ: 0.0
---
header: 
  seq: 103071
  stamp: 
    secs: 1596524046
    nsecs: 763581868
  frame_id: "node1_radarinterface_radarscan"
range: 2.34517812729
angle: -0.292028903961
elev: 0.215283334255
doppler: 0.0795030742884
snr: 244
noise: 391
frame_num: 11823
point_id: 2
x: -0.659581363201
y: 2.19404315948
z: 0.500986874104
doppler_bin: 33
target_idx: 13
posX: -0.564256250858
posY: 2.19781136513
posZ: 0.528714478016
velX: 0.0407196879387
velY: -0.0615082196891
velZ: 0.286120295525
accX: 0.0
accY: 0.0
accZ: 0.0
---
header: 
  seq: 103072
  stamp: 
    secs: 1596524046
    nsecs: 868511833
  frame_id: "node1_radarinterface_radarscan"
range: 2.18883275986
angle: -0.255926817656
elev: 0.157723590732
doppler: 0.0795030742884
snr: 155
noise: 419
frame_num: 11824
point_id: 0
x: -0.54720813036
y: 2.09125614166
z: 0.343800961971
doppler_bin: 33
target_idx: 13
posX: -0.588312864304
posY: 2.19954204559
posZ: 0.481209903955
velX: -0.0452058129013
velY: -0.0453634336591
velZ: 0.11580953002
accX: 0.0
accY: 0.0
accZ: 0.0
---
header: 
  seq: 103073
  stamp: 
    secs: 1596524046
    nsecs: 868608786
  frame_id: "node1_radarinterface_radarscan"
range: 2.34517812729
angle: -0.221266493201
elev: 0.0807662382722
doppler: 0.0795030742884
snr: 162
noise: 412
frame_num: 11824
point_id: 2
x: -0.513007700443
y: 2.28054475784
z: 0.189205348492
doppler_bin: 33
target_idx: 13
posX: -0.588312864304
posY: 2.19954204559
posZ: 0.481209903955
velX: -0.0452058129013
velY: -0.0453634336591
velZ: 0.11580953002
accX: 0.0
accY: 0.0
accZ: 0.0
---
header: 
  seq: 103074
  stamp: 
    secs: 1596524046
    nsecs: 969743549
  frame_id: "node1_radarinterface_radarscan"
range: 2.18883275986
angle: -0.261011868715
elev: 0.250561267138
doppler: -0.0795030742884
snr: 195
noise: 382
frame_num: 11825
point_id: 8
x: -0.547208189964
y: 2.04866075516
z: 0.542716145515
doppler_bin: 31
target_idx: 13
posX: -0.596850335598
posY: 2.17089104652
posZ: 0.558579623699
velX: -0.0749703347683
velY: -0.114415720105
velZ: 0.296841919422
accX: 0.0
accY: 0.0
accZ: 0.0
---
header: 
  seq: 103075
  stamp: 
    secs: 1596524046
    nsecs: 969843197
  frame_id: "node1_radarinterface_radarscan"
range: 2.26700544357
angle: -0.229258313775
elev: 0.274452269077
doppler: -0.0795030742884
snr: 231
noise: 379
frame_num: 11825
point_id: 9
x: -0.49590742588
y: 2.1250641346
z: 0.614403247833
doppler_bin: 31
target_idx: 13
posX: -0.596850335598
posY: 2.17089104652
posZ: 0.558579623699
velX: -0.0749703347683
velY: -0.114415720105
velZ: 0.296841919422
accX: 0.0
accY: 0.0
accZ: 0.0
---
header: 
  seq: 103076
  stamp: 
    secs: 1596524047
    nsecs:  73834142
  frame_id: "node1_radarinterface_radarscan"
range: 2.18883275986
angle: -0.261578202248
elev: 0.258697986603
doppler: 0.0795030742884
snr: 197
noise: 389
frame_num: 11826
point_id: 2
x: -0.547208189964
y: 2.04401707649
z: 0.559951782227
doppler_bin: 33
target_idx: 13
posX: -0.614911556244
posY: 2.17041158676
posZ: 0.533375442028
velX: -0.119927912951
velY: -0.0935783237219
velZ: 0.182289749384
accX: 0.0
accY: 0.0
accZ: 0.0
---
header: 
  seq: 103077
  stamp: 
    secs: 1596524047
    nsecs:  73930450
  frame_id: "node1_radarinterface_radarscan"
range: 2.26700544357
angle: -0.290079802275
elev: 0.183050781488
doppler: -0.0795030742884
snr: 232
noise: 404
frame_num: 11826
point_id: 15
x: -0.637595295906
y: 2.13599967957
z: 0.412663519382
doppler_bin: 31
target_idx: 13
posX: -0.614911556244
posY: 2.17041158676
posZ: 0.533375442028
velX: -0.119927912951
velY: -0.0935783237219
velZ: 0.182289749384
accX: 0.0
accY: 0.0
accZ: 0.0
---
header: 
  seq: 103078
  stamp: 
    secs: 1596524047
    nsecs: 163494587
  frame_id: "node1_radarinterface_radarscan"
range: 2.18883275986
angle: -0.298717439175
elev: 0.298853129148
doppler: 0.0795030742884
snr: 183
noise: 403
frame_num: 11827
point_id: 0
x: -0.615609288216
y: 1.99917590618
z: 0.644445717335
doppler_bin: 33
target_idx: 13
posX: -0.65040409565
posY: 2.12126636505
posZ: 0.645731329918
velX: -0.21593336761
velY: -0.203994587064
velZ: 0.438021630049
accX: 0.0
accY: 0.0
accZ: 0.0
---
header: 
  seq: 103079
  stamp: 
    secs: 1596524047
    nsecs: 163552303
  frame_id: "node1_radarinterface_radarscan"
range: 2.34517812729
angle: -0.34184217453
elev: 0.370311737061
doppler: 0.0795030742884
snr: 176
noise: 397
frame_num: 11827
point_id: 2
x: -0.732868134975
y: 2.05971240997
z: 0.848734140396
doppler_bin: 33
target_idx: 13
posX: -0.65040409565
posY: 2.12126636505
posZ: 0.645731329918
velX: -0.21593336761
velY: -0.203994587064
velZ: 0.438021630049
accX: 0.0
accY: 0.0
accZ: 0.0
---
header: 
  seq: 103080
  stamp: 
    secs: 1596524047
    nsecs: 268585395
  frame_id: "node1_radarinterface_radarscan"
range: 2.18883275986
angle: -0.26672154665
elev: 0.322287410498
doppler: 0.0795030742884
snr: 199
noise: 410
frame_num: 11828
point_id: 2
x: -0.547208189964
y: 2.00272536278
z: 0.693284392357
doppler_bin: 33
target_idx: 13
posX: -0.670664250851
posY: 2.08584189415
posZ: 0.730092346668
velX: -0.242111116648
velY: -0.265968382359
velZ: 0.577603757381
accX: 0.0
accY: 0.0
accZ: 0.0
---
header: 
  seq: 103081
  stamp: 
    secs: 1596524047
    nsecs: 268650015
  frame_id: "node1_radarinterface_radarscan"
range: 2.26700544357
angle: -0.299062848091
elev: 0.302468836308
doppler: -0.0795030742884
snr: 254
noise: 392
frame_num: 11828
point_id: 9
x: -0.637595295906
y: 2.06803488731
z: 0.675290763378
doppler_bin: 31
target_idx: 13
posX: -0.670664250851
posY: 2.08584189415
posZ: 0.730092346668
velX: -0.242111116648
velY: -0.265968382359
velZ: 0.577603757381
accX: 0.0
accY: 0.0
accZ: 0.0
---
header: 
  seq: 103082
  stamp: 
    secs: 1596524047
    nsecs: 370575054
  frame_id: "node1_radarinterface_radarscan"
range: 2.18883275986
angle: -0.296683490276
elev: 0.276447355747
doppler: 0.0795030742884
snr: 196
noise: 405
frame_num: 11829
point_id: 2
x: -0.615609228611
y: 2.01372885704
z: 0.597419202328
doppler_bin: 33
target_idx: 13
posX: -0.698878288269
posY: 2.09049296379
posZ: 0.704389095306
velX: -0.27659830451
velY: -0.204244852066
velZ: 0.417505741119
accX: 0.0
accY: 0.0
accZ: 0.0
---
header: 
  seq: 103083
  stamp: 
    secs: 1596524047
    nsecs: 370645034
  frame_id: "node1_radarinterface_radarscan"
range: 2.34517812729
angle: -0.326945304871
elev: 0.232642740011
doppler: -0.0795030742884
