header: 
  seq: 44690
  stamp: 
    secs: 1596613215
    nsecs: 604529664
  frame_id: "node1_radarinterface_radarscan"
range: 1.79796981812
angle: -0.160978034139
elev: 0.224820300937
doppler: 0.0
snr: 214
noise: 431
frame_num: 3984
point_id: 0
x: -0.280932784081
y: 1.73006141186
z: 0.400823563337
doppler_bin: 32
target_idx: 2
posX: -0.297897338867
posY: 1.91568100452
posZ: 0.465357869864
velX: -0.112340278924
velY: -0.00102888792753
velZ: -0.262321710587
accX: 0.0
accY: 0.0
accZ: 0.0
---
header: 
  seq: 44691
  stamp: 
    secs: 1596613215
    nsecs: 604609782
  frame_id: "node1_radarinterface_radarscan"
range: 2.03248763084
angle: -0.0639725252986
elev: 0.211826041341
doppler: 0.0
snr: 302
noise: 432
frame_num: 3984
point_id: 3
x: -0.127030476928
y: 1.9829941988
z: 0.427321344614
doppler_bin: 32
target_idx: 2
posX: -0.297897338867
posY: 1.91568100452
posZ: 0.465357869864
velX: -0.112340278924
velY: -0.00102888792753
velZ: -0.262321710587
accX: 0.0
accY: 0.0
accZ: 0.0
---
header: 
  seq: 44692
  stamp: 
    secs: 1596613215
    nsecs: 604642134
  frame_id: "node1_radarinterface_radarscan"
range: 1.87614250183
angle: -0.235456258059
elev: 0.354882031679
doppler: 0.0795030742884
snr: 262
noise: 494
frame_num: 3984
point_id: 10
x: -0.410406172276
y: 1.71069455147
z: 0.651921510696
doppler_bin: 33
target_idx: 2
posX: -0.297897338867
posY: 1.91568100452
posZ: 0.465357869864
velX: -0.112340278924
velY: -0.00102888792753
velZ: -0.262321710587
accX: 0.0
accY: 0.0
accZ: 0.0
---
header: 
  seq: 44693
  stamp: 
    secs: 1596613215
    nsecs: 604687422
  frame_id: "node1_radarinterface_radarscan"
range: 1.79796981812
angle: -0.0946900993586
elev: 0.130069151521
doppler: -0.0795030742884
snr: 159
noise: 485
frame_num: 3984
point_id: 27
x: -0.168559670448
y: 1.77479577065
z: 0.233201563358
doppler_bin: 31
target_idx: 2
posX: -0.297897338867
posY: 1.91568100452
posZ: 0.465357869864
velX: -0.112340278924
velY: -0.00102888792753
velZ: -0.262321710587
accX: 0.0
accY: 0.0
accZ: 0.0
---
header: 
  seq: 44694
  stamp: 
    secs: 1596613215
    nsecs: 604698248
  frame_id: "node1_radarinterface_radarscan"
range: 2.03248763084
angle: -0.0628462210298
elev: 0.09856967628
doppler: -0.0795030742884
snr: 234
noise: 495
frame_num: 3984
point_id: 30
x: -0.127030476928
y: 2.01862883568
z: 0.200017392635
doppler_bin: 31
target_idx: 2
posX: -0.297897338867
posY: 1.91568100452
posZ: 0.465357869864
velX: -0.112340278924
velY: -0.00102888792753
velZ: -0.262321710587
accX: 0.0
accY: 0.0
accZ: 0.0
---
header: 
  seq: 44695
  stamp: 
    secs: 1596613215
    nsecs: 704632911
  frame_id: "node1_radarinterface_radarscan"
range: 1.79796981812
angle: -0.169531241059
elev: 0.386885225773
doppler: 0.0
snr: 154
noise: 483
frame_num: 3985
point_id: 3
x: -0.280932784081
y: 1.64120912552
z: 0.678384244442
doppler_bin: 32
target_idx: 2
posX: -0.325843781233
posY: 1.89527583122
posZ: 0.516250967979
velX: -0.219771206379
velY: 0.00675378739834
velZ: -0.0659986287355
accX: 0.0
accY: 0.0
accZ: 0.0
---
header: 
  seq: 44696
  stamp: 
    secs: 1596613215
    nsecs: 704683881
  frame_id: "node1_radarinterface_radarscan"
range: 1.79796981812
angle: -0.162522152066
elev: 0.262852191925
doppler: 0.0795030742884
snr: 141
noise: 518
frame_num: 3985
point_id: 8
x: -0.280932784081
y: 1.71333539486
z: 0.46717697382
doppler_bin: 33
target_idx: 2
posX: -0.325843781233
posY: 1.89527583122
posZ: 0.516250967979
velX: -0.219771206379
velY: 0.00675378739834
velZ: -0.0659986287355
accX: 0.0
accY: 0.0
accZ: 0.0
---
header: 
  seq: 44697
  stamp: 
    secs: 1596613215
    nsecs: 704760904
  frame_id: "node1_radarinterface_radarscan"
range: 1.79796981812
angle: -0.260120004416
elev: 0.237116336823
doppler: 0.238509222865
snr: 241
noise: 461
frame_num: 3985
point_id: 19
x: -0.449492454529
y: 1.68886864185
z: 0.422344237566
doppler_bin: 35
target_idx: 2
posX: -0.325843781233
posY: 1.89527583122
posZ: 0.516250967979
velX: -0.219771206379
velY: 0.00675378739834
velZ: -0.0659986287355
accX: 0.0
accY: 0.0
accZ: 0.0
---
header: 
  seq: 44698
  stamp: 
    secs: 1596613215
    nsecs: 704809228
  frame_id: "node1_radarinterface_radarscan"
range: 1.87614250183
angle: -0.228765144944
elev: 0.266826748848
doppler: 0.318012297153
snr: 318
noise: 447
frame_num: 3985
point_id: 24
x: -0.410406172276
y: 1.76260137558
z: 0.49468588829
doppler_bin: 36
target_idx: 2
posX: -0.325843781233
posY: 1.89527583122
posZ: 0.516250967979
velX: -0.219771206379
velY: 0.00675378739834
velZ: -0.0659986287355
accX: 0.0
accY: 0.0
accZ: 0.0
---
header: 
  seq: 44699
  stamp: 
    secs: 1596613215
    nsecs: 704845970
  frame_id: "node1_radarinterface_radarscan"
range: 1.95431506634
angle: -0.228719308972
elev: 0.266105473042
doppler: 0.318012297153
snr: 354
noise: 448
frame_num: 3985
point_id: 25
x: -0.427506417036
y: 1.83642411232
z: 0.513937950134
doppler_bin: 36
target_idx: 2
posX: -0.325843781233
posY: 1.89527583122
posZ: 0.516250967979
velX: -0.219771206379
velY: 0.00675378739834
velZ: -0.0659986287355
accX: 0.0
accY: 0.0
accZ: 0.0
---
header: 
  seq: 44700
  stamp: 
    secs: 1596613215
    nsecs: 704857762
  frame_id: "node1_radarinterface_radarscan"
range: 2.03248763084
angle: -0.228256762028
elev: 0.25870013237
doppler: 0.318012297153
snr: 331
noise: 448
frame_num: 3985
point_id: 26
x: -0.444606661797
y: 1.91388940811
z: 0.519959449768
doppler_bin: 36
target_idx: 2
posX: -0.325843781233
posY: 1.89527583122
posZ: 0.516250967979
velX: -0.219771206379
velY: 0.00675378739834
velZ: -0.0659986287355
accX: 0.0
accY: 0.0
accZ: 0.0
---
header: 
  seq: 44701
  stamp: 
    secs: 1596613215
    nsecs: 704866351
  frame_id: "node1_radarinterface_radarscan"
range: 2.18883275986
angle: -0.109434083104
elev: 0.538668751717
doppler: -0.318012297153
snr: 266
noise: 366
frame_num: 3985
point_id: 27
x: -0.205203056335
y: 1.86763799191
z: 1.12285745144
doppler_bin: 28
target_idx: 2
posX: -0.325843781233
posY: 1.89527583122
posZ: 0.516250967979
velX: -0.219771206379
velY: 0.00675378739834
velZ: -0.0659986287355
accX: 0.0
accY: 0.0
accZ: 0.0
---
header: 
  seq: 44702
  stamp: 
    secs: 1596613215
    nsecs: 704877514
  frame_id: "node1_radarinterface_radarscan"
range: 2.11066031456
angle: 0.0
elev: 0.349257230759
doppler: -0.238509222865
snr: 310
noise: 375
frame_num: 3985
point_id: 30
x: 0.0
y: 1.98323369026
z: 0.722267925739
doppler_bin: 29
target_idx: 2
posX: -0.325843781233
posY: 1.89527583122
posZ: 0.516250967979
velX: -0.219771206379
velY: 0.00675378739834
velZ: -0.0659986287355
accX: 0.0
accY: 0.0
accZ: 0.0
---
header: 
  seq: 44703
  stamp: 
    secs: 1596613215
    nsecs: 704890976
  frame_id: "node1_radarinterface_radarscan"
range: 1.79796981812
angle: -0.162340328097
elev: 0.258694350719
doppler: -0.159006148577
snr: 254
noise: 392
frame_num: 3985
point_id: 34
x: -0.280932784081
y: 1.71528840065
z: 0.459954053164
doppler_bin: 30
target_idx: 2
posX: -0.325843781233
posY: 1.89527583122
posZ: 0.516250967979
velX: -0.219771206379
velY: 0.00675378739834
velZ: -0.0659986287355
accX: 0.0
accY: 0.0
accZ: 0.0
---
header: 
  seq: 44704
  stamp: 
    secs: 1596613215
    nsecs: 704916794
  frame_id: "node1_radarinterface_radarscan"
range: 2.11066031456
angle: 0.0
elev: 0.375836104155
doppler: -0.159006148577
snr: 275
noise: 417
frame_num: 3985
point_id: 35
x: 0.0
y: 1.9633384943
z: 0.774718701839
doppler_bin: 30
target_idx: 2
posX: -0.325843781233
posY: 1.89527583122
posZ: 0.516250967979
velX: -0.219771206379
velY: 0.00675378739834
velZ: -0.0659986287355
accX: 0.0
accY: 0.0
accZ: 0.0
---
header: 
  seq: 44705
  stamp: 
    secs: 1596613215
    nsecs: 805073999
  frame_id: "node1_radarinterface_radarscan"
range: 1.79796981812
angle: -0.129571259022
elev: 0.255943596363
doppler: 0.0
snr: 198
noise: 496
frame_num: 3986
point_id: 5
x: -0.224746227264
y: 1.72481989861
z: 0.455171138048
doppler_bin: 32
target_idx: 2
posX: -0.259043037891
posY: 1.90818476677
posZ: 0.510403990746
velX: 0.0580125451088
velY: 0.081361413002
velZ: -0.0727011337876
accX: 0.0
accY: 0.0
accZ: 0.0
---
header: 
  seq: 44706
  stamp: 
    secs: 1596613215
    nsecs: 805149242
  frame_id: "node1_radarinterface_radarscan"
range: 1.95431506634
angle: -0.129829615355
elev: 0.263399302959
doppler: 0.0
snr: 303
noise: 504
frame_num: 3986
point_id: 7
x: -0.244289398193
y: 1.87103140354
z: 0.508833527565
doppler_bin: 32
target_idx: 2
posX: -0.259043037891
posY: 1.90818476677
posZ: 0.510403990746
velX: 0.0580125451088
velY: 0.081361413002
velZ: -0.0727011337876
accX: 0.0
accY: 0.0
accZ: 0.0
---
header: 
  seq: 44707
  stamp: 
    secs: 1596613215
    nsecs: 805173882
  frame_id: "node1_radarinterface_radarscan"
range: 1.87614250183
angle: -0.195073053241
elev: 0.256429940462
doppler: 0.0795030742884
snr: 199
noise: 549
frame_num: 3986
point_id: 13
x: -0.351776719093
y: 1.78037536144
z: 0.4758438766
doppler_bin: 33
target_idx: 2
posX: -0.259043037891
posY: 1.90818476677
posZ: 0.510403990746
velX: 0.0580125451088
velY: 0.081361413002
velZ: -0.0727011337876
accX: 0.0
accY: 0.0
accZ: 0.0
---
header: 
  seq: 44708
  stamp: 
    secs: 1596613215
    nsecs: 805223287
  frame_id: "node1_radarinterface_radarscan"
range: 2.26700544357
angle: -0.0313811004162
elev: 0.0896321311593
doppler: 0.636024594307
snr: 235
noise: 392
frame_num: 3986
point_id: 24
x: -0.0708439126611
y: 2.25679326057
z: 0.202924564481
doppler_bin: 40
target_idx: 2
posX: -0.259043037891
posY: 1.90818476677
posZ: 0.510403990746
velX: 0.0580125451088
velY: 0.081361413002
velZ: -0.0727011337876
accX: 0.0
accY: 0.0
accZ: 0.0
---
header: 
  seq: 44709
  stamp: 
    secs: 1596613215
    nsecs: 805273190
  frame_id: "node1_radarinterface_radarscan"
range: 2.18883275986
angle: -0.062880858779
elev: 0.103984408081
doppler: 0.715527653694
snr: 251
noise: 367
frame_num: 3986
point_id: 25
x: -0.136802047491
y: 2.17270731926
z: 0.227194532752
doppler_bin: 41
target_idx: 2
posX: -0.259043037891
posY: 1.90818476677
posZ: 0.510403990746
velX: 0.0580125451088
velY: 0.081361413002
velZ: -0.0727011337876
accX: 0.0
accY: 0.0
accZ: 0.0
---
header: 
  seq: 44710
  stamp: 
    secs: 1596613215
    nsecs: 805292097
  frame_id: "node1_radarinterface_radarscan"
range: 1.95431506634
angle: -0.0332545973361
elev: 0.34847971797
doppler: -0.238509222865
snr: 360
noise: 366
frame_num: 3986
point_id: 26
x: -0.0610723495483
y: 1.83583140373
z: 0.667338609695
doppler_bin: 29
target_idx: 2
posX: -0.259043037891
posY: 1.90818476677
posZ: 0.510403990746
velX: 0.0580125451088
velY: 0.081361413002
velZ: -0.0727011337876
accX: 0.0
accY: 0.0
accZ: 0.0
---
header: 
  seq: 44711
  stamp: 
    secs: 1596613215
    nsecs: 805317852
  frame_id: "node1_radarinterface_radarscan"
range: 2.03248763084
angle: -0.0327382870018
elev: 0.302111297846
doppler: -0.238509222865
snr: 411
noise: 368
frame_num: 3986
point_id: 27
x: -0.0635152459145
y: 1.93939745426
z: 0.604739367962
doppler_bin: 29
target_idx: 2
posX: -0.259043037891
posY: 1.90818476677
posZ: 0.510403990746
velX: 0.0580125451088
velY: 0.081361413002
velZ: -0.0727011337876
accX: 0.0
accY: 0.0
accZ: 0.0
---
header: 
  seq: 44712
  stamp: 
    secs: 1596613215
    nsecs: 805343714
  frame_id: "node1_radarinterface_radarscan"
range: 1.71979725361
angle: -0.126374512911
elev: 0.128453060985
doppler: -0.159006148577
snr: 132
noise: 393
frame_num: 3986
point_id: 30
x: -0.214974671602
y: 1.69202649593
z: 0.220306202769
doppler_bin: 30
target_idx: 2
posX: -0.259043037891
posY: 1.90818476677
posZ: 0.510403990746
velX: 0.0580125451088
velY: 0.081361413002
velZ: -0.0727011337876
accX: 0.0
accY: 0.0
accZ: 0.0
---
header: 
  seq: 44713
  stamp: 
    secs: 1596613215
    nsecs: 805395961
  frame_id: "node1_radarinterface_radarscan"
range: 1.87614250183
angle: -0.097688831389
elev: 0.279447734356
doppler: -0.159006148577
snr: 362
noise: 398
frame_num: 3986
point_id: 32
x: -0.175888359547
y: 1.79476499557
z: 0.51748675108
doppler_bin: 30
target_idx: 2
posX: -0.259043037891
posY: 1.90818476677
posZ: 0.510403990746
velX: 0.0580125451088
velY: 0.081361413002
velZ: -0.0727011337876
accX: 0.0
accY: 0.0
accZ: 0.0
---
header: 
  seq: 44714
  stamp: 
    secs: 1596613215
    nsecs: 805406351
  frame_id: "node1_radarinterface_radarscan"
range: 2.03248763084
angle: -0.0327272750437
elev: 0.301030188799
doppler: -0.159006148577
snr: 418
noise: 410
frame_num: 3986
point_id: 34
x: -0.0635152384639
y: 1.94005036354
z: 0.602641165257
doppler_bin: 30
target_idx: 2
posX: -0.259043037891
posY: 1.90818476677
posZ: 0.510403990746
velX: 0.0580125451088
velY: 0.081361413002
velZ: -0.0727011337876
accX: 0.0
accY: 0.0
accZ: 0.0
---
header: 
  seq: 44715
  stamp: 
    secs: 1596613215
    nsecs: 805420951
  frame_id: "node1_radarinterface_radarscan"
range: 2.11066031456
angle: -0.0326785035431
elev: 0.296186983585
doppler: -0.159006148577
snr: 373
noise: 427
frame_num: 3986
point_id: 35
x: -0.06595813483
y: 2.01767659187
z: 0.616049706936
doppler_bin: 30
target_idx: 2
posX: -0.259043037891
posY: 1.90818476677
posZ: 0.510403990746
velX: 0.0580125451088
velY: 0.081361413002
velZ: -0.0727011337876
accX: 0.0
accY: 0.0
accZ: 0.0
---
header: 
  seq: 44716
  stamp: 
    secs: 1596613215
    nsecs: 805436692
  frame_id: "node1_radarinterface_radarscan"
range: 1.95431506634
angle: -0.096963621676
elev: 0.252166479826
doppler: -0.0795030742884
snr: 370
noise: 472
frame_num: 3986
point_id: 42
x: -0.183217033744
y: 1.88361847401
z: 0.487606495619
doppler_bin: 31
target_idx: 2
posX: -0.259043037891
posY: 1.90818476677
posZ: 0.510403990746
velX: 0.0580125451088
velY: 0.081361413002
velZ: -0.0727011337876
accX: 0.0
accY: 0.0
accZ: 0.0
---
header: 
  seq: 44717
  stamp: 
    secs: 1596613215
    nsecs: 805455717
  frame_id: "node1_radarinterface_radarscan"
range: 2.03248763084
angle: -0.0647753477097
elev: 0.26325404644
doppler: -0.0795030742884
snr: 344
noise: 476
frame_num: 3986
point_id: 43
x: -0.127030476928
y: 1.95834934711
z: 0.52890175581
doppler_bin: 31
target_idx: 2
posX: -0.259043037891
posY: 1.90818476677
posZ: 0.510403990746
velX: 0.0580125451088
velY: 0.081361413002
velZ: -0.0727011337876
accX: 0.0
accY: 0.0
accZ: 0.0
---
header: 
  seq: 44718
  stamp: 
    secs: 1596613215
    nsecs: 903757288
  frame_id: "node1_radarinterface_radarscan"
range: 1.87614250183
angle: -0.0664560869336
elev: 0.344740152359
doppler: 0.0
snr: 202
noise: 508
frame_num: 3987
point_id: 5
x: -0.117258913815
y: 1.76185882092
z: 0.634046375751
doppler_bin: 32
target_idx: 2
posX: -0.250482827425
posY: 1.9215824604
posZ: 0.489055514336
velX: 0.0774728283286
velY: 0.100302882493
velZ: -0.126865893602
accX: 0.0
accY: 0.0
accZ: 0.0
---
header: 
  seq: 44719
  stamp: 
    secs: 1596613215
    nsecs: 903805827
  frame_id: "node1_radarinterface_radarscan"
range: 1.79796981812
angle: -0.162538081408
elev: 0.263213008642
doppler: 0.0795030742884
snr: 121
noise: 545
frame_num: 3987
point_id: 11
x: -0.280932784081
y: 1.71316444874
z: 0.467803418636
doppler_bin: 33
target_idx: 2
posX: -0.250482827425
posY: 1.9215824604
posZ: 0.489055514336
velX: 0.0774728283286
velY: 0.100302882493
velZ: -0.126865893602
accX: 0.0
accY: 0.0
accZ: 0.0
---
header: 
  seq: 44720
  stamp: 
    secs: 1596613215
    nsecs: 903824343
  frame_id: "node1_radarinterface_radarscan"
range: 2.11066031456
angle: -0.289636522532
elev: 0.174834191799
doppler: 0.55652153492
snr: 345
noise: 361
frame_num: 3987
point_id: 24
x: -0.593623161316
y: 1.99191057682
z: 0.367138504982
doppler_bin: 39
target_idx: 2
posX: -0.250482827425
posY: 1.9215824604
posZ: 0.489055514336
velX: 0.0774728283286
velY: 0.100302882493
velZ: -0.126865893602
accX: 0.0
accY: 0.0
accZ: 0.0
---
header: 
  seq: 44721
  stamp: 
    secs: 1596613215
    nsecs: 903841603
  frame_id: "node1_radarinterface_radarscan"
range: 1.95431506634
angle: -0.0328734144568
elev: 0.315029025078
doppler: -0.318012297153
snr: 309
noise: 374
frame_num: 3987
point_id: 28
x: -0.0610723420978
y: 1.85713422298
z: 0.605532944202
doppler_bin: 28
target_idx: 2
posX: -0.250482827425
posY: 1.9215824604
posZ: 0.489055514336
velX: 0.0774728283286
velY: 0.100302882493
velZ: -0.126865893602
accX: 0.0
accY: 0.0
accZ: 0.0
---
header: 
  seq: 44722
  stamp: 
    secs: 1596613215
    nsecs: 903860109
  frame_id: "node1_radarinterface_radarscan"
range: 2.03248763084
angle: -0.0329766087234
elev: 0.324490904808
doppler: -0.318012297153
snr: 330
noise: 377
frame_num: 3987
point_id: 29
x: -0.0635152384639
y: 1.92537117004
z: 0.648010492325
doppler_bin: 28
target_idx: 2
posX: -0.250482827425
posY: 1.9215824604
posZ: 0.489055514336
velX: 0.0774728283286
velY: 0.100302882493
velZ: -0.126865893602
accX: 0.0
accY: 0.0
accZ: 0.0
---
header: 
  seq: 44723
  stamp: 
    secs: 1596613215
    nsecs: 903875568
  frame_id: "node1_radarinterface_radarscan"
range: 2.18883275986
angle: -0.0313128642738
elev: 0.0607459880412
doppler: -0.318012297153
snr: 279
noise: 382
frame_num: 3987
point_id: 31
x: -0.0684010311961
y: 2.1837246418
z: 0.132881045341
doppler_bin: 28
target_idx: 2
posX: -0.250482827425
posY: 1.9215824604
posZ: 0.489055514336
velX: 0.0774728283286
velY: 0.100302882493
velZ: -0.126865893602
accX: 0.0
accY: 0.0
accZ: 0.0
---
header: 
  seq: 44724
  stamp: 
    secs: 1596613215
    nsecs: 903890909
  frame_id: "node1_radarinterface_radarscan"
range: 1.87614250183
angle: -0.0330399237573
elev: 0.330138146877
doppler: -0.238509222865
snr: 313
noise: 369
frame_num: 3987
point_id: 33
x: -0.0586294569075
y: 1.77385759354
z: 0.608196079731
doppler_bin: 29
target_idx: 2
posX: -0.250482827425
posY: 1.9215824604
posZ: 0.489055514336
velX: 0.0774728283286
velY: 0.100302882493
velZ: -0.126865893602
accX: 0.0
accY: 0.0
accZ: 0.0
---
header: 
  seq: 44725
  stamp: 
    secs: 1596613215
    nsecs: 903905990
  frame_id: "node1_radarinterface_radarscan"
range: 2.03248763084
angle: -0.0329635329545
elev: 0.323309838772
doppler: -0.238509222865
snr: 420
noise: 372
frame_num: 3987
point_id: 35
x: -0.0635152384639
y: 1.92613565922
z: 0.645734846592
doppler_bin: 29
target_idx: 2
posX: -0.250482827425
posY: 1.9215824604
posZ: 0.489055514336
velX: 0.0774728283286
velY: 0.100302882493
velZ: -0.126865893602
accX: 0.0
accY: 0.0
accZ: 0.0
---
header: 
  seq: 44726
  stamp: 
    secs: 1596613215
    nsecs: 903921236
  frame_id: "node1_radarinterface_radarscan"
range: 2.11066031456
angle: -0.0331821665168
elev: 0.342423200607
doppler: -0.238509222865
snr: 368
noise: 373
frame_num: 3987
point_id: 36
x: -0.06595813483
y: 1.98702895641
z: 0.708697676659
doppler_bin: 29
target_idx: 2
posX: -0.250482827425
posY: 1.9215824604
posZ: 0.489055514336
velX: 0.0774728283286
velY: 0.100302882493
velZ: -0.126865893602
accX: 0.0
accY: 0.0
accZ: 0.0
---
header: 
  seq: 44727
  stamp: 
    secs: 1596613215
    nsecs: 903936456
  frame_id: "node1_radarinterface_radarscan"
range: 2.26700544357
angle: -0.0627664551139
elev: 0.0847724080086
doppler: -0.238509222865
snr: 165
noise: 428
frame_num: 3987
point_id: 38
x: -0.141687855124
y: 2.25441646576
z: 0.191949412227
doppler_bin: 29
target_idx: 2
posX: -0.250482827425
posY: 1.9215824604
posZ: 0.489055514336
velX: 0.0774728283286
velY: 0.100302882493
velZ: -0.126865893602
accX: 0.0
accY: 0.0
accZ: 0.0
---
header: 
  seq: 44728
  stamp: 
    secs: 1596613215
    nsecs: 903951604
  frame_id: "node1_radarinterface_radarscan"
range: 1.79796981812
angle: -0.0972525179386
elev: 0.26341432333
doppler: -0.159006148577
snr: 249
noise: 389
frame_num: 3987
point_id: 40
x: -0.168559670448
y: 1.72774875164
z: 0.468152880669
doppler_bin: 30
target_idx: 2
posX: -0.250482827425
posY: 1.9215824604
posZ: 0.489055514336
velX: 0.0774728283286
velY: 0.100302882493
velZ: -0.126865893602
accX: 0.0
accY: 0.0
accZ: 0.0
---
header: 
  seq: 44729
  stamp: 
    secs: 1596613215
    nsecs: 903968730
  frame_id: "node1_radarinterface_radarscan"
range: 2.03248763084
angle: 0.0
elev: 0.350999176502
doppler: -0.159006148577
snr: 359
noise: 409
frame_num: 3987
point_id: 43
x: 0.0
y: 1.90856611729
z: 0.69884288311
doppler_bin: 30
target_idx: 2
posX: -0.250482827425
posY: 1.9215824604
posZ: 0.489055514336
velX: 0.0774728283286
velY: 0.100302882493
velZ: -0.126865893602
accX: 0.0
accY: 0.0
accZ: 0.0
---
header: 
  seq: 44730
  stamp: 
    secs: 1596613215
    nsecs: 904022333
  frame_id: "node1_radarinterface_radarscan"
range: 1.87614250183
angle: -0.129621177912
elev: 0.257403075695
doppler: -0.0795030742884
snr: 311
noise: 471
frame_num: 3987
point_id: 47
x: -0.234517812729
y: 1.79911124706
z: 0.477609694004
doppler_bin: 31
target_idx: 2
posX: -0.250482827425
posY: 1.9215824604
posZ: 0.489055514336
velX: 0.0774728283286
velY: 0.100302882493
velZ: -0.126865893602
accX: 0.0
accY: 0.0
accZ: 0.0
---
header: 
  seq: 44731
  stamp: 
    secs: 1596613216
    nsecs:   4321923
  frame_id: "node1_radarinterface_radarscan"
range: 1.95431506634
angle: -0.259937375784
elev: 0.234257981181
doppler: 0.159006148577
snr: 208
noise: 514
frame_num: 3988
point_id: 19
x: -0.488578796387
y: 1.83707666397
z: 0.453638136387
doppler_bin: 34
target_idx: 2
posX: -0.270703613758
posY: 1.9408839941
posZ: 0.442313790321
velX: -0.0272584557533
velY: 0.185705751181
velZ: -0.242425858974
accX: 0.0
accY: 0.0
accZ: 0.0
---
header: 
  seq: 44732
  stamp: 
    secs: 1596613216
    nsecs:   4393101
  frame_id: "node1_radarinterface_radarscan"
range: 2.11066031456
angle: -0.286787956953
elev: 0.107168272138
doppler: 0.795030713081
snr: 277
noise: 363
frame_num: 3988
point_id: 20
x: -0.593623220921
y: 2.01284122467
z: 0.225763082504
doppler_bin: 42
target_idx: 2
posX: -0.270703613758
posY: 1.9408839941
posZ: 0.442313790321
velX: -0.0272584557533
velY: 0.185705751181
velZ: -0.242425858974
accX: 0.0
accY: 0.0
accZ: 0.0
---
header: 
  seq: 44733
  stamp: 
    secs: 1596613216
    nsecs:   4414196
  frame_id: "node1_radarinterface_radarscan"
range: 2.18883275986
angle: -0.286549538374
elev: 0.099364168942
doppler: 0.795030713081
snr: 271
noise: 362
frame_num: 3988
point_id: 21
x: -0.615609169006
y: 2.0892264843
z: 0.217133834958
doppler_bin: 42
target_idx: 2
posX: -0.270703613758
posY: 1.9408839941
posZ: 0.442313790321
velX: -0.0272584557533
velY: 0.185705751181
velZ: -0.242425858974
accX: 0.0
accY: 0.0
accZ: 0.0
---
header: 
  seq: 44734
  stamp: 
    secs: 1596613216
    nsecs:   4478530
  frame_id: "node1_radarinterface_radarscan"
range: 1.87614250183
angle: -0.0638268589973
elev: 0.200953155756
doppler: -0.159006148577
snr: 255
noise: 395
frame_num: 3988
point_id: 27
x: -0.117258906364
y: 1.83464503288
z: 0.374484419823
doppler_bin: 30
target_idx: 2
posX: -0.270703613758
posY: 1.9408839941
posZ: 0.442313790321
velX: -0.0272584557533
velY: 0.185705751181
velZ: -0.242425858974
accX: 0.0
accY: 0.0
accZ: 0.0
---
header: 
  seq: 44735
  stamp: 
    secs: 1596613216
    nsecs:   4500810
  frame_id: "node1_radarinterface_radarscan"
range: 1.79796981812
angle: -0.0962073281407
elev: 0.219700008631
doppler: -0.0795030742884
snr: 160
noise: 465
frame_num: 3988
point_id: 30
x: -0.168559670448
y: 1.74663722515
z: 0.391843885183
doppler_bin: 31
target_idx: 2
posX: -0.270703613758
posY: 1.9408839941
posZ: 0.442313790321
velX: -0.0272584557533
velY: 0.185705751181
velZ: -0.242425858974
accX: 0.0
accY: 0.0
accZ: 0.0
---
header: 
  seq: 44736
  stamp: 
    secs: 1596613216
    nsecs:   4544813
  frame_id: "node1_radarinterface_radarscan"
range: 1.87614250183
angle: -0.0942413136363
elev: 0.0865057706833
doppler: -0.0795030742884
snr: 225
noise: 473
frame_num: 3988
point_id: 31
x: -0.175888359547
y: 1.86083292961
z: 0.162094816566
doppler_bin: 31
target_idx: 2
posX: -0.270703613758
posY: 1.9408839941
posZ: 0.442313790321
velX: -0.0272584557533
velY: 0.185705751181
velZ: -0.242425858974
accX: 0.0
accY: 0.0
accZ: 0.0
---
header: 
  seq: 44737
  stamp: 
    secs: 1596613216
    nsecs: 104973845
  frame_id: "node1_radarinterface_radarscan"
range: 1.87614250183
angle: -0.162296980619
elev: 0.257691949606
doppler: 0.0
snr: 165
noise: 504
frame_num: 3989
point_id: 5
x: -0.293147265911
y: 1.79035294056
z: 0.478133767843
doppler_bin: 32
target_idx: 2
posX: -0.329981654882
posY: 1.94073319435
posZ: 0.425612747669
velX: -0.244750246406
velY: 0.10684710741
velZ: -0.244294658303
accX: 0.0
accY: 0.0
accZ: 0.0
---
header: 
  seq: 44738
  stamp: 
    secs: 1596613216
    nsecs: 105051549
  frame_id: "node1_radarinterface_radarscan"
range: 2.03248763084
angle: -0.260671466589
elev: 0.245525747538
doppler: 0.0795030742884
snr: 180
noise: 553
frame_num: 3989
point_id: 14
x: -0.508121907711
y: 1.90492868423
z: 0.494029313326
doppler_bin: 33
target_idx: 2
posX: -0.329981654882
posY: 1.94073319435
posZ: 0.425612747669
velX: -0.244750246406
velY: 0.10684710741
velZ: -0.244294658303
accX: 0.0
accY: 0.0
accZ: 0.0
---
header: 
  seq: 44739
  stamp: 
    secs: 1596613216
    nsecs: 105104292
  frame_id: "node1_radarinterface_radarscan"
range: 2.11066031456
angle: -0.261349618435
elev: 0.255448848009
doppler: 0.0795030742884
snr: 161
noise: 540
frame_num: 3989
point_id: 15
x: -0.52766507864
y: 1.97282159328
z: 0.533321022987
doppler_bin: 33
target_idx: 2
posX: -0.329981654882
posY: 1.94073319435
posZ: 0.425612747669
velX: -0.244750246406
velY: 0.10684710741
velZ: -0.244294658303
accX: 0.0
accY: 0.0
accZ: 0.0
---
header: 
  seq: 44740
  stamp: 
    secs: 1596613216
    nsecs: 105134032
  frame_id: "node1_radarinterface_radarscan"
range: 2.11066031456
angle: -0.292380809784
elev: 0.220566123724
doppler: 0.238509222865
snr: 264
noise: 408
frame_num: 3989
point_id: 24
x: -0.593623220921
y: 1.97212135792
z: 0.461774617434
doppler_bin: 35
target_idx: 2
posX: -0.329981654882
posY: 1.94073319435
posZ: 0.425612747669
velX: -0.244750246406
velY: 0.10684710741
velZ: -0.244294658303
accX: 0.0
accY: 0.0
accZ: 0.0
---
header: 
  seq: 44741
  stamp: 
    secs: 1596613216
    nsecs: 105179863
  frame_id: "node1_radarinterface_radarscan"
range: 2.18883275986
angle: -0.288605302572
elev: 0.153935104609
doppler: 0.318012297153
snr: 268
noise: 385
frame_num: 3989
point_id: 28
x: -0.615609228611
y: 2.07349467278
z: 0.33560910821
doppler_bin: 36
target_idx: 2
posX: -0.329981654882
posY: 1.94073319435
posZ: 0.425612747669
velX: -0.244750246406
velY: 0.10684710741
velZ: -0.244294658303
accX: 0.0
accY: 0.0
accZ: 0.0
---
header: 
  seq: 44742
  stamp: 
    secs: 1596613216
    nsecs: 105198307
  frame_id: "node1_radarinterface_radarscan"
range: 2.26700544357
angle: -0.255069375038
elev: 0.135494694114
doppler: 0.318012297153
snr: 223
noise: 394
frame_num: 3989
point_id: 29
x: -0.566751360893
y: 2.17355251312
z: 0.30622819066
doppler_bin: 36
target_idx: 2
posX: -0.329981654882
posY: 1.94073319435
posZ: 0.425612747669
velX: -0.244750246406
velY: 0.10684710741
velZ: -0.244294658303
accX: 0.0
accY: 0.0
accZ: 0.0
---
header: 
  seq: 44743
  stamp: 
    secs: 1596613216
    nsecs: 105226302
  frame_id: "node1_radarinterface_radarscan"
range: 2.03248763084
angle: -0.0628523305058
elev: 0.0995463952422
doppler: -0.47701844573
snr: 320
noise: 364
frame_num: 3989
point_id: 33
x: -0.127030476928
y: 2.01843190193
z: 0.201992824674
doppler_bin: 26
target_idx: 2
posX: -0.329981654882
posY: 1.94073319435
posZ: 0.425612747669
velX: -0.244750246406
velY: 0.10684710741
velZ: -0.244294658303
accX: 0.0
accY: 0.0
accZ: 0.0
---
header: 
  seq: 44744
  stamp: 
    secs: 1596613216
    nsecs: 105279845
  frame_id: "node1_radarinterface_radarscan"
range: 1.79796981812
angle: -0.129285097122
elev: 0.247392967343
doppler: -0.159006148577
snr: 212
noise: 411
frame_num: 3989
point_id: 40
x: -0.224746212363
y: 1.72868061066
z: 0.440281689167
doppler_bin: 30
target_idx: 2
posX: -0.329981654882
posY: 1.94073319435
posZ: 0.425612747669
velX: -0.244750246406
velY: 0.10684710741
velZ: -0.244294658303
accX: 0.0
accY: 0.0
accZ: 0.0
---
header: 
  seq: 44745
  stamp: 
    secs: 1596613216
    nsecs: 105304745
  frame_id: "node1_radarinterface_radarscan"
range: 1.79796981812
angle: -0.161913096905
elev: 0.248618423939
doppler: -0.0795030742884
snr: 216
noise: 479
frame_num: 3989
point_id: 47
x: -0.280932784081
y: 1.71989500523
z: 0.442417621613
doppler_bin: 31
target_idx: 2
posX: -0.329981654882
posY: 1.94073319435
posZ: 0.425612747669
velX: -0.244750246406
velY: 0.10684710741
velZ: -0.244294658303
accX: 0.0
accY: 0.0
accZ: 0.0
---
header: 
  seq: 44746
  stamp: 
    secs: 1596613216
    nsecs: 203540546
  frame_id: "node1_radarinterface_radarscan"
range: 1.87614250183
angle: -0.127854883671
elev: 0.198620826006
doppler: 0.0
snr: 230
noise: 478
frame_num: 3990
point_id: 5
x: -0.234517812729
y: 1.82424426079
z: 0.370195686817
doppler_bin: 32
target_idx: 2
posX: -0.348160296679
posY: 1.92553663254
posZ: 0.454150646925
velX: -0.255904227495
velY: -0.00251503288746
velZ: -0.108502730727
accX: 0.0
accY: 0.0
accZ: 0.0
---
header: 
  seq: 44747
  stamp: 
    secs: 1596613216
    nsecs: 203595784
  frame_id: "node1_radarinterface_radarscan"
range: 1.95431506634
angle: -0.0634425282478
elev: 0.168694972992
doppler: 0.0
snr: 206
noise: 477
frame_num: 3990
point_id: 6
x: -0.122144691646
y: 1.92269718647
z: 0.32812166214
doppler_bin: 32
target_idx: 2
posX: -0.348160296679
posY: 1.92553663254
posZ: 0.454150646925
velX: -0.255904227495
velY: -0.00251503288746
velZ: -0.108502730727
accX: 0.0
accY: 0.0
accZ: 0.0
---
header: 
  seq: 44748
  stamp: 
    secs: 1596613216
    nsecs: 203660327
  frame_id: "node1_radarinterface_radarscan"
range: 2.03248763084
angle: -0.283583581448
elev: 0.465711981058
doppler: 0.0
snr: 226
noise: 464
frame_num: 3990
point_id: 7
x: -0.508121907711
y: 1.74349761009
z: 0.912707030773
doppler_bin: 32
target_idx: 2
posX: -0.348160296679
posY: 1.92553663254
posZ: 0.454150646925
velX: -0.255904227495
velY: -0.00251503288746
velZ: -0.108502730727
accX: 0.0
accY: 0.0
accZ: 0.0
---
header: 
  seq: 44749
  stamp: 
    secs: 1596613216
    nsecs: 203941456
  frame_id: "node1_radarinterface_radarscan"
range: 2.11066031456
angle: -0.23547488451
elev: 0.355091422796
doppler: 0.0
snr: 222
noise: 458
frame_num: 3990
point_id: 8
x: -0.461706936359
y: 1.92437338829
z: 0.733826100826
doppler_bin: 32
target_idx: 2
posX: -0.348160296679
posY: 1.92553663254
posZ: 0.454150646925
velX: -0.255904227495
velY: -0.00251503288746
velZ: -0.108502730727
accX: 0.0
accY: 0.0
accZ: 0.0
---
header: 
  seq: 44750
  stamp: 
    secs: 1596613216
    nsecs: 204014287
  frame_id: "node1_radarinterface_radarscan"
range: 2.18883275986
angle: -0.262754440308
elev: 0.274740666151
doppler: 0.0
snr: 112
noise: 473
frame_num: 3990
point_id: 9
x: -0.547208189964
y: 2.03443479538
z: 0.593824505806
doppler_bin: 32
target_idx: 2
posX: -0.348160296679
posY: 1.92553663254
posZ: 0.454150646925
velX: -0.255904227495
velY: -0.00251503288746
velZ: -0.108502730727
accX: 0.0
accY: 0.0
accZ: 0.0
---
header: 
  seq: 44751
  stamp: 
    secs: 1596613216
    nsecs: 204030071
  frame_id: "node1_radarinterface_radarscan"
range: 1.79796981812
angle: -0.161935418844
elev: 0.249156162143
doppler: 0.0795030742884
snr: 173
noise: 507
frame_num: 3990
point_id: 15
x: -0.280932784081
y: 1.71965372562
z: 0.443354666233
doppler_bin: 33
target_idx: 2
posX: -0.348160296679
posY: 1.92553663254
posZ: 0.454150646925
velX: -0.255904227495
velY: -0.00251503288746
velZ: -0.108502730727
accX: 0.0
accY: 0.0
accZ: 0.0
---
header: 
  seq: 44752
  stamp: 
    secs: 1596613216
    nsecs: 204044511
  frame_id: "node1_radarinterface_radarscan"
range: 1.87614250183
angle: -0.161535471678
elev: 0.239320233464
doppler: 0.0795030742884
snr: 220
noise: 516
frame_num: 3990
point_id: 16
x: -0.293147265911
y: 1.79894268513
z: 0.444725126028
doppler_bin: 33
target_idx: 2
posX: -0.348160296679
posY: 1.92553663254
posZ: 0.454150646925
velX: -0.255904227495
velY: -0.00251503288746
velZ: -0.108502730727
accX: 0.0
accY: 0.0
accZ: 0.0
---
header: 
  seq: 44753
  stamp: 
    secs: 1596613216
    nsecs: 204059152
  frame_id: "node1_radarinterface_radarscan"
range: 1.95431506634
angle: -0.16256429255
elev: 0.263805419207
doppler: 0.0795030742884
snr: 203
noise: 524
frame_num: 3990
point_id: 17
x: -0.305361717939
y: 1.86182963848
z: 0.509599745274
doppler_bin: 33
target_idx: 2
posX: -0.348160296679
posY: 1.92553663254
posZ: 0.454150646925
velX: -0.255904227495
velY: -0.00251503288746
velZ: -0.108502730727
accX: 0.0
accY: 0.0
accZ: 0.0
---
header: 
  seq: 44754
  stamp: 
    secs: 1596613216
    nsecs: 204073842
  frame_id: "node1_radarinterface_radarscan"
range: 2.11066031456
angle: -0.130699872971
elev: 0.286927312613
doppler: 0.0795030742884
snr: 180
noise: 496
frame_num: 3990
point_id: 19
x: -0.263832569122
y: 2.00710630417
z: 0.597330570221
doppler_bin: 33
target_idx: 2
posX: -0.348160296679
posY: 1.92553663254
posZ: 0.454150646925
velX: -0.255904227495
velY: -0.00251503288746
velZ: -0.108502730727
accX: 0.0
accY: 0.0
accZ: 0.0
---
header: 
  seq: 44755
  stamp: 
    secs: 1596613216
    nsecs: 204090608
  frame_id: "node1_radarinterface_radarscan"
range: 2.73604106903
angle: -0.357125431299
elev: 0.182924583554
doppler: 0.159006148577
snr: 120
noise: 472
frame_num: 3990
point_id: 28
x: -0.940514147282
y: 2.52064394951
z: 0.497702658176
doppler_bin: 34
target_idx: 2
posX: -0.348160296679
posY: 1.92553663254
posZ: 0.454150646925
velX: -0.255904227495
velY: -0.00251503288746
velZ: -0.108502730727
accX: 0.0
accY: 0.0
accZ: 0.0
---
header: 
  seq: 44756
  stamp: 
    secs: 1596613216
    nsecs: 204102962
  frame_id: "node1_radarinterface_radarscan"
range: 1.79796981812
angle: -0.127552166581
elev: 0.186530485749
doppler: -0.159006148577
snr: 251
noise: 406
frame_num: 3990
point_id: 31
x: -0.224746227264
y: 1.75242853165
z: 0.333434730768
doppler_bin: 30
target_idx: 2
posX: -0.348160296679
posY: 1.92553663254
posZ: 0.454150646925
velX: -0.255904227495
velY: -0.00251503288746
velZ: -0.108502730727
accX: 0.0
accY: 0.0
accZ: 0.0
---
header: 
  seq: 44757
  stamp: 
    secs: 1596613216
    nsecs: 204233784
  frame_id: "node1_radarinterface_radarscan"
range: 1.95431506634
angle: -0.0941546410322
elev: 0.0751830860972
doppler: -0.159006148577
snr: 247
noise: 408
frame_num: 3990
point_id: 33
x: -0.183217033744
y: 1.94016253948
z: 0.146793052554
doppler_bin: 30
target_idx: 2
posX: -0.348160296679
posY: 1.92553663254
posZ: 0.454150646925
velX: -0.255904227495
velY: -0.00251503288746
velZ: -0.108502730727
accX: 0.0
accY: 0.0
accZ: 0.0
---
header: 
  seq: 44758
  stamp: 
    secs: 1596613216
    nsecs: 204247890
  frame_id: "node1_radarinterface_radarscan"
range: 2.11066031456
angle: -0.229817762971
elev: 0.282821625471
doppler: -0.159006148577
snr: 266
noise: 415
frame_num: 3990
point_id: 35
x: -0.461706966162
y: 1.97351884842
z: 0.589014112949
doppler_bin: 30
target_idx: 2
posX: -0.348160296679
posY: 1.92553663254
posZ: 0.454150646925
velX: -0.255904227495
velY: -0.00251503288746
velZ: -0.108502730727
accX: 0.0
accY: 0.0
accZ: 0.0
---
header: 
  seq: 44759
  stamp: 
    secs: 1596613216
    nsecs: 204284165
  frame_id: "node1_radarinterface_radarscan"
range: 2.18883275986
angle: -0.260497361422
elev: 0.24290561676
doppler: -0.159006148577
snr: 153
noise: 439
frame_num: 3990
point_id: 36
x: -0.547208189964
y: 2.05289673805
z: 0.526466727257
doppler_bin: 30
target_idx: 2
posX: -0.348160296679
posY: 1.92553663254
posZ: 0.454150646925
velX: -0.255904227495
velY: -0.00251503288746
velZ: -0.108502730727
accX: 0.0
accY: 0.0
accZ: 0.0
---
header: 
  seq: 44760
  stamp: 
    secs: 1596613216
    nsecs: 204299501
  frame_id: "node1_radarinterface_radarscan"
range: 1.87614250183
angle: -0.159739241004
elev: 0.188272789121
doppler: -0.0795030742884
snr: 315
noise: 470
frame_num: 3990
point_id: 43
x: -0.293147265911
y: 1.81952559948
z: 0.351143479347
doppler_bin: 31
target_idx: 2
posX: -0.348160296679
posY: 1.92553663254
posZ: 0.454150646925
velX: -0.255904227495
velY: -0.00251503288746
velZ: -0.108502730727
accX: 0.0
accY: 0.0
accZ: 0.0
---
header: 
  seq: 44761
  stamp: 
    secs: 1596613216
    nsecs: 204309716
  frame_id: "node1_radarinterface_radarscan"
range: 2.03248763084
angle: -0.319804549217
elev: 0.463227361441
doppler: -0.0795030742884
snr: 247
noise: 470
frame_num: 3990
point_id: 45
x: -0.571637153625
y: 1.72610092163
z: 0.908192038536
doppler_bin: 31
target_idx: 2
posX: -0.348160296679
posY: 1.92553663254
posZ: 0.454150646925
velX: -0.255904227495
velY: -0.00251503288746
velZ: -0.108502730727
accX: 0.0
accY: 0.0
accZ: 0.0
---
header: 
  seq: 44762
  stamp: 
    secs: 1596613216
    nsecs: 204361239
  frame_id: "node1_radarinterface_radarscan"
range: 2.18883275986
angle: -0.262092620134
elev: 0.265848308802
doppler: -0.0795030742884
snr: 132
noise: 503
frame_num: 3990
point_id: 47
x: -0.547208189964
y: 2.03981590271
z: 0.575067341328
doppler_bin: 31
target_idx: 2
posX: -0.348160296679
posY: 1.92553663254
posZ: 0.454150646925
velX: -0.255904227495
velY: -0.00251503288746
velZ: -0.108502730727
accX: 0.0
accY: 0.0
accZ: 0.0
---
header: 
  seq: 44763
  stamp: 
    secs: 1596613216
    nsecs: 303802792
  frame_id: "node1_radarinterface_radarscan"
range: 1.95431506634
angle: -0.0966632068157
elev: 0.23984721303
doppler: 0.0
snr: 269
noise: 467
frame_num: 3991
point_id: 4
x: -0.183217033744
y: 1.88950932026
z: 0.464255779982
doppler_bin: 32
target_idx: 2
posX: -0.275838077068
posY: 1.93823301792
posZ: 0.442299097776
velX: 0.0741339623928
velY: 0.0429035648704
velZ: -0.11643512547
accX: 0.0
accY: 0.0
accZ: 0.0
---
header: 
  seq: 44764
  stamp: 
    secs: 1596613216
    nsecs: 303877103
  frame_id: "node1_radarinterface_radarscan"
range: 2.03248763084
angle: -0.100243382156
elev: 0.357450306416
doppler: 0.0795030742884
snr: 256
noise: 509
frame_num: 3991
point_id: 14
x: -0.190545707941
y: 1.89445960522
z: 0.711140692234
doppler_bin: 33
target_idx: 2
posX: -0.275838077068
posY: 1.93823301792
posZ: 0.442299097776
velX: 0.0741339623928
velY: 0.0429035648704
velZ: -0.11643512547
accX: 0.0
accY: 0.0
accZ: 0.0
---
header: 
  seq: 44765
  stamp: 
    secs: 1596613216
    nsecs: 303887668
  frame_id: "node1_radarinterface_radarscan"
range: 2.11066031456
angle: -0.133526951075
elev: 0.351294100285
doppler: 0.0795030742884
snr: 214
noise: 498
frame_num: 3991
point_id: 15
x: -0.26383253932
y: 1.96411788464
z: 0.726306021214
doppler_bin: 33
target_idx: 2
posX: -0.275838077068
posY: 1.93823301792
posZ: 0.442299097776
velX: 0.0741339623928
velY: 0.0429035648704
velZ: -0.11643512547
accX: 0.0
accY: 0.0
accZ: 0.0
---
header: 
  seq: 44766
  stamp: 
    secs: 1596613216
    nsecs: 303903250
  frame_id: "node1_radarinterface_radarscan"
range: 1.95431506634
angle: -0.0660963878036
elev: 0.329273372889
doppler: 0.159006148577
snr: 246
noise: 454
frame_num: 3991
point_id: 20
x: -0.122144684196
y: 1.84528636932
z: 0.631938576698
doppler_bin: 34
target_idx: 2
posX: -0.275838077068
posY: 1.93823301792
posZ: 0.442299097776
velX: 0.0741339623928
velY: 0.0429035648704
velZ: -0.11643512547
accX: 0.0
accY: 0.0
accZ: 0.0
---
header: 
  seq: 44767
  stamp: 
    secs: 1596613216
    nsecs: 303918768
  frame_id: "node1_radarinterface_radarscan"
range: 1.79796981812
angle: -0.0637243464589
elev: -0.192907720804
doppler: -0.159006148577
snr: 145
noise: 394
frame_num: 3991
point_id: 23
x: -0.112373106182
y: 1.76103746891
z: -0.344695061445
doppler_bin: 30
target_idx: 2
posX: -0.275838077068
posY: 1.93823301792
posZ: 0.442299097776
velX: 0.0741339623928
velY: 0.0429035648704
velZ: -0.11643512547
accX: 0.0
accY: 0.0
accZ: 0.0
---
header: 
  seq: 44768
  stamp: 
    secs: 1596613216
    nsecs: 303934117
  frame_id: "node1_radarinterface_radarscan"
range: 1.95431506634
angle: -0.0942563563585
elev: 0.0883216187358
doppler: -0.159006148577
snr: 283
noise: 404
frame_num: 3991
point_id: 25
x: -0.183217033744
y: 1.93805634975
z: 0.172383949161
doppler_bin: 30
target_idx: 2
posX: -0.275838077068
posY: 1.93823301792
posZ: 0.442299097776
velX: 0.0741339623928
velY: 0.0429035648704
velZ: -0.11643512547
accX: 0.0
accY: 0.0
accZ: 0.0
---
header: 
  seq: 44769
  stamp: 
    secs: 1596613216
    nsecs: 303948506
  frame_id: "node1_radarinterface_radarscan"
range: 2.03248763084
angle: -0.125693097711
elev: 0.0760547220707
doppler: -0.159006148577
snr: 233
noise: 406
frame_num: 3991
point_id: 26
x: -0.254060953856
y: 2.01062440872
z: 0.154431298375
doppler_bin: 30
target_idx: 2
posX: -0.275838077068
posY: 1.93823301792
posZ: 0.442299097776
velX: 0.0741339623928
velY: 0.0429035648704
velZ: -0.11643512547
accX: 0.0
accY: 0.0
accZ: 0.0
---
header: 
  seq: 44770
  stamp: 
    secs: 1596613216
    nsecs: 303965175
  frame_id: "node1_radarinterface_radarscan"
range: 1.79796981812
angle: 0.0
elev: -0.0925795957446
doppler: -0.0795030742884
snr: 128
noise: 456
frame_num: 3991
point_id: 31
x: 0.0
y: 1.7902700901
z: -0.166217640042
doppler_bin: 31
target_idx: 2
posX: -0.275838077068
posY: 1.93823301792
posZ: 0.442299097776
velX: 0.0741339623928
velY: 0.0429035648704
velZ: -0.11643512547
accX: 0.0
accY: 0.0
accZ: 0.0
---
header: 
  seq: 44771
  stamp: 
    secs: 1596613216
    nsecs: 304013358
  frame_id: "node1_radarinterface_radarscan"
range: 2.03248763084
angle: -0.126249611378
elev: 0.120595388114
doppler: -0.0795030742884
snr: 228
noise: 465
frame_num: 3991
point_id: 34
x: -0.254060953856
y: 2.00166702271
z: 0.24451495707
doppler_bin: 31
target_idx: 2
posX: -0.275838077068
posY: 1.93823301792
posZ: 0.442299097776
velX: 0.0741339623928
velY: 0.0429035648704
velZ: -0.11643512547
accX: 0.0
accY: 0.0
accZ: 0.0
---
header: 
  seq: 44772
  stamp: 
    secs: 1596613216
    nsecs: 403497183
  frame_id: "node1_radarinterface_radarscan"
range: 1.79796981812
angle: -0.127823546529
elev: 0.197405934334
doppler: 0.0
snr: 191
noise: 464
frame_num: 3992
point_id: 2
x: -0.224746227264
y: 1.74866724014
z: 0.352629184723
doppler_bin: 32
target_idx: 2
posX: -0.258698582649
posY: 1.94764387608
posZ: 0.368272513151
velX: 0.132977187634
velY: 0.0685472488403
velZ: -0.308586090803
accX: 0.0
accY: 0.0
accZ: 0.0
---
header: 
  seq: 44773
  stamp: 
    secs: 1596613216
    nsecs: 403585950
  frame_id: "node1_radarinterface_radarscan"
range: 1.95431506634
angle: -0.1590860039
elev: 0.165547460318
doppler: 0.0
snr: 240
noise: 467
frame_num: 3992
point_id: 4
x: -0.305361717939
y: 1.90325546265
z: 0.322056144476
doppler_bin: 32
target_idx: 2
posX: -0.258698582649
posY: 1.94764387608
posZ: 0.368272513151
velX: 0.132977187634
velY: 0.0685472488403
velZ: -0.308586090803
accX: 0.0
accY: 0.0
accZ: 0.0
---
header: 
  seq: 44774
  stamp: 
    secs: 1596613216
    nsecs: 403609084
  frame_id: "node1_radarinterface_radarscan"
range: 1.79796981812
angle: -0.1279527843
elev: 0.202366560698
doppler: 0.0795030742884
snr: 148
noise: 506
frame_num: 3992
point_id: 11
x: -0.224746227264
y: 1.7468817234
z: 0.361370652914
doppler_bin: 33
target_idx: 2
posX: -0.258698582649
posY: 1.94764387608
posZ: 0.368272513151
velX: 0.132977187634
velY: 0.0685472488403
velZ: -0.308586090803
accX: 0.0
accY: 0.0
accZ: 0.0
---
header: 
  seq: 44775
  stamp: 
    secs: 1596613216
    nsecs: 403627652
  frame_id: "node1_radarinterface_radarscan"
range: 1.95431506634
angle: 0.0324121341109
elev: 0.267956733704
doppler: 0.0795030742884
snr: 175
noise: 520
frame_num: 3992
point_id: 14
x: 0.0610723420978
y: 1.88358330727
z: 0.517427682877
doppler_bin: 33
target_idx: 2
posX: -0.258698582649
posY: 1.94764387608
posZ: 0.368272513151
velX: 0.132977187634
velY: 0.0685472488403
velZ: -0.308586090803
accX: 0.0
accY: 0.0
accZ: 0.0
---
header: 
  seq: 44776
  stamp: 
    secs: 1596613216
    nsecs: 403645096
  frame_id: "node1_radarinterface_radarscan"
range: 2.03248763084
angle: -0.221757978201
elev: 0.104284480214
doppler: 0.0795030742884
snr: 234
noise: 512
frame_num: 3992
point_id: 15
x: -0.444606661797
y: 1.97194516659
z: 0.211572945118
doppler_bin: 33
target_idx: 2
posX: -0.258698582649
posY: 1.94764387608
posZ: 0.368272513151
velX: 0.132977187634
velY: 0.0685472488403
velZ: -0.308586090803
accX: 0.0
accY: 0.0
accZ: 0.0
---
header: 
  seq: 44777
  stamp: 
    secs: 1596613216
    nsecs: 403662892
  frame_id: "node1_radarinterface_radarscan"
range: 2.03248763084
angle: -0.0962137132883
elev: 0.219996288419
doppler: 0.159006148577
snr: 243
noise: 458
frame_num: 3992
point_id: 20
x: -0.190545707941
y: 1.97432756424
z: 0.443541646004
doppler_bin: 34
target_idx: 2
posX: -0.258698582649
posY: 1.94764387608
posZ: 0.368272513151
velX: 0.132977187634
velY: 0.0685472488403
velZ: -0.308586090803
accX: 0.0
accY: 0.0
accZ: 0.0
---
header: 
  seq: 44778
  stamp: 
    secs: 1596613216
    nsecs: 403674094
  frame_id: "node1_radarinterface_radarscan"
range: 1.71979725361
angle: -0.127702400088
elev: 0.192631825805
doppler: -0.159006148577
snr: 137
noise: 395
frame_num: 3992
point_id: 23
x: -0.214974656701
y: 1.67424249649
z: 0.329242646694
doppler_bin: 30
target_idx: 2
posX: -0.258698582649
posY: 1.94764387608
posZ: 0.368272513151
velX: 0.132977187634
velY: 0.0685472488403
velZ: -0.308586090803
accX: 0.0
accY: 0.0
accZ: 0.0
---
header: 
  seq: 44779
  stamp: 
    secs: 1596613216
    nsecs: 403684636
  frame_id: "node1_radarinterface_radarscan"
range: 1.87614250183
angle: -0.126779317856
elev: 0.151064276695
doppler: -0.159006148577
snr: 282
noise: 399
frame_num: 3992
point_id: 25
x: -0.23451782763
y: 1.83989012241
z: 0.282341390848
doppler_bin: 30
target_idx: 2
posX: -0.258698582649
posY: 1.94764387608
posZ: 0.368272513151
velX: 0.132977187634
velY: 0.0685472488403
velZ: -0.308586090803
accX: 0.0
accY: 0.0
accZ: 0.0
---
header: 
  seq: 44780
  stamp: 
    secs: 1596613216
    nsecs: 403695804
  frame_id: "node1_radarinterface_radarscan"
range: 1.95431506634
angle: -0.12638373673
elev: 0.129014059901
doppler: -0.159006148577
snr: 249
noise: 401
frame_num: 3992
point_id: 26
x: -0.244289383292
y: 1.92261552811
z: 0.251435250044
doppler_bin: 30
target_idx: 2
posX: -0.258698582649
posY: 1.94764387608
posZ: 0.368272513151
velX: 0.132977187634
velY: 0.0685472488403
velZ: -0.308586090803
accX: 0.0
accY: 0.0
accZ: 0.0
---
header: 
  seq: 44781
  stamp: 
    secs: 1596613216
    nsecs: 403707077
  frame_id: "node1_radarinterface_radarscan"
range: 1.87614250183
angle: -0.127011805773
elev: 0.16258867085
doppler: -0.0795030742884
snr: 293
noise: 462
frame_num: 3992
point_id: 31
x: -0.234517812729
y: 1.83648574352
z: 0.303697347641
doppler_bin: 31
target_idx: 2
posX: -0.258698582649
posY: 1.94764387608
posZ: 0.368272513151
velX: 0.132977187634
velY: 0.0685472488403
velZ: -0.308586090803
accX: 0.0
accY: 0.0
accZ: 0.0
---
header: 
  seq: 44782
  stamp: 
    secs: 1596613216
    nsecs: 403717837
  frame_id: "node1_radarinterface_radarscan"
range: 2.03248763084
angle: 0.0315952301025
elev: -0.146842956543
doppler: -0.0795030742884
snr: 175
noise: 471
frame_num: 3992
point_id: 34
x: 0.0635152384639
y: 2.00961041451
z: -0.297385066748
doppler_bin: 31
target_idx: 2
posX: -0.258698582649
posY: 1.94764387608
posZ: 0.368272513151
velX: 0.132977187634
velY: 0.0685472488403
velZ: -0.308586090803
accX: 0.0
accY: 0.0
accZ: 0.0
---
header: 
  seq: 44783
  stamp: 
    secs: 1596613216
    nsecs: 504405406
  frame_id: "node1_radarinterface_radarscan"
range: 1.95431506634
angle: -0.220798358321
elev: 0.048606775701
doppler: 0.0
snr: 156
noise: 466
frame_num: 3993
point_id: 4
x: -0.427506417036
y: 1.90461778641
z: 0.0949555560946
doppler_bin: 32
target_idx: 2
posX: -0.281468510628
posY: 1.9505238533
posZ: 0.283557713032
velX: 0.0281070917845
velY: 0.0392463281751
velZ: -0.498788058758
accX: 0.0
accY: 0.0
accZ: 0.0
---
header: 
  seq: 44784
  stamp: 
    secs: 1596613216
    nsecs: 504536873
  frame_id: "node1_radarinterface_radarscan"
range: 1.87614250183
angle: -0.15761063993
elev: 0.095078125596
doppler: -0.159006148577
snr: 176
noise: 414
frame_num: 3993
point_id: 14
x: -0.293147265911
y: 1.84451937675
z: 0.178111478686
doppler_bin: 30
target_idx: 2
posX: -0.281468510628
posY: 1.9505238533
posZ: 0.283557713032
velX: 0.0281070917845
velY: 0.0392463281751
velZ: -0.498788058758
accX: 0.0
accY: 0.0
accZ: 0.0
---
header: 
  seq: 44785
  stamp: 
    secs: 1596613216
    nsecs: 504579376
  frame_id: "node1_radarinterface_radarscan"
range: 1.95431506634
angle: -0.188654914498
elev: 0.0200887192041
doppler: -0.159006148577
snr: 185
noise: 417
frame_num: 3993
point_id: 15
x: -0.366434067488
y: 1.91925299168
z: 0.0392570458353
doppler_bin: 30
target_idx: 2
posX: -0.281468510628
posY: 1.9505238533
posZ: 0.283557713032
velX: 0.0281070917845
velY: 0.0392463281751
velZ: -0.498788058758
accX: 0.0
accY: 0.0
accZ: 0.0
---
header: 
  seq: 44786
  stamp: 
    secs: 1596613216
    nsecs: 504637409
  frame_id: "node1_radarinterface_radarscan"
range: 1.95431506634
angle: -0.188686221838
elev: 0.0270447116345
doppler: -0.0795030742884
snr: 182
noise: 495
frame_num: 3993
point_id: 23
x: -0.36643409729
y: 1.91892695427
z: 0.0528474450111
doppler_bin: 31
target_idx: 2
posX: -0.281468510628
posY: 1.9505238533
posZ: 0.283557713032
velX: 0.0281070917845
velY: 0.0392463281751
velZ: -0.498788058758
accX: 0.0
accY: 0.0
accZ: 0.0
---
header: 
  seq: 44787
  stamp: 
    secs: 1596613216
    nsecs: 604524190
  frame_id: "node1_radarinterface_radarscan"
range: 2.03248763084
angle: -0.094935208559
elev: 0.148456946015
doppler: 0.0
snr: 187
noise: 464
frame_num: 3994
point_id: 4
x: -0.190545722842
y: 2.00107979774
z: 0.300629764795
doppler_bin: 32
target_idx: 2
posX: -0.242282450199
posY: 1.96058928967
posZ: 0.248138695955
velX: 0.16847319901
velY: 0.0320451557636
velZ: -0.506738603115
accX: 0.0
accY: 0.0
accZ: 0.0
---
header: 
  seq: 44788
  stamp: 
    secs: 1596613216
    nsecs: 604628624
  frame_id: "node1_radarinterface_radarscan"
range: 1.95431506634
angle: -0.0946409329772
elev: 0.126047506928
doppler: -0.159006148577
snr: 163
noise: 431
frame_num: 3994
point_id: 11
x: -0.183217048645
y: 1.93013417721
z: 0.245684757829
doppler_bin: 30
target_idx: 2
posX: -0.242282450199
posY: 1.96058928967
posZ: 0.248138695955
velX: 0.16847319901
velY: 0.0320451557636
velZ: -0.506738603115
accX: 0.0
accY: 0.0
accZ: 0.0
---
header: 
  seq: 44789
  stamp: 
    secs: 1596613216
    nsecs: 604648201
  frame_id: "node1_radarinterface_radarscan"
range: 2.18883275986
angle: -0.09403976053
elev: 0.056759711355
doppler: -0.159006148577
snr: 127
noise: 418
frame_num: 3994
point_id: 14
x: -0.205203071237
y: 2.17565226555
z: 0.124170817435
doppler_bin: 30
target_idx: 2
posX: -0.242282450199
posY: 1.96058928967
posZ: 0.248138695955
velX: 0.16847319901
velY: 0.0320451557636
velZ: -0.506738603115
accX: 0.0
accY: 0.0
accZ: 0.0
---
header: 
  seq: 44790
  stamp: 
    secs: 1596613216
    nsecs: 604678839
  frame_id: "node1_radarinterface_radarscan"
range: 2.11066031456
angle: -0.094686768949
elev: 0.129800960422
doppler: -0.0795030742884
snr: 216
noise: 471
frame_num: 3994
point_id: 20
x: -0.197874411941
y: 2.08352971077
z: 0.273197084665
doppler_bin: 31
target_idx: 2
posX: -0.242282450199
posY: 1.96058928967
posZ: 0.248138695955
velX: 0.16847319901
velY: 0.0320451557636
velZ: -0.506738603115
accX: 0.0
accY: 0.0
accZ: 0.0
---
header: 
  seq: 44791
  stamp: 
    secs: 1596613216
    nsecs: 705104866
  frame_id: "node1_radarinterface_radarscan"
range: 1.95431506634
angle: -0.0320848412812
elev: 0.227881073952
doppler: 0.0
snr: 204
noise: 476
frame_num: 3995
point_id: 3
x: -0.0610723420978
y: 1.90281093121
z: 0.441506922245
doppler_bin: 32
target_idx: 2
posX: -0.218052715063
posY: 1.9521150589
posZ: 0.319462239742
velX: 0.217176035047
velY: -0.0108498129994
velZ: -0.19761672616
accX: 0.0
accY: 0.0
accZ: 0.0
---
header: 
  seq: 44792
  stamp: 
    secs: 1596613216
    nsecs: 705169023
  frame_id: "node1_radarinterface_radarscan"
range: 2.03248763084
angle: 0.0
elev: 0.213577330112
doppler: 0.0
snr: 216
noise: 462
frame_num: 3995
point_id: 4
x: 0.0
y: 1.98630738258
z: 0.430800586939
doppler_bin: 32
target_idx: 2
posX: -0.218052715063
posY: 1.9521150589
posZ: 0.319462239742
velX: 0.217176035047
velY: -0.0108498129994
velZ: -0.19761672616
accX: 0.0
accY: 0.0
accZ: 0.0
---
header: 
  seq: 44793
  stamp: 
    secs: 1596613216
    nsecs: 705185629
  frame_id: "node1_radarinterface_radarscan"
range: 2.11066031456
angle: 0.0
elev: 0.226157069206
doppler: 0.0
snr: 170
noise: 447
frame_num: 3995
point_id: 5
x: 0.0
y: 2.05691289902
z: 0.473282039165
doppler_bin: 32
target_idx: 2
posX: -0.218052715063
posY: 1.9521150589
posZ: 0.319462239742
velX: 0.217176035047
velY: -0.0108498129994
velZ: -0.19761672616
accX: 0.0
accY: 0.0
accZ: 0.0
---
header: 
  seq: 44794
  stamp: 
    secs: 1596613216
    nsecs: 705234722
  frame_id: "node1_radarinterface_radarscan"
range: 1.95431506634
angle: -0.128422647715
elev: 0.219395726919
doppler: 0.0795030742884
snr: 224
noise: 502
frame_num: 3995
point_id: 14
x: -0.244289368391
y: 1.8917607069
z: 0.425336897373
doppler_bin: 33
target_idx: 2
posX: -0.218052715063
posY: 1.9521150589
posZ: 0.319462239742
velX: 0.217176035047
velY: -0.0108498129994
velZ: -0.19761672616
accX: 0.0
accY: 0.0
accZ: 0.0
---
header: 
  seq: 44795
  stamp: 
    secs: 1596613216
    nsecs: 705256618
  frame_id: "node1_radarinterface_radarscan"
range: 2.03248763084
angle: -0.0941121503711
elev: 0.0689491853118
doppler: 0.0795030742884
snr: 135
noise: 502
frame_num: 3995
point_id: 15
x: -0.190545707941
y: 2.01868534088
z: 0.140027359128
doppler_bin: 33
target_idx: 2
posX: -0.218052715063
posY: 1.9521150589
posZ: 0.319462239742
velX: 0.217176035047
velY: -0.0108498129994
velZ: -0.19761672616
accX: 0.0
accY: 0.0
accZ: 0.0
---
header: 
  seq: 44796
  stamp: 
    secs: 1596613216
    nsecs: 705279202
  frame_id: "node1_radarinterface_radarscan"
range: 1.79796981812
angle: -0.129284396768
elev: 0.247371673584
doppler: 0.159006148577
snr: 141
noise: 435
frame_num: 3995
point_id: 21
x: -0.224746227264
y: 1.7286901474
z: 0.440244585276
doppler_bin: 34
target_idx: 2
posX: -0.218052715063
posY: 1.9521150589
posZ: 0.319462239742
velX: 0.217176035047
velY: -0.0108498129994
velZ: -0.19761672616
accX: 0.0
accY: 0.0
accZ: 0.0
---
header: 
  seq: 44797
  stamp: 
    secs: 1596613216
    nsecs: 705297968
  frame_id: "node1_radarinterface_radarscan"
range: 2.03248763084
angle: -0.0315420441329
elev: 0.134969741106
doppler: -0.318012297153
snr: 205
noise: 442
frame_num: 3995
point_id: 27
x: -0.0635152384639
y: 2.01300120354
z: 0.273492187262
doppler_bin: 28
target_idx: 2
posX: -0.218052715063
posY: 1.9521150589
posZ: 0.319462239742
velX: 0.217176035047
velY: -0.0108498129994
velZ: -0.19761672616
accX: 0.0
accY: 0.0
accZ: 0.0
---
header: 
  seq: 44798
  stamp: 
    secs: 1596613216
    nsecs: 705318549
  frame_id: "node1_radarinterface_radarscan"
range: 2.11066031456
angle: -0.0632734671235
elev: 0.15223094821
doppler: -0.318012297153
snr: 183
noise: 444
frame_num: 3995
point_id: 28
x: -0.13191626966
y: 2.08207631111
z: 0.320068240166
doppler_bin: 28
target_idx: 2
posX: -0.218052715063
posY: 1.9521150589
posZ: 0.319462239742
velX: 0.217176035047
velY: -0.0108498129994
velZ: -0.19761672616
accX: 0.0
accY: 0.0
accZ: 0.0
---
header: 
  seq: 44799
  stamp: 
    secs: 1596613216
    nsecs: 705340989
  frame_id: "node1_radarinterface_radarscan"
range: 1.95431506634
angle: -0.0632584244013
elev: 0.150675490499
doppler: -0.238509222865
snr: 217
noise: 430
frame_num: 3995
point_id: 29
x: -0.122144691646
y: 1.92830789089
z: 0.293354421854
doppler_bin: 29
target_idx: 2
posX: -0.218052715063
posY: 1.9521150589
posZ: 0.319462239742
velX: 0.217176035047
velY: -0.0108498129994
velZ: -0.19761672616
accX: 0.0
accY: 0.0
accZ: 0.0
---
header: 
  seq: 44800
  stamp: 
    secs: 1596613216
    nsecs: 705358489
  frame_id: "node1_radarinterface_radarscan"
range: 2.11066031456
angle: -0.252833634615
elev: 0.0344611741602
doppler: -0.238509222865
snr: 251
noise: 428
frame_num: 3995
point_id: 31
x: -0.52766507864
y: 2.0423438549
z: 0.0727214366198
doppler_bin: 29
target_idx: 2
posX: -0.218052715063
posY: 1.9521150589
posZ: 0.319462239742
velX: 0.217176035047
velY: -0.0108498129994
velZ: -0.19761672616
accX: 0.0
accY: 0.0
accZ: 0.0
---
header: 
  seq: 44801
  stamp: 
    secs: 1596613216
    nsecs: 705375935
  frame_id: "node1_radarinterface_radarscan"
range: 2.26700544357
angle: -0.191872268915
elev: 0.183371499181
doppler: -0.238509222865
snr: 124
noise: 439
frame_num: 3995
point_id: 33
x: -0.42506352067
y: 2.18809342384
z: 0.413378417492
doppler_bin: 29
target_idx: 2
posX: -0.218052715063
posY: 1.9521150589
posZ: 0.319462239742
velX: 0.217176035047
velY: -0.0108498129994
velZ: -0.19761672616
accX: 0.0
accY: 0.0
accZ: 0.0
---
header: 
  seq: 44802
  stamp: 
    secs: 1596613216
    nsecs: 705425209
  frame_id: "node1_radarinterface_radarscan"
range: 1.87614250183
angle: -0.0330782905221
elev: 0.333505362272
doppler: -0.159006148577
snr: 174
noise: 464
frame_num: 3995
point_id: 35
x: -0.0586294494569
y: 1.77179849148
z: 0.61416888237
doppler_bin: 30
target_idx: 2
posX: -0.218052715063
posY: 1.9521150589
posZ: 0.319462239742
velX: 0.217176035047
velY: -0.0108498129994
velZ: -0.19761672616
accX: 0.0
accY: 0.0
accZ: 0.0
---
header: 
  seq: 44803
  stamp: 
    secs: 1596613216
    nsecs: 705438738
  frame_id: "node1_radarinterface_radarscan"
range: 1.95431506634
angle: -0.0326361320913
elev: 0.291904062033
doppler: -0.159006148577
snr: 213
noise: 471
frame_num: 3995
point_id: 36
x: -0.0610723420978
y: 1.87064623833
z: 0.562405467033
doppler_bin: 30
target_idx: 2
posX: -0.218052715063
posY: 1.9521150589
posZ: 0.319462239742
velX: 0.217176035047
velY: -0.0108498129994
velZ: -0.19761672616
accX: 0.0
accY: 0.0
accZ: 0.0
---
header: 
  seq: 44804
  stamp: 
    secs: 1596613216
    nsecs: 705450959
  frame_id: "node1_radarinterface_radarscan"
range: 2.11066031456
angle: -0.225342482328
elev: 0.205254420638
doppler: -0.159006148577
snr: 241
noise: 463
frame_num: 3995
point_id: 38
x: -0.461706936359
y: 2.01411342621
z: 0.430186867714
doppler_bin: 30
target_idx: 2
posX: -0.218052715063
posY: 1.9521150589
posZ: 0.319462239742
velX: 0.217176035047
velY: -0.0108498129994
velZ: -0.19761672616
accX: 0.0
accY: 0.0
accZ: 0.0
---
header: 
  seq: 44805
  stamp: 
    secs: 1596613216
    nsecs: 705462714
  frame_id: "node1_radarinterface_radarscan"
range: 2.26700544357
angle: -0.0965407565236
elev: 0.234621018171
doppler: -0.159006148577
snr: 115
noise: 482
frame_num: 3995
point_id: 40
x: -0.212531760335
y: 2.19462823868
z: 0.52702075243
doppler_bin: 30
target_idx: 2
posX: -0.218052715063
posY: 1.9521150589
posZ: 0.319462239742
velX: 0.217176035047
velY: -0.0108498129994
velZ: -0.19761672616
accX: 0.0
accY: 0.0
accZ: 0.0
---
header: 
  seq: 44806
  stamp: 
    secs: 1596613216
    nsecs: 705474151
  frame_id: "node1_radarinterface_radarscan"
range: 1.87614250183
angle: -0.0972048714757
elev: 0.261596381664
doppler: -0.0795030742884
snr: 207
noise: 506
frame_num: 3995
point_id: 43
x: -0.175888359547
y: 1.80375778675
z: 0.485213518143
doppler_bin: 31
target_idx: 2
posX: -0.218052715063
posY: 1.9521150589
posZ: 0.319462239742
velX: 0.217176035047
velY: -0.0108498129994
velZ: -0.19761672616
accX: 0.0
accY: 0.0
accZ: 0.0
---
header: 
  seq: 44807
  stamp: 
    secs: 1596613216
    nsecs: 705486204
  frame_id: "node1_radarinterface_radarscan"
range: 2.03248763084
angle: -0.0318428613245
elev: 0.192403301597
doppler: -0.0795030742884
snr: 228
noise: 504
frame_num: 3995
point_id: 45
x: -0.0635152384639
y: 1.99397182465
z: 0.388649046421
doppler_bin: 31
target_idx: 2
posX: -0.218052715063
posY: 1.9521150589
posZ: 0.319462239742
velX: 0.217176035047
velY: -0.0108498129994
velZ: -0.19761672616
accX: 0.0
accY: 0.0
accZ: 0.0
---
header: 
  seq: 44808
  stamp: 
    secs: 1596613216
    nsecs: 705499215
  frame_id: "node1_radarinterface_radarscan"
range: 2.18883275986
angle: -0.22367118299
elev: 0.166320264339
doppler: -0.0795030742884
snr: 115
noise: 516
frame_num: 3995
point_id: 47
x: -0.478807151318
y: 2.10485625267
z: 0.362371146679
doppler_bin: 31
target_idx: 2
posX: -0.218052715063
posY: 1.9521150589
posZ: 0.319462239742
velX: 0.217176035047
velY: -0.0108498129994
velZ: -0.19761672616
accX: 0.0
accY: 0.0
accZ: 0.0
---
header: 
  seq: 44809
  stamp: 
    secs: 1596613216
    nsecs: 805546847
  frame_id: "node1_radarinterface_radarscan"
range: 1.79796981812
angle: -0.127890586853
elev: 0.199995458126
doppler: 0.0
snr: 158
noise: 480
frame_num: 3996
point_id: 4
x: -0.224746227264
y: 1.74774062634
z: 0.357193470001
doppler_bin: 32
target_idx: 2
