header: 
  seq: 20600
  stamp: 
    secs: 1596613007
    nsecs: 692537012
  frame_id: "node1_radarinterface_radarscan"
range: 2.18883275986
angle: -0.203033715487
elev: 0.376744121313
doppler: 0.0
snr: 146
noise: 431
frame_num: 1905
point_id: 1
x: -0.410406112671
y: 1.99351727962
z: 0.805260360241
doppler_bin: 32
target_idx: 2
posX: -0.160013020039
posY: 2.33469700813
posZ: 0.340050786734
velX: -0.0434982776642
velY: 0.0232815910131
velZ: -0.275285810232
accX: 0.0
accY: 0.0
accZ: 0.0
---
header: 
  seq: 20601
  stamp: 
    secs: 1596613007
    nsecs: 692646288
  frame_id: "node1_radarinterface_radarscan"
range: 2.26700544357
angle: -0.195786073804
elev: 0.269801974297
doppler: 0.0
snr: 226
noise: 420
frame_num: 1905
point_id: 2
x: -0.425063490868
y: 2.1432492733
z: 0.604248940945
doppler_bin: 32
target_idx: 2
posX: -0.160013020039
posY: 2.33469700813
posZ: 0.340050786734
velX: -0.0434982776642
velY: 0.0232815910131
velZ: -0.275285810232
accX: 0.0
accY: 0.0
accZ: 0.0
---
header: 
  seq: 20602
  stamp: 
    secs: 1596613007
    nsecs: 692659858
  frame_id: "node1_radarinterface_radarscan"
range: 2.42335057259
angle: -0.095947869122
elev: 0.207281887531
doppler: 0.0
snr: 269
noise: 409
frame_num: 1905
point_id: 4
x: -0.227189123631
y: 2.36056876183
z: 0.498727321625
doppler_bin: 32
target_idx: 2
posX: -0.160013020039
posY: 2.33469700813
posZ: 0.340050786734
velX: -0.0434982776642
velY: 0.0232815910131
velZ: -0.275285810232
accX: 0.0
accY: 0.0
accZ: 0.0
---
header: 
  seq: 20603
  stamp: 
    secs: 1596613007
    nsecs: 692674551
  frame_id: "node1_radarinterface_radarscan"
range: 2.18883275986
angle: -0.0959601998329
elev: 0.207890212536
doppler: 0.0795030742884
snr: 227
noise: 472
frame_num: 1905
point_id: 11
x: -0.205203086138
y: 2.13185095787
z: 0.451766312122
doppler_bin: 33
target_idx: 2
posX: -0.160013020039
posY: 2.33469700813
posZ: 0.340050786734
velX: -0.0434982776642
velY: 0.0232815910131
velZ: -0.275285810232
accX: 0.0
accY: 0.0
accZ: 0.0
---
header: 
  seq: 20604
  stamp: 
    secs: 1596613007
    nsecs: 692691567
  frame_id: "node1_radarinterface_radarscan"
range: 2.26700544357
angle: -0.095776244998
elev: 0.198608487844
doppler: 0.0795030742884
snr: 276
noise: 472
frame_num: 1905
point_id: 12
x: -0.212531745434
y: 2.21225523949
z: 0.447292327881
doppler_bin: 33
target_idx: 2
posX: -0.160013020039
posY: 2.33469700813
posZ: 0.340050786734
velX: -0.0434982776642
velY: 0.0232815910131
velZ: -0.275285810232
accX: 0.0
accY: 0.0
accZ: 0.0
---
header: 
  seq: 20605
  stamp: 
    secs: 1596613007
    nsecs: 692714348
  frame_id: "node1_radarinterface_radarscan"
range: 2.34517812729
angle: -0.0957701206207
elev: 0.198291316628
doppler: 0.0795030742884
snr: 266
noise: 472
frame_num: 1905
point_id: 13
x: -0.219860449433
y: 2.28868722916
z: 0.461986988783
doppler_bin: 33
target_idx: 2
posX: -0.160013020039
posY: 2.33469700813
posZ: 0.340050786734
velX: -0.0434982776642
velY: 0.0232815910131
velZ: -0.275285810232
accX: 0.0
accY: 0.0
accZ: 0.0
---
header: 
  seq: 20606
  stamp: 
    secs: 1596613007
    nsecs: 692766318
  frame_id: "node1_radarinterface_radarscan"
range: 2.42335057259
angle: -0.0951480790973
elev: 0.162693575025
doppler: 0.0795030742884
snr: 190
noise: 475
frame_num: 1905
point_id: 14
x: -0.227189108729
y: 2.38053250313
z: 0.392526566982
doppler_bin: 33
target_idx: 2
posX: -0.160013020039
posY: 2.33469700813
posZ: 0.340050786734
velX: -0.0434982776642
velY: 0.0232815910131
velZ: -0.275285810232
accX: 0.0
accY: 0.0
accZ: 0.0
---
header: 
  seq: 20607
  stamp: 
    secs: 1596613007
    nsecs: 692784069
  frame_id: "node1_radarinterface_radarscan"
range: 2.5015232563
angle: 0.0313924960792
elev: 0.0935819894075
doppler: 0.0795030742884
snr: 166
noise: 487
frame_num: 1905
point_id: 15
x: 0.07817260921
y: 2.48935055733
z: 0.233755990863
doppler_bin: 33
target_idx: 2
posX: -0.160013020039
posY: 2.33469700813
posZ: 0.340050786734
velX: -0.0434982776642
velY: 0.0232815910131
velZ: -0.275285810232
accX: 0.0
accY: 0.0
accZ: 0.0
---
header: 
  seq: 20608
  stamp: 
    secs: 1596613007
    nsecs: 692803792
  frame_id: "node1_radarinterface_radarscan"
range: 2.18883275986
angle: -0.0962947532535
elev: 0.22371725738
doppler: 0.159006148577
snr: 172
noise: 455
frame_num: 1905
point_id: 26
x: -0.205203056335
y: 2.12439823151
z: 0.485605180264
doppler_bin: 34
target_idx: 2
posX: -0.160013020039
posY: 2.33469700813
posZ: 0.340050786734
velX: -0.0434982776642
velY: 0.0232815910131
velZ: -0.275285810232
accX: 0.0
accY: 0.0
accZ: 0.0
---
header: 
  seq: 20609
  stamp: 
    secs: 1596613007
    nsecs: 692885680
  frame_id: "node1_radarinterface_radarscan"
range: 2.5015232563
angle: 0.0952971503139
elev: 0.171934708953
doppler: 0.159006148577
snr: 135
noise: 491
frame_num: 1905
point_id: 30
x: 0.234517812729
y: 2.45345687866
z: 0.427982747555
doppler_bin: 34
target_idx: 2
posX: -0.160013020039
posY: 2.33469700813
posZ: 0.340050786734
velX: -0.0434982776642
velY: 0.0232815910131
velZ: -0.275285810232
accX: 0.0
accY: 0.0
accZ: 0.0
---
header: 
  seq: 20610
  stamp: 
    secs: 1596613007
    nsecs: 692919394
  frame_id: "node1_radarinterface_radarscan"
range: 2.18883275986
angle: -0.125627189875
elev: 0.0688675791025
doppler: -0.159006148577
snr: 242
noise: 386
frame_num: 1905
point_id: 44
x: -0.273604094982
y: 2.16643571854
z: 0.150620490313
doppler_bin: 30
target_idx: 2
posX: -0.160013020039
posY: 2.33469700813
posZ: 0.340050786734
velX: -0.0434982776642
velY: 0.0232815910131
velZ: -0.275285810232
accX: 0.0
accY: 0.0
accZ: 0.0
---
header: 
  seq: 20611
  stamp: 
    secs: 1596613007
    nsecs: 692973387
  frame_id: "node1_radarinterface_radarscan"
range: 2.42335057259
angle: -0.125459656119
elev: -0.0457249730825
doppler: -0.159006148577
snr: 252
noise: 383
frame_num: 1905
point_id: 47
x: -0.302918821573
y: 2.4017906189
z: -0.110769033432
doppler_bin: 30
target_idx: 2
posX: -0.160013020039
posY: 2.33469700813
posZ: 0.340050786734
velX: -0.0434982776642
velY: 0.0232815910131
velZ: -0.275285810232
accX: 0.0
accY: 0.0
accZ: 0.0
---
header: 
  seq: 20612
  stamp: 
    secs: 1596613007
    nsecs: 692994547
  frame_id: "node1_radarinterface_radarscan"
range: 2.42335057259
angle: -0.126048475504
elev: 0.106700576842
doppler: -0.0795030742884
snr: 304
noise: 398
frame_num: 1905
point_id: 52
x: -0.302918851376
y: 2.39045214653
z: 0.258082538843
doppler_bin: 31
target_idx: 2
posX: -0.160013020039
posY: 2.33469700813
posZ: 0.340050786734
velX: -0.0434982776642
velY: 0.0232815910131
velZ: -0.275285810232
accX: 0.0
accY: 0.0
accZ: 0.0
---
header: 
  seq: 20613
  stamp: 
    secs: 1596613007
    nsecs: 693016118
  frame_id: "node1_radarinterface_radarscan"
range: 2.5015232563
angle: -0.125982314348
elev: 0.101707093418
doppler: -0.0795030742884
snr: 240
noise: 411
frame_num: 1905
point_id: 53
x: -0.31269043684
y: 2.46887326241
z: 0.253984242678
doppler_bin: 31
target_idx: 2
posX: -0.160013020039
posY: 2.33469700813
posZ: 0.340050786734
velX: -0.0434982776642
velY: 0.0232815910131
velZ: -0.275285810232
accX: 0.0
accY: 0.0
accZ: 0.0
---
header: 
  seq: 20614
  stamp: 
    secs: 1596613007
    nsecs: 791945917
  frame_id: "node1_radarinterface_radarscan"
range: 2.26700544357
angle: -0.03137389943
elev: 0.0870415940881
doppler: 0.0
snr: 301
noise: 412
frame_num: 1906
point_id: 3
x: -0.0708439126611
y: 2.25731158257
z: 0.197074696422
doppler_bin: 32
target_idx: 2
posX: -0.137654781342
posY: 2.3355948925
posZ: 0.295608758926
velX: 0.0365256145597
velY: 0.0028551639989
velZ: -0.35343208909
accX: 0.0
accY: 0.0
accZ: 0.0
---
header: 
  seq: 20615
  stamp: 
    secs: 1596613007
    nsecs: 792013886
  frame_id: "node1_radarinterface_radarscan"
range: 2.42335057259
angle: -0.032059662044
elev: 0.22447013855
doppler: 0.0
snr: 283
noise: 414
frame_num: 1906
point_id: 5
x: -0.0757297128439
y: 2.36134004593
z: 0.539413154125
doppler_bin: 32
target_idx: 2
posX: -0.137654781342
posY: 2.3355948925
posZ: 0.295608758926
velX: 0.0365256145597
velY: 0.0028551639989
velZ: -0.35343208909
accX: 0.0
accY: 0.0
accZ: 0.0
---
header: 
  seq: 20616
  stamp: 
    secs: 1596613007
    nsecs: 792043516
  frame_id: "node1_radarinterface_radarscan"
range: 2.26700544357
angle: -0.094664670527
elev: 0.128005817533
doppler: 0.0795030742884
snr: 208
noise: 447
frame_num: 1906
point_id: 13
x: -0.212531760335
y: 2.23839068413
z: 0.289398044348
doppler_bin: 33
target_idx: 2
posX: -0.137654781342
posY: 2.3355948925
posZ: 0.295608758926
velX: 0.0365256145597
velY: 0.0028551639989
velZ: -0.35343208909
accX: 0.0
accY: 0.0
accZ: 0.0
---
header: 
  seq: 20617
  stamp: 
    secs: 1596613007
    nsecs: 792103730
  frame_id: "node1_radarinterface_radarscan"
range: 2.34517812729
angle: -0.188874661922
elev: -0.0519897527993
doppler: 0.0795030742884
snr: 213
noise: 441
frame_num: 1906
point_id: 14
x: -0.439720898867
y: 2.30035924911
z: -0.121870309114
doppler_bin: 33
target_idx: 2
posX: -0.137654781342
posY: 2.3355948925
posZ: 0.295608758926
velX: 0.0365256145597
velY: 0.0028551639989
velZ: -0.35343208909
accX: 0.0
accY: 0.0
accZ: 0.0
---
header: 
  seq: 20618
  stamp: 
    secs: 1596613007
    nsecs: 792132713
  frame_id: "node1_radarinterface_radarscan"
range: 2.18883275986
angle: -0.0626445263624
elev: 0.0575279183686
doppler: -0.159006148577
snr: 254
noise: 392
frame_num: 1906
point_id: 33
x: -0.136802047491
y: 2.18092560768
z: 0.125849545002
doppler_bin: 30
target_idx: 2
posX: -0.137654781342
posY: 2.3355948925
posZ: 0.295608758926
velX: 0.0365256145597
velY: 0.0028551639989
velZ: -0.35343208909
accX: 0.0
accY: 0.0
accZ: 0.0
---
header: 
  seq: 20619
  stamp: 
    secs: 1596613007
    nsecs: 792152925
  frame_id: "node1_radarinterface_radarscan"
range: 2.34517812729
angle: -0.0313082970679
elev: 0.0582993663847
doppler: -0.159006148577
snr: 309
noise: 386
frame_num: 1906
point_id: 35
x: -0.0732868239284
y: 2.34004664421
z: 0.13664495945
doppler_bin: 30
target_idx: 2
posX: -0.137654781342
posY: 2.3355948925
posZ: 0.295608758926
velX: 0.0365256145597
velY: 0.0028551639989
velZ: -0.35343208909
accX: 0.0
accY: 0.0
accZ: 0.0
---
header: 
  seq: 20620
  stamp: 
    secs: 1596613007
    nsecs: 792175890
  frame_id: "node1_radarinterface_radarscan"
range: 2.42335057259
angle: 0.0
elev: 0.171259760857
doppler: -0.159006148577
snr: 293
noise: 389
frame_num: 1906
point_id: 36
x: 0.0
y: 2.38789892197
z: 0.412996649742
doppler_bin: 30
target_idx: 2
posX: -0.137654781342
posY: 2.3355948925
posZ: 0.295608758926
velX: 0.0365256145597
velY: 0.0028551639989
velZ: -0.35343208909
accX: 0.0
accY: 0.0
accZ: 0.0
---
header: 
  seq: 20621
  stamp: 
    secs: 1596613007
    nsecs: 792199436
  frame_id: "node1_radarinterface_radarscan"
range: 2.11066031456
angle: -0.0313787944615
elev: 0.0888099893928
doppler: -0.0795030742884
snr: 128
noise: 419
frame_num: 1906
point_id: 38
x: -0.06595813483
y: 2.1013071537
z: 0.187201410532
doppler_bin: 31
target_idx: 2
posX: -0.137654781342
posY: 2.3355948925
posZ: 0.295608758926
velX: 0.0365256145597
velY: 0.0028551639989
velZ: -0.35343208909
accX: 0.0
accY: 0.0
accZ: 0.0
---
header: 
  seq: 20622
  stamp: 
    secs: 1596613007
    nsecs: 792224784
  frame_id: "node1_radarinterface_radarscan"
range: 2.34517812729
angle: -0.031408149749
elev: 0.0987485200167
doppler: -0.0795030742884
snr: 348
noise: 400
frame_num: 1906
point_id: 41
x: -0.0732868164778
y: 2.33260202408
z: 0.231206685305
doppler_bin: 31
target_idx: 2
posX: -0.137654781342
posY: 2.3355948925
posZ: 0.295608758926
velX: 0.0365256145597
velY: 0.0028551639989
velZ: -0.35343208909
accX: 0.0
accY: 0.0
accZ: 0.0
---
header: 
  seq: 20623
  stamp: 
    secs: 1596613007
    nsecs: 792248125
  frame_id: "node1_radarinterface_radarscan"
range: 2.5015232563
angle: 0.0
elev: 0.277297377586
doppler: -0.0795030742884
snr: 285
noise: 415
frame_num: 1906
point_id: 43
x: 0.0
y: 2.40596199036
z: 0.684810161591
doppler_bin: 31
target_idx: 2
posX: -0.137654781342
posY: 2.3355948925
posZ: 0.295608758926
velX: 0.0365256145597
velY: 0.0028551639989
velZ: -0.35343208909
accX: 0.0
accY: 0.0
accZ: 0.0
---
header: 
  seq: 20624
  stamp: 
    secs: 1596613007
    nsecs: 792271198
  frame_id: "node1_radarinterface_radarscan"
range: 2.57969594002
angle: -0.0319935642183
elev: 0.215238124132
doppler: -0.0795030742884
snr: 166
noise: 450
frame_num: 1906
point_id: 44
x: -0.0806154981256
y: 2.51888132095
z: 0.550971627235
doppler_bin: 31
target_idx: 2
posX: -0.137654781342
posY: 2.3355948925
posZ: 0.295608758926
velX: 0.0365256145597
velY: 0.0028551639989
velZ: -0.35343208909
accX: 0.0
accY: 0.0
accZ: 0.0
---
header: 
  seq: 20625
  stamp: 
    secs: 1596613007
    nsecs: 891777197
  frame_id: "node1_radarinterface_radarscan"
range: 2.26700544357
angle: -0.129494845867
elev: 0.25369182229
doppler: 0.0
snr: 210
noise: 423
frame_num: 1907
point_id: 2
x: -0.283375680447
y: 2.17607069016
z: 0.568971455097
doppler_bin: 32
target_idx: 2
posX: -0.219241514802
posY: 2.31493520737
posZ: 0.333857566118
velX: -0.281225174665
velY: -0.0670287683606
velZ: -0.170716822147
accX: 0.0
accY: 0.0
accZ: 0.0
---
header: 
  seq: 20626
  stamp: 
    secs: 1596613007
    nsecs: 891854859
  frame_id: "node1_radarinterface_radarscan"
range: 2.42335057259
angle: -0.127819433808
elev: 0.197245836258
doppler: 0.0
snr: 265
noise: 401
frame_num: 1907
point_id: 4
x: -0.302918821573
y: 2.35697603226
z: 0.474902361631
doppler_bin: 32
target_idx: 2
posX: -0.219241514802
posY: 2.31493520737
posZ: 0.333857566118
velX: -0.281225174665
velY: -0.0670287683606
velZ: -0.170716822147
accX: 0.0
accY: 0.0
accZ: 0.0
---
header: 
  seq: 20627
  stamp: 
    secs: 1596613007
    nsecs: 891867512
  frame_id: "node1_radarinterface_radarscan"
range: 2.26700544357
angle: -0.0666343048215
elev: 0.352102220058
doppler: 0.0795030742884
snr: 134
noise: 464
frame_num: 1907
point_id: 11
x: -0.141687840223
y: 2.12320184708
z: 0.781826257706
doppler_bin: 33
target_idx: 2
posX: -0.219241514802
posY: 2.31493520737
posZ: 0.333857566118
velX: -0.281225174665
velY: -0.0670287683606
velZ: -0.170716822147
accX: 0.0
accY: 0.0
accZ: 0.0
---
header: 
  seq: 20628
  stamp: 
    secs: 1596613007
    nsecs: 891884519
  frame_id: "node1_radarinterface_radarscan"
range: 2.34517812729
angle: -0.0638779103756
elev: 0.204834491014
doppler: 0.0795030742884
snr: 208
noise: 447
frame_num: 1907
point_id: 12
x: -0.146573632956
y: 2.29146838188
z: 0.477021217346
doppler_bin: 33
target_idx: 2
posX: -0.219241514802
posY: 2.31493520737
posZ: 0.333857566118
velX: -0.281225174665
velY: -0.0670287683606
velZ: -0.170716822147
accX: 0.0
accY: 0.0
accZ: 0.0
---
header: 
  seq: 20629
  stamp: 
    secs: 1596613007
    nsecs: 891902237
  frame_id: "node1_radarinterface_radarscan"
range: 2.42335057259
angle: -0.0319961458445
elev: 0.215606480837
doppler: 0.0795030742884
snr: 222
noise: 439
frame_num: 1907
point_id: 13
x: -0.0757297053933
y: 2.36603069305
z: 0.518451392651
doppler_bin: 33
target_idx: 2
posX: -0.219241514802
posY: 2.31493520737
posZ: 0.333857566118
velX: -0.281225174665
velY: -0.0670287683606
velZ: -0.170716822147
accX: 0.0
accY: 0.0
accZ: 0.0
---
header: 
  seq: 20630
  stamp: 
    secs: 1596613007
    nsecs: 891956719
  frame_id: "node1_radarinterface_radarscan"
range: 2.5015232563
angle: 0.0
elev: 0.213614016771
doppler: 0.0795030742884
snr: 179
noise: 440
frame_num: 1907
point_id: 14
x: 0.0
y: 2.44466662407
z: 0.530305802822
doppler_bin: 33
target_idx: 2
posX: -0.219241514802
posY: 2.31493520737
posZ: 0.333857566118
velX: -0.281225174665
velY: -0.0670287683606
velZ: -0.170716822147
accX: 0.0
accY: 0.0
accZ: 0.0
---
header: 
  seq: 20631
  stamp: 
    secs: 1596613007
    nsecs: 891981977
  frame_id: "node1_radarinterface_radarscan"
range: 2.18883275986
angle: -0.158028200269
elev: 0.119444876909
doppler: -0.238509222865
snr: 204
noise: 388
frame_num: 1907
point_id: 41
x: -0.342005103827
y: 2.14615750313
z: 0.260823637247
doppler_bin: 29
target_idx: 2
posX: -0.219241514802
posY: 2.31493520737
posZ: 0.333857566118
velX: -0.281225174665
velY: -0.0670287683606
velZ: -0.170716822147
accX: 0.0
accY: 0.0
accZ: 0.0
---
header: 
  seq: 20632
  stamp: 
    secs: 1596613007
    nsecs: 892001539
  frame_id: "node1_radarinterface_radarscan"
range: 2.11066031456
angle: -0.190333679318
elev: 0.133626699448
doppler: -0.159006148577
snr: 176
noise: 401
frame_num: 1907
point_id: 43
x: -0.395748823881
y: 2.05406808853
z: 0.281201958656
doppler_bin: 30
target_idx: 2
posX: -0.219241514802
posY: 2.31493520737
posZ: 0.333857566118
velX: -0.281225174665
velY: -0.0670287683606
velZ: -0.170716822147
accX: 0.0
accY: 0.0
accZ: 0.0
---
header: 
  seq: 20633
  stamp: 
    secs: 1596613007
    nsecs: 892011832
  frame_id: "node1_radarinterface_radarscan"
range: 2.18883275986
angle: -0.190601572394
elev: 0.143586665392
doppler: -0.159006148577
snr: 264
noise: 392
frame_num: 1907
point_id: 44
x: -0.410406142473
y: 2.12707686424
z: 0.313208371401
doppler_bin: 30
target_idx: 2
posX: -0.219241514802
posY: 2.31493520737
posZ: 0.333857566118
velX: -0.281225174665
velY: -0.0670287683606
velZ: -0.170716822147
accX: 0.0
accY: 0.0
accZ: 0.0
---
header: 
  seq: 20634
  stamp: 
    secs: 1596613007
    nsecs: 892022618
  frame_id: "node1_radarinterface_radarscan"
range: 2.42335057259
angle: -0.126342505217
elev: 0.126487016678
doppler: -0.159006148577
snr: 276
noise: 382
frame_num: 1907
point_id: 47
x: -0.302918821573
y: 2.38482952118
z: 0.305705696344
doppler_bin: 30
target_idx: 2
posX: -0.219241514802
posY: 2.31493520737
posZ: 0.333857566118
velX: -0.281225174665
velY: -0.0670287683606
velZ: -0.170716822147
accX: 0.0
accY: 0.0
accZ: 0.0
---
header: 
  seq: 20635
  stamp: 
    secs: 1596613007
    nsecs: 892033908
  frame_id: "node1_radarinterface_radarscan"
range: 2.11066031456
angle: -0.190893217921
elev: 0.15367385745
doppler: -0.0795030742884
snr: 150
noise: 408
frame_num: 1907
point_id: 48
x: -0.395748823881
y: 2.0478990078
z: 0.32307818532
doppler_bin: 31
target_idx: 2
posX: -0.219241514802
posY: 2.31493520737
posZ: 0.333857566118
velX: -0.281225174665
velY: -0.0670287683606
velZ: -0.170716822147
accX: 0.0
accY: 0.0
accZ: 0.0
---
header: 
  seq: 20636
  stamp: 
    secs: 1596613007
    nsecs: 892093268
  frame_id: "node1_radarinterface_radarscan"
range: 2.42335057259
angle: -0.158868566155
elev: 0.157216876745
doppler: -0.0795030742884
snr: 291
noise: 395
frame_num: 1907
point_id: 52
x: -0.378648549318
y: 2.36332201958
z: 0.379424035549
doppler_bin: 31
target_idx: 2
posX: -0.219241514802
posY: 2.31493520737
posZ: 0.333857566118
velX: -0.281225174665
velY: -0.0670287683606
velZ: -0.170716822147
accX: 0.0
accY: 0.0
accZ: 0.0
---
header: 
  seq: 20637
  stamp: 
    secs: 1596613007
    nsecs: 892114858
  frame_id: "node1_radarinterface_radarscan"
range: 2.5015232563
angle: -0.158262774348
elev: 0.131123542786
doppler: -0.0795030742884
snr: 171
noise: 415
frame_num: 1907
point_id: 53
x: -0.390863001347
y: 2.44905495644
z: 0.327069461346
doppler_bin: 31
target_idx: 2
posX: -0.219241514802
posY: 2.31493520737
posZ: 0.333857566118
velX: -0.281225174665
velY: -0.0670287683606
velZ: -0.170716822147
accX: 0.0
accY: 0.0
accZ: 0.0
---
header: 
  seq: 20638
  stamp: 
    secs: 1596613007
    nsecs: 991811246
  frame_id: "node1_radarinterface_radarscan"
range: 2.26700544357
angle: -0.223172307014
elev: 0.152671188116
doppler: 0.0
snr: 184
noise: 449
frame_num: 1908
point_id: 5
x: -0.495907485485
y: 2.18506932259
z: 0.344763457775
doppler_bin: 32
target_idx: 2
posX: -0.250081181526
posY: 2.29827356339
posZ: 0.410288631916
velX: -0.34721377492
velY: -0.0871955230832
velZ: 0.0972938090563
accX: 0.0
accY: 0.0
accZ: 0.0
---
header: 
  seq: 20639
  stamp: 
    secs: 1596613007
    nsecs: 991878722
  frame_id: "node1_radarinterface_radarscan"
range: 2.42335057259
angle: -0.0322115272284
elev: 0.244256705046
doppler: 0.0
snr: 191
noise: 432
frame_num: 1908
point_id: 7
x: -0.0757297053933
y: 2.35019946098
z: 0.586051344872
doppler_bin: 32
target_idx: 2
posX: -0.250081181526
posY: 2.29827356339
posZ: 0.410288631916
velX: -0.34721377492
velY: -0.0871955230832
velZ: 0.0972938090563
accX: 0.0
accY: 0.0
accZ: 0.0
---
header: 
  seq: 20640
  stamp: 
    secs: 1596613007
    nsecs: 991892676
  frame_id: "node1_radarinterface_radarscan"
range: 2.42335057259
angle: -0.0323359146714
elev: 0.25923576951
doppler: 0.0795030742884
snr: 232
noise: 457
frame_num: 1908
point_id: 18
x: -0.0757297128439
y: 2.341152668
z: 0.621206343174
doppler_bin: 33
target_idx: 2
posX: -0.250081181526
posY: 2.29827356339
posZ: 0.410288631916
velX: -0.34721377492
velY: -0.0871955230832
velZ: 0.0972938090563
accX: 0.0
accY: 0.0
accZ: 0.0
---
header: 
  seq: 20641
  stamp: 
    secs: 1596613007
    nsecs: 991910968
  frame_id: "node1_radarinterface_radarscan"
range: 2.42335057259
angle: -0.0321991033852
elev: 0.242704078555
doppler: 0.159006148577
snr: 178
noise: 459
frame_num: 1908
point_id: 30
x: -0.0757297053933
y: 2.3511068821
z: 0.582399785519
doppler_bin: 34
target_idx: 2
posX: -0.250081181526
posY: 2.29827356339
posZ: 0.410288631916
velX: -0.34721377492
velY: -0.0871955230832
velZ: 0.0972938090563
accX: 0.0
accY: 0.0
accZ: 0.0
---
header: 
  seq: 20642
  stamp: 
    secs: 1596613007
    nsecs: 991928992
  frame_id: "node1_radarinterface_radarscan"
range: 2.18883275986
angle: -0.190381467342
elev: 0.13545922935
doppler: -0.159006148577
snr: 231
noise: 389
frame_num: 1908
point_id: 44
x: -0.410406112671
y: 2.12959647179
z: 0.295591682196
doppler_bin: 30
target_idx: 2
posX: -0.250081181526
posY: 2.29827356339
posZ: 0.410288631916
velX: -0.34721377492
velY: -0.0871955230832
velZ: 0.0972938090563
accX: 0.0
accY: 0.0
accZ: 0.0
---
header: 
  seq: 20643
  stamp: 
    secs: 1596613007
    nsecs: 991943755
  frame_id: "node1_radarinterface_radarscan"
range: 2.11066031456
angle: -0.191243261099
elev: 0.164937406778
doppler: -0.0795030742884
snr: 159
noise: 442
frame_num: 1908
point_id: 46
x: -0.395748794079
y: 2.04405784607
z: 0.346550554037
doppler_bin: 31
target_idx: 2
posX: -0.250081181526
posY: 2.29827356339
posZ: 0.410288631916
velX: -0.34721377492
velY: -0.0871955230832
velZ: 0.0972938090563
accX: 0.0
accY: 0.0
accZ: 0.0
---
header: 
  seq: 20644
  stamp: 
    secs: 1596613007
    nsecs: 992107213
  frame_id: "node1_radarinterface_radarscan"
range: 2.34517812729
angle: 0.0
elev: 0.424160569906
doppler: -0.0795030742884
snr: 247
noise: 392
frame_num: 1908
point_id: 49
x: 0.0
y: 2.1373591423
z: 0.965171873569
doppler_bin: 31
target_idx: 2
posX: -0.250081181526
posY: 2.29827356339
posZ: 0.410288631916
velX: -0.34721377492
velY: -0.0871955230832
velZ: 0.0972938090563
accX: 0.0
accY: 0.0
accZ: 0.0
---
header: 
  seq: 20645
  stamp: 
    secs: 1596613008
    nsecs:  97031010
  frame_id: "node1_radarinterface_radarscan"
range: 2.34517812729
angle: -0.0630239471793
elev: 0.12382593751
doppler: 0.0
snr: 150
noise: 423
frame_num: 1909
point_id: 6
x: -0.146573632956
y: 2.32260155678
z: 0.289652347565
doppler_bin: 32
target_idx: 2
posX: -0.257499873638
posY: 2.2930662632
posZ: 0.395425260067
velX: -0.30257037282
velY: -0.0855737477541
velZ: 0.0568167194724
accX: 0.0
accY: 0.0
accZ: 0.0
---
header: 
  seq: 20646
  stamp: 
    secs: 1596613008
    nsecs:  97170805
  frame_id: "node1_radarinterface_radarscan"
range: 2.42335057259
angle: -0.0314362384379
elev: 0.107388004661
doppler: 0.0
snr: 141
noise: 420
frame_num: 1909
point_id: 7
x: -0.0757297053933
y: 2.40820026398
z: 0.259738892317
doppler_bin: 32
target_idx: 2
posX: -0.257499873638
posY: 2.2930662632
posZ: 0.395425260067
velX: -0.30257037282
velY: -0.0855737477541
velZ: 0.0568167194724
accX: 0.0
accY: 0.0
accZ: 0.0
---
header: 
  seq: 20647
  stamp: 
    secs: 1596613008
    nsecs:  97261969
  frame_id: "node1_radarinterface_radarscan"
range: 2.42335057259
angle: -0.063292875886
elev: 0.154214277864
doppler: 0.0795030742884
snr: 150
noise: 461
frame_num: 1909
point_id: 15
x: -0.151459410787
y: 2.38979673386
z: 0.372235745192
doppler_bin: 33
target_idx: 2
posX: -0.257499873638
posY: 2.2930662632
posZ: 0.395425260067
velX: -0.30257037282
velY: -0.0855737477541
velZ: 0.0568167194724
accX: 0.0
accY: 0.0
accZ: 0.0
---
header: 
  seq: 20648
  stamp: 
    secs: 1596613008
    nsecs:  97290275
  frame_id: "node1_radarinterface_radarscan"
range: 2.26700544357
angle: -0.0945818349719
elev: 0.121032088995
doppler: -0.159006148577
snr: 154
noise: 380
frame_num: 1909
point_id: 26
x: -0.212531775236
y: 2.24036288261
z: 0.273710995913
doppler_bin: 30
target_idx: 2
posX: -0.257499873638
posY: 2.2930662632
posZ: 0.395425260067
velX: -0.30257037282
velY: -0.0855737477541
velZ: 0.0568167194724
accX: 0.0
accY: 0.0
accZ: 0.0
---
header: 
  seq: 20649
  stamp: 
    secs: 1596613008
    nsecs:  97312182
  frame_id: "node1_radarinterface_radarscan"
range: 2.26700544357
angle: -0.0949050784111
elev: 0.146325170994
doppler: -0.0795030742884
snr: 234
noise: 388
frame_num: 1909
point_id: 32
x: -0.212531760335
y: 2.23268651962
z: 0.330537468195
doppler_bin: 31
target_idx: 2
posX: -0.257499873638
posY: 2.2930662632
posZ: 0.395425260067
velX: -0.30257037282
velY: -0.0855737477541
velZ: 0.0568167194724
accX: 0.0
accY: 0.0
accZ: 0.0
---
header: 
  seq: 20650
  stamp: 
    secs: 1596613008
    nsecs: 192010901
  frame_id: "node1_radarinterface_radarscan"
range: 2.26700544357
angle: -0.235197916627
elev: 0.351961344481
doppler: 0.0
snr: 221
noise: 421
frame_num: 1910
point_id: 6
x: -0.495907455683
y: 2.06944584846
z: 0.781526505947
doppler_bin: 32
target_idx: 2
posX: -0.338232398033
posY: 2.26319742203
posZ: 0.456149339676
velX: -0.520956635475
velY: -0.127169966698
velZ: 0.241952747107
accX: 0.0
accY: 0.0
accZ: 0.0
---
header: 
  seq: 20651
  stamp: 
    secs: 1596613008
    nsecs: 192150115
  frame_id: "node1_radarinterface_radarscan"
range: 2.26700544357
angle: 0.0630822852254
elev: -0.131037533283
doppler: 0.0
snr: 221
noise: 421
frame_num: 1910
point_id: 7
x: 0.141687840223
y: 2.24309945107
z: -0.296213388443
doppler_bin: 32
target_idx: 2
posX: -0.338232398033
posY: 2.26319742203
posZ: 0.456149339676
velX: -0.520956635475
velY: -0.127169966698
velZ: 0.241952747107
accX: 0.0
accY: 0.0
accZ: 0.0
---
header: 
  seq: 20652
  stamp: 
    secs: 1596613008
    nsecs: 192169054
  frame_id: "node1_radarinterface_radarscan"
range: 2.11066031456
angle: -0.192715674639
elev: 0.205375552177
doppler: 0.0795030742884
snr: 134
noise: 479
frame_num: 1910
point_id: 15
x: -0.395748823881
y: 2.02805185318
z: 0.430437147617
doppler_bin: 33
target_idx: 2
posX: -0.338232398033
posY: 2.26319742203
posZ: 0.456149339676
velX: -0.520956635475
velY: -0.127169966698
velZ: 0.241952747107
accX: 0.0
accY: 0.0
accZ: 0.0
---
header: 
  seq: 20653
  stamp: 
    secs: 1596613008
    nsecs: 192186832
  frame_id: "node1_radarinterface_radarscan"
range: 2.26700544357
angle: -0.235464259982
elev: 0.354971945286
doppler: 0.0795030742884
snr: 242
noise: 456
frame_num: 1910
point_id: 17
x: -0.495907455683
y: 2.06701636314
z: 0.787929594517
doppler_bin: 33
target_idx: 2
posX: -0.338232398033
posY: 2.26319742203
posZ: 0.456149339676
velX: -0.520956635475
velY: -0.127169966698
velZ: 0.241952747107
accX: 0.0
accY: 0.0
accZ: 0.0
---
header: 
  seq: 20654
  stamp: 
    secs: 1596613008
    nsecs: 192218682
  frame_id: "node1_radarinterface_radarscan"
range: 2.34517812729
angle: 0.0628597140312
elev: -0.100714430213
doppler: 0.159006148577
snr: 169
noise: 432
frame_num: 1910
point_id: 24
x: 0.146573632956
y: 2.3286857605
z: -0.235794186592
doppler_bin: 34
target_idx: 2
posX: -0.338232398033
posY: 2.26319742203
posZ: 0.456149339676
velX: -0.520956635475
velY: -0.127169966698
velZ: 0.241952747107
accX: 0.0
accY: 0.0
accZ: 0.0
---
header: 
  seq: 20655
  stamp: 
    secs: 1596613008
    nsecs: 192316690
  frame_id: "node1_radarinterface_radarscan"
range: 2.42335057259
angle: -0.188790842891
elev: -0.0427369475365
doppler: -0.0795030742884
snr: 166
noise: 434
frame_num: 1910
point_id: 38
x: -0.454378217459
y: 2.37811875343
z: -0.103535085917
doppler_bin: 31
target_idx: 2
posX: -0.338232398033
posY: 2.26319742203
posZ: 0.456149339676
velX: -0.520956635475
velY: -0.127169966698
velZ: 0.241952747107
accX: 0.0
accY: 0.0
accZ: 0.0
---
header: 
  seq: 20656
  stamp: 
    secs: 1596613008
    nsecs: 291436293
  frame_id: "node1_radarinterface_radarscan"
range: 2.26700544357
angle: -0.126788526773
elev: 0.151538461447
doppler: 0.0
snr: 273
noise: 409
frame_num: 1911
point_id: 6
x: -0.283375680447
y: 2.22303724289
z: 0.342225193977
doppler_bin: 32
target_idx: 2
posX: -0.291641831398
posY: 2.26422405243
posZ: 0.487592279911
velX: -0.256462305784
velY: -0.0634714737535
velZ: 0.311184406281
accX: 0.0
accY: 0.0
accZ: 0.0
---
header: 
  seq: 20657
  stamp: 
    secs: 1596613008
    nsecs: 291534022
  frame_id: "node1_radarinterface_radarscan"
range: 2.34517812729
angle: -0.127226501703
elev: 0.172520160675
doppler: 0.0
snr: 256
noise: 408
frame_num: 1911
point_id: 7
x: -0.293147265911
y: 2.29169130325
z: 0.402586519718
doppler_bin: 32
target_idx: 2
posX: -0.291641831398
posY: 2.26422405243
posZ: 0.487592279911
velX: -0.256462305784
velY: -0.0634714737535
velZ: 0.311184406281
accX: 0.0
accY: 0.0
accZ: 0.0
---
header: 
  seq: 20658
  stamp: 
    secs: 1596613008
    nsecs: 291545913
  frame_id: "node1_radarinterface_radarscan"
range: 2.18883275986
angle: -0.126853764057
elev: 0.154852390289
doppler: 0.0795030742884
snr: 237
noise: 447
frame_num: 1911
point_id: 15
x: -0.27360406518
y: 2.14526462555
z: 0.337592989206
doppler_bin: 33
target_idx: 2
posX: -0.291641831398
posY: 2.26422405243
posZ: 0.487592279911
velX: -0.256462305784
velY: -0.0634714737535
velZ: 0.311184406281
accX: 0.0
accY: 0.0
accZ: 0.0
---
header: 
  seq: 20659
  stamp: 
    secs: 1596613008
    nsecs: 291557087
  frame_id: "node1_radarinterface_radarscan"
range: 2.34517812729
angle: -0.129391238093
elev: 0.250602096319
doppler: 0.0795030742884
snr: 263
noise: 438
frame_num: 1911
point_id: 17
x: -0.293147265911
y: 2.25293040276
z: 0.581574380398
doppler_bin: 33
target_idx: 2
posX: -0.291641831398
posY: 2.26422405243
posZ: 0.487592279911
velX: -0.256462305784
velY: -0.0634714737535
velZ: 0.311184406281
accX: 0.0
accY: 0.0
accZ: 0.0
---
header: 
  seq: 20660
  stamp: 
    secs: 1596613008
    nsecs: 291576897
  frame_id: "node1_radarinterface_radarscan"
range: 2.34517812729
angle: -0.16277872026
elev: 0.268596947193
doppler: 0.159006148577
snr: 241
noise: 400
frame_num: 1911
point_id: 24
x: -0.366434067488
y: 2.23119997978
z: 0.622360944748
doppler_bin: 34
target_idx: 2
posX: -0.291641831398
posY: 2.26422405243
posZ: 0.487592279911
velX: -0.256462305784
velY: -0.0634714737535
velZ: 0.311184406281
accX: 0.0
accY: 0.0
accZ: 0.0
---
header: 
  seq: 20661
  stamp: 
    secs: 1596613008
    nsecs: 291599639
  frame_id: "node1_radarinterface_radarscan"
range: 2.42335057259
angle: -0.204297572374
elev: 0.39187541604
doppler: 0.159006148577
snr: 173
noise: 409
frame_num: 1911
point_id: 25
x: -0.454378247261
y: 2.19307088852
z: 0.925531685352
doppler_bin: 34
target_idx: 2
posX: -0.291641831398
posY: 2.26422405243
posZ: 0.487592279911
velX: -0.256462305784
velY: -0.0634714737535
velZ: 0.311184406281
accX: 0.0
accY: 0.0
accZ: 0.0
---
header: 
  seq: 20662
  stamp: 
    secs: 1596613008
    nsecs: 397578113
  frame_id: "node1_radarinterface_radarscan"
range: 2.18883275986
angle: -0.158317789435
elev: 0.133711487055
doppler: 0.0
snr: 193
noise: 432
frame_num: 1912
point_id: 3
x: -0.342005103827
y: 2.14216566086
z: 0.291800767183
doppler_bin: 32
target_idx: 2
posX: -0.277120411396
posY: 2.27390909195
posZ: 0.44723674655
velX: -0.132273375988
velY: -0.00101505592465
velZ: 0.155852377415
accX: 0.0
accY: 0.0
accZ: 0.0
---
header: 
  seq: 20663
  stamp: 
    secs: 1596613008
    nsecs: 397646497
  frame_id: "node1_radarinterface_radarscan"
range: 2.42335057259
angle: -0.131648525596
elev: 0.310286521912
doppler: 0.0
snr: 147
noise: 405
frame_num: 1912
point_id: 6
x: -0.302918821573
y: 2.28765797615
z: 0.739925265312
doppler_bin: 32
target_idx: 2
posX: -0.277120411396
posY: 2.27390909195
posZ: 0.44723674655
velX: -0.132273375988
velY: -0.00101505592465
velZ: 0.155852377415
accX: 0.0
accY: 0.0
accZ: 0.0
---
header: 
  seq: 20664
  stamp: 
    secs: 1596613008
    nsecs: 397666126
  frame_id: "node1_radarinterface_radarscan"
range: 2.18883275986
angle: -0.158556416631
elev: 0.14438290894
doppler: 0.0795030742884
snr: 223
noise: 456
frame_num: 1912
point_id: 12
x: -0.342005103827
y: 2.13888716698
z: 0.314933180809
doppler_bin: 33
target_idx: 2
posX: -0.277120411396
posY: 2.27390909195
posZ: 0.44723674655
velX: -0.132273375988
velY: -0.00101505592465
velZ: 0.155852377415
accX: 0.0
accY: 0.0
accZ: 0.0
---
header: 
  seq: 20665
  stamp: 
    secs: 1596613008
    nsecs: 397682789
  frame_id: "node1_radarinterface_radarscan"
range: 2.26700544357
angle: -0.126849159598
elev: 0.154620781541
doppler: 0.0795030742884
snr: 273
noise: 439
frame_num: 1912
point_id: 13
x: -0.283375680447
y: 2.22196316719
z: 0.34913110733
doppler_bin: 33
target_idx: 2
posX: -0.277120411396
posY: 2.27390909195
posZ: 0.44723674655
velX: -0.132273375988
velY: -0.00101505592465
velZ: 0.155852377415
accX: 0.0
accY: 0.0
accZ: 0.0
---
header: 
  seq: 20666
  stamp: 
    secs: 1596613008
    nsecs: 397699754
  frame_id: "node1_radarinterface_radarscan"
range: 2.42335057259
angle: -0.168473035097
elev: 0.371317714453
doppler: 0.0795030742884
snr: 154
noise: 437
frame_num: 1912
point_id: 15
x: -0.378648519516
y: 2.2262275219
z: 0.879297375679
doppler_bin: 33
target_idx: 2
posX: -0.277120411396
posY: 2.27390909195
posZ: 0.44723674655
velX: -0.132273375988
velY: -0.00101505592465
velZ: 0.155852377415
accX: 0.0
accY: 0.0
accZ: 0.0
---
header: 
  seq: 20667
  stamp: 
    secs: 1596613008
    nsecs: 397717663
  frame_id: "node1_radarinterface_radarscan"
range: 2.26700544357
angle: -0.0626751407981
elev: 0.0654524937272
doppler: -0.159006148577
snr: 179
noise: 412
frame_num: 1912
point_id: 25
x: -0.141687840223
y: 2.25770974159
z: 0.148275241256
doppler_bin: 30
target_idx: 2
posX: -0.277120411396
posY: 2.27390909195
posZ: 0.44723674655
velX: -0.132273375988
velY: -0.00101505592465
velZ: 0.155852377415
accX: 0.0
accY: 0.0
accZ: 0.0
---
header: 
  seq: 20668
  stamp: 
    secs: 1596613008
    nsecs: 397733413
  frame_id: "node1_radarinterface_radarscan"
range: 2.34517812729
angle: -0.0625528246164
elev: 0.0196250863373
doppler: -0.159006148577
snr: 164
noise: 414
frame_num: 1912
point_id: 26
x: -0.146573632956
y: 2.34014081955
z: 0.0460213683546
doppler_bin: 30
target_idx: 2
posX: -0.277120411396
posY: 2.27390909195
posZ: 0.44723674655
velX: -0.132273375988
velY: -0.00101505592465
velZ: 0.155852377415
accX: 0.0
accY: 0.0
accZ: 0.0
---
header: 
  seq: 20669
  stamp: 
    secs: 1596613008
    nsecs: 397750025
  frame_id: "node1_radarinterface_radarscan"
range: 2.34517812729
angle: -0.062570810318
elev: 0.0309726241976
doppler: -0.0795030742884
snr: 208
noise: 426
frame_num: 1912
point_id: 32
x: -0.146573632956
y: 2.33946609497
z: 0.0726247057319
doppler_bin: 31
target_idx: 2
posX: -0.277120411396
posY: 2.27390909195
posZ: 0.44723674655
velX: -0.132273375988
velY: -0.00101505592465
velZ: 0.155852377415
accX: 0.0
accY: 0.0
accZ: 0.0
---
header: 
  seq: 20670
  stamp: 
    secs: 1596613008
    nsecs: 495963931
  frame_id: "node1_radarinterface_radarscan"
range: 2.26700544357
angle: -0.157405719161
elev: 0.080412119627
doppler: 0.0
snr: 145
noise: 417
frame_num: 1913
point_id: 0
x: -0.354219585657
y: 2.2317442894
z: 0.182098314166
doppler_bin: 32
target_idx: 2
posX: -0.279413849115
posY: 2.28151297569
posZ: 0.409230738878
velX: -0.0847380757332
velY: 0.0306106861681
velZ: 0.0215104371309
accX: 0.0
accY: 0.0
accZ: 0.0
---
header: 
  seq: 20671
  stamp: 
    secs: 1596613008
    nsecs: 496078393
  frame_id: "node1_radarinterface_radarscan"
range: 2.18883275986
angle: -0.158023640513
elev: 0.119206212461
doppler: 0.0795030742884
snr: 139
noise: 480
frame_num: 1913
point_id: 3
x: -0.342005103827
y: 2.14622044563
z: 0.260304957628
doppler_bin: 33
target_idx: 2
posX: -0.279413849115
posY: 2.28151297569
posZ: 0.409230738878
velX: -0.0847380757332
velY: 0.0306106861681
velZ: 0.0215104371309
accX: 0.0
accY: 0.0
accZ: 0.0
---
header: 
  seq: 20672
  stamp: 
    secs: 1596613008
    nsecs: 595203030
  frame_id: "node1_radarinterface_radarscan"
range: 2.26700544357
angle: -0.0637248307467
elev: 0.192946657538
doppler: 0.0795030742884
snr: 142
noise: 461
frame_num: 1914
point_id: 10
x: -0.141687840223
y: 2.22042155266
z: 0.434702157974
doppler_bin: 33
target_idx: 2
posX: -0.236365884542
posY: 2.29019260406
posZ: 0.407394617796
velX: 0.105590835214
velY: 0.0472702383995
velZ: 0.00419953651726
accX: 0.0
accY: 0.0
accZ: 0.0
---
header: 
  seq: 20673
  stamp: 
    secs: 1596613008
    nsecs: 595305074
  frame_id: "node1_radarinterface_radarscan"
range: 2.34517812729
angle: -0.0956641659141
elev: 0.1927190274
doppler: 0.0795030742884
snr: 132
noise: 437
frame_num: 1914
point_id: 11
x: -0.219860449433
y: 2.2912375927
z: 0.449167966843
doppler_bin: 33
target_idx: 2
posX: -0.236365884542
posY: 2.29019260406
posZ: 0.407394617796
velX: 0.105590835214
velY: 0.0472702383995
velZ: 0.00419953651726
accX: 0.0
accY: 0.0
accZ: 0.0
---
header: 
  seq: 20674
  stamp: 
    secs: 1596613008
    nsecs: 595321989
  frame_id: "node1_radarinterface_radarscan"
range: 2.42335057259
angle: -0.198510035872
elev: 0.315089315176
doppler: 0.0795030742884
snr: 144
noise: 426
frame_num: 1914
point_id: 12
x: -0.454378247261
y: 2.25879788399
z: 0.750999689102
doppler_bin: 33
target_idx: 2
posX: -0.236365884542
posY: 2.29019260406
posZ: 0.407394617796
velX: 0.105590835214
velY: 0.0472702383995
velZ: 0.00419953651726
accX: 0.0
accY: 0.0
accZ: 0.0
---
header: 
  seq: 20675
  stamp: 
    secs: 1596613008
    nsecs: 691642776
  frame_id: "node1_radarinterface_radarscan"
range: 2.34517812729
angle: -0.031326815486
elev: 0.0676721781492
doppler: 0.0
snr: 145
noise: 414
frame_num: 1915
point_id: 6
x: -0.0732868164778
y: 2.33866238594
z: 0.158582210541
doppler_bin: 32
target_idx: 2
posX: -0.227738216519
posY: 2.27846217155
posZ: 0.451412796974
velX: 0.138146579266
velY: -0.0094802454114
velZ: 0.11348067224
accX: 0.0
accY: 0.0
accZ: 0.0
---
header: 
  seq: 20676
  stamp: 
    secs: 1596613008
    nsecs: 691776349
  frame_id: "node1_radarinterface_radarscan"
range: 2.26700544357
angle: -0.290260016918
elev: 0.186281591654
doppler: 0.0795030742884
snr: 117
noise: 458
frame_num: 1915
point_id: 13
x: -0.637595295906
y: 2.13459610939
z: 0.419863253832
doppler_bin: 33
target_idx: 2
posX: -0.227738216519
posY: 2.27846217155
posZ: 0.451412796974
velX: 0.138146579266
velY: -0.0094802454114
velZ: 0.11348067224
accX: 0.0
accY: 0.0
accZ: 0.0
---
header: 
  seq: 20677
  stamp: 
    secs: 1596613008
    nsecs: 691795845
  frame_id: "node1_radarinterface_radarscan"
range: 2.34517812729
angle: -0.0342965088785
elev: 0.424244254827
doppler: 0.0795030742884
snr: 170
noise: 438
frame_num: 1915
point_id: 14
x: -0.0732868164778
y: 2.13602137566
z: 0.965350687504
doppler_bin: 33
target_idx: 2
posX: -0.227738216519
posY: 2.27846217155
posZ: 0.451412796974
velX: 0.138146579266
velY: -0.0094802454114
velZ: 0.11348067224
accX: 0.0
accY: 0.0
accZ: 0.0
---
header: 
  seq: 20678
  stamp: 
    secs: 1596613008
    nsecs: 691830652
  frame_id: "node1_radarinterface_radarscan"
range: 2.26700544357
angle: 0.0632437393069
elev: -0.149140298367
doppler: -0.159006148577
snr: 121
noise: 436
frame_num: 1915
point_id: 26
x: 0.141687840223
y: 2.23735785484
z: -0.336849868298
doppler_bin: 30
target_idx: 2
posX: -0.227738216519
posY: 2.27846217155
posZ: 0.451412796974
velX: 0.138146579266
velY: -0.0094802454114
velZ: 0.11348067224
accX: 0.0
accY: 0.0
accZ: 0.0
---
header: 
  seq: 20679
  stamp: 
    secs: 1596613008
    nsecs: 691934292
  frame_id: "node1_radarinterface_radarscan"
range: 2.18883275986
angle: -0.226826071739
elev: 0.234137058258
doppler: -0.0795030742884
snr: 161
noise: 458
frame_num: 1915
point_id: 32
x: -0.47880718112
y: 2.07457327843
z: 0.507817268372
doppler_bin: 31
target_idx: 2
posX: -0.227738216519
posY: 2.27846217155
posZ: 0.451412796974
velX: 0.138146579266
velY: -0.0094802454114
velZ: 0.11348067224
accX: 0.0
accY: 0.0
accZ: 0.0
---
header: 
  seq: 20680
  stamp: 
    secs: 1596613008
    nsecs: 691973239
  frame_id: "node1_radarinterface_radarscan"
range: 2.26700544357
angle: -0.304909318686
elev: 0.357271462679
doppler: -0.0795030742884
snr: 181
noise: 446
frame_num: 1915
point_id: 33
x: -0.637595295906
y: 2.0258898735
z: 0.792815566063
doppler_bin: 31
target_idx: 2
posX: -0.227738216519
posY: 2.27846217155
posZ: 0.451412796974
velX: 0.138146579266
velY: -0.0094802454114
velZ: 0.11348067224
accX: 0.0
accY: 0.0
accZ: 0.0
---
header: 
  seq: 20681
  stamp: 
    secs: 1596613008
    nsecs: 692043088
  frame_id: "node1_radarinterface_radarscan"
range: 2.34517812729
angle: 0.0313896983862
elev: -0.092628903687
doppler: -0.0795030742884
snr: 172
noise: 436
frame_num: 1915
point_id: 35
x: 0.0732868090272
y: 2.33397388458
z: -0.216920763254
doppler_bin: 31
target_idx: 2
posX: -0.227738216519
posY: 2.27846217155
posZ: 0.451412796974
velX: 0.138146579266
velY: -0.0094802454114
velZ: 0.11348067224
accX: 0.0
accY: 0.0
accZ: 0.0
---
header: 
  seq: 20682
  stamp: 
    secs: 1596613008
    nsecs: 692068782
  frame_id: "node1_radarinterface_radarscan"
range: 2.42335057259
angle: -0.0705756545067
elev: 0.481480866671
doppler: -0.0795030742884
snr: 148
noise: 434
frame_num: 1915
point_id: 36
x: -0.151459410787
y: 2.14249324799
z: 1.12223470211
doppler_bin: 31
target_idx: 2
posX: -0.227738216519
posY: 2.27846217155
posZ: 0.451412796974
velX: 0.138146579266
velY: -0.0094802454114
velZ: 0.11348067224
accX: 0.0
accY: 0.0
accZ: 0.0
---
header: 
  seq: 20683
  stamp: 
    secs: 1596613008
    nsecs: 795590553
  frame_id: "node1_radarinterface_radarscan"
range: 2.26700544357
angle: -0.157230913639
elev: 0.0653159469366
doppler: 0.0
snr: 124
noise: 434
frame_num: 1916
point_id: 1
x: -0.354219585657
y: 2.23426675797
z: 0.147966340184
doppler_bin: 32
target_idx: 2
posX: -0.250614374876
posY: 2.27494907379
posZ: 0.422468841076
velX: 0.0609186142683
velY: -0.0238260515034
velZ: 0.0141816809773
accX: 0.0
accY: 0.0
accZ: 0.0
---
header: 
  seq: 20684
  stamp: 
    secs: 1596613008
    nsecs: 795707980
  frame_id: "node1_radarinterface_radarscan"
range: 2.18883275986
angle: -0.127852097154
elev: 0.198513388634
doppler: 0.0795030742884
snr: 119
noise: 499
frame_num: 1916
point_id: 7
x: -0.27360406518
y: 2.12833166122
z: 0.431664377451
doppler_bin: 33
target_idx: 2
posX: -0.250614374876
posY: 2.27494907379
posZ: 0.422468841076
velX: 0.0609186142683
velY: -0.0238260515034
velZ: 0.0141816809773
accX: 0.0
accY: 0.0
accZ: 0.0
---
header: 
  seq: 20685
  stamp: 
    secs: 1596613008
    nsecs: 795750187
  frame_id: "node1_radarinterface_radarscan"
range: 2.42335057259
angle: -0.137106120586
elev: 0.416364729404
doppler: 0.0795030742884
snr: 138
noise: 463
frame_num: 1916
point_id: 10
x: -0.302918821573
y: 2.19551348686
z: 0.980096101761
doppler_bin: 33
target_idx: 2
posX: -0.250614374876
posY: 2.27494907379
posZ: 0.422468841076
velX: 0.0609186142683
velY: -0.0238260515034
velZ: 0.0141816809773
accX: 0.0
accY: 0.0
accZ: 0.0
---
header: 
  seq: 20686
  stamp: 
    secs: 1596613008
    nsecs: 795776440
  frame_id: "node1_radarinterface_radarscan"
range: 2.18883275986
angle: -0.126466050744
elev: 0.133911818266
doppler: -0.0795030742884
snr: 190
noise: 450
frame_num: 1916
point_id: 24
x: -0.273604094982
y: 2.15191268921
z: 0.292235344648
doppler_bin: 31
target_idx: 2
posX: -0.250614374876
posY: 2.27494907379
posZ: 0.422468841076
velX: 0.0609186142683
velY: -0.0238260515034
velZ: 0.0141816809773
accX: 0.0
accY: 0.0
accZ: 0.0
---
header: 
  seq: 20687
  stamp: 
    secs: 1596613008
    nsecs: 795797426
  frame_id: "node1_radarinterface_radarscan"
range: 2.26700544357
angle: -0.126199275255
elev: 0.117276743054
doppler: -0.0795030742884
snr: 239
noise: 431
frame_num: 1916
point_id: 25
x: -0.283375680447
y: 2.23352861404
z: 0.2652579844
doppler_bin: 31
target_idx: 2
posX: -0.250614374876
posY: 2.27494907379
posZ: 0.422468841076
velX: 0.0609186142683
velY: -0.0238260515034
velZ: 0.0141816809773
accX: 0.0
accY: 0.0
accZ: 0.0
---
header: 
  seq: 20688
  stamp: 
    secs: 1596613008
    nsecs: 795816203
  frame_id: "node1_radarinterface_radarscan"
range: 2.34517812729
angle: -0.126468986273
elev: 0.134083002806
doppler: -0.0795030742884
snr: 227
noise: 422
frame_num: 1916
point_id: 26
x: -0.293147265911
y: 2.30556678772
z: 0.313507169485
doppler_bin: 31
target_idx: 2
posX: -0.250614374876
posY: 2.27494907379
posZ: 0.422468841076
velX: 0.0609186142683
velY: -0.0238260515034
velZ: 0.0141816809773
accX: 0.0
accY: 0.0
accZ: 0.0
---
header: 
  seq: 20689
  stamp: 
    secs: 1596613008
    nsecs: 896757356
  frame_id: "node1_radarinterface_radarscan"
range: 2.26700544357
angle: -0.0639630705118
elev: 0.211138620973
doppler: 0.0795030742884
snr: 186
noise: 475
frame_num: 1917
point_id: 10
x: -0.141687840223
y: 2.21212887764
z: 0.475103974342
doppler_bin: 33
target_idx: 2
posX: -0.213352054358
posY: 2.27067923546
posZ: 0.44088858366
velX: 0.178621441126
velY: -0.0193622075021
velZ: 0.0552149824798
accX: 0.0
accY: 0.0
accZ: 0.0
---
header: 
  seq: 20690
  stamp: 
    secs: 1596613008
    nsecs: 896874531
  frame_id: "node1_radarinterface_radarscan"
range: 2.34517812729
angle: -0.0639159232378
elev: 0.207673862576
doppler: 0.0795030742884
snr: 177
noise: 467
frame_num: 1917
point_id: 11
x: -0.146573618054
y: 2.29010176659
z: 0.483538925648
doppler_bin: 33
target_idx: 2
posX: -0.213352054358
posY: 2.27067923546
posZ: 0.44088858366
velX: 0.178621441126
velY: -0.0193622075021
velZ: 0.0552149824798
accX: 0.0
accY: 0.0
accZ: 0.0
---
header: 
  seq: 20691
  stamp: 
    secs: 1596613008
    nsecs: 896953114
  frame_id: "node1_radarinterface_radarscan"
range: 2.26700544357
angle: -0.063817717135
elev: 0.200249433517
doppler: -0.0795030742884
snr: 172
noise: 465
frame_num: 1917
point_id: 28
x: -0.141687840223
y: 2.21718120575
z: 0.450938642025
doppler_bin: 31
target_idx: 2
posX: -0.213352054358
posY: 2.27067923546
posZ: 0.44088858366
velX: 0.178621441126
velY: -0.0193622075021
velZ: 0.0552149824798
accX: 0.0
accY: 0.0
accZ: 0.0
---
header: 
  seq: 20692
  stamp: 
    secs: 1596613008
    nsecs: 996887634
  frame_id: "node1_radarinterface_radarscan"
range: 2.26700544357
angle: -0.0629880949855
elev: 0.119171790779
doppler: 0.0
snr: 129
noise: 438
frame_num: 1918
point_id: 3
x: -0.141687840223
y: 2.24646258354
z: 0.26952406764
doppler_bin: 32
target_idx: 2
posX: -0.161938935518
posY: 2.2770087719
posZ: 0.434359848499
velX: 0.314427703619
velY: 0.0134785082191
velZ: 0.0275374911726
accX: 0.0
accY: 0.0
accZ: 0.0
---
header: 
  seq: 20693
  stamp: 
    secs: 1596613008
    nsecs: 996990569
  frame_id: "node1_radarinterface_radarscan"
range: 2.18883275986
angle: -0.0956471040845
elev: 0.191805198789
doppler: 0.0795030742884
snr: 127
noise: 503
frame_num: 1918
point_id: 11
x: -0.205203086138
y: 2.13887238503
z: 0.417260020971
doppler_bin: 33
target_idx: 2
posX: -0.161938935518
posY: 2.2770087719
posZ: 0.434359848499
velX: 0.314427703619
velY: 0.0134785082191
velZ: 0.0275374911726
accX: 0.0
accY: 0.0
accZ: 0.0
---
header: 
  seq: 20694
  stamp: 
    secs: 1596613008
    nsecs: 997005462
  frame_id: "node1_radarinterface_radarscan"
range: 2.26700544357
angle: -0.0635013207793
elev: 0.174039527774
doppler: 0.0795030742884
snr: 201
noise: 479
frame_num: 1918
point_id: 12
x: -0.141687840223
y: 2.22825837135
z: 0.392559766769
doppler_bin: 33
target_idx: 2
posX: -0.161938935518
posY: 2.2770087719
posZ: 0.434359848499
velX: 0.314427703619
velY: 0.0134785082191
velZ: 0.0275374911726
accX: 0.0
accY: 0.0
accZ: 0.0
---
header: 
  seq: 20695
  stamp: 
    secs: 1596613008
    nsecs: 997019908
  frame_id: "node1_radarinterface_radarscan"
range: 2.34517812729
angle: -0.0635384321213
elev: 0.177326485515
doppler: 0.0795030742884
snr: 213
noise: 462
frame_num: 1918
point_id: 13
x: -0.146573632956
y: 2.30374503136
z: 0.413686186075
doppler_bin: 33
target_idx: 2
posX: -0.161938935518
posY: 2.2770087719
posZ: 0.434359848499
velX: 0.314427703619
velY: 0.0134785082191
velZ: 0.0275374911726
accX: 0.0
accY: 0.0
accZ: 0.0
---
header: 
  seq: 20696
  stamp: 
    secs: 1596613008
    nsecs: 997063757
  frame_id: "node1_radarinterface_radarscan"
range: 2.26700544357
angle: -0.0633120685816
elev: 0.156149581075
doppler: -0.0795030742884
snr: 221
noise: 438
frame_num: 1918
point_id: 32
x: -0.141687855124
y: 2.23493695259
z: 0.352555155754
doppler_bin: 31
target_idx: 2
posX: -0.161938935518
posY: 2.2770087719
posZ: 0.434359848499
velX: 0.314427703619
velY: 0.0134785082191
velZ: 0.0275374911726
accX: 0.0
accY: 0.0
accZ: 0.0
---
header: 
  seq: 20697
  stamp: 
    secs: 1596613008
    nsecs: 997097615
  frame_id: "node1_radarinterface_radarscan"
range: 2.42335057259
angle: -0.0318522900343
elev: 0.193916141987
doppler: -0.0795030742884
snr: 191
noise: 419
frame_num: 1918
point_id: 34
x: -0.0757297053933
y: 2.37672376633
z: 0.466987192631
doppler_bin: 31
target_idx: 2
posX: -0.161938935518
posY: 2.2770087719
posZ: 0.434359848499
velX: 0.314427703619
velY: 0.0134785082191
velZ: 0.0275374911726
accX: 0.0
accY: 0.0
accZ: 0.0
---
header: 
  seq: 20698
  stamp: 
    secs: 1596613009
    nsecs:  92051125
  frame_id: "node1_radarinterface_radarscan"
range: 2.26700544357
angle: -0.06275190413
elev: 0.0820021554828
doppler: 0.0
snr: 125
noise: 432
frame_num: 1919
point_id: 7
x: -0.141687855124
y: 2.25494074821
z: 0.185691058636
doppler_bin: 32
target_idx: 2
posX: -0.145786777139
posY: 2.27949547768
posZ: 0.415446341038
velX: 0.314274311066
velY: 0.0280852876604
velZ: -0.0284136366099
accX: 0.0
accY: 0.0
accZ: 0.0
---
header: 
  seq: 20699
  stamp: 
    secs: 1596613009
    nsecs:  92151502
  frame_id: "node1_radarinterface_radarscan"
range: 2.18883275986
angle: -0.0950464531779
elev: 0.156065359712
doppler: 0.0795030742884
snr: 143
noise: 493
frame_num: 1919
point_id: 15
x: -0.205203071237
y: 2.15247154236
z: 0.340215951204
doppler_bin: 33
target_idx: 2
posX: -0.145786777139
posY: 2.27949547768
posZ: 0.415446341038
velX: 0.314274311066
velY: 0.0280852876604
velZ: -0.0284136366099
accX: 0.0
accY: 0.0
accZ: 0.0
---
header: 
  seq: 20700
  stamp: 
    secs: 1596613009
    nsecs:  92217475
  frame_id: "node1_radarinterface_radarscan"
range: 2.34517812729
angle: -0.0945268049836
elev: 0.116162627935
doppler: 0.0795030742884
snr: 196
noise: 462
frame_num: 1919
point_id: 17
x: -0.219860464334
y: 2.31897425652
z: 0.271809786558
doppler_bin: 33
target_idx: 2
posX: -0.145786777139
posY: 2.27949547768
posZ: 0.415446341038
velX: 0.314274311066
velY: 0.0280852876604
velZ: -0.0284136366099
accX: 0.0
accY: 0.0
accZ: 0.0
---
header: 
  seq: 20701
  stamp: 
    secs: 1596613009
    nsecs:  92273973
  frame_id: "node1_radarinterface_radarscan"
range: 2.26700544357
angle: -0.0945398509502
elev: 0.117335654795
doppler: 0.159006148577
snr: 123
noise: 468
frame_num: 1919
point_id: 28
x: -0.212531760335
y: 2.24136376381
z: 0.265390634537
doppler_bin: 34
target_idx: 2
posX: -0.145786777139
posY: 2.27949547768
posZ: 0.415446341038
velX: 0.314274311066
velY: 0.0280852876604
velZ: -0.0284136366099
accX: 0.0
accY: 0.0
accZ: 0.0
---
header: 
  seq: 20702
  stamp: 
    secs: 1596613009
    nsecs: 291450135
  frame_id: "node1_radarinterface_radarscan"
range: 2.26700544357
angle: -0.127671524882
elev: 0.191394269466
doppler: 0.0795030742884
snr: 140
noise: 483
frame_num: 1921
point_id: 7
x: -0.283375680447
y: 2.20749568939
z: 0.431247651577
doppler_bin: 33
target_idx: 2
posX: -0.133304655552
posY: 2.29097104073
posZ: 0.377720743418
velX: 0.226011767983
velY: 0.0447164066136
velZ: -0.118056587875
accX: 0.0
accY: 0.0
accZ: 0.0
---
header: 
  seq: 20703
  stamp: 
    secs: 1596613009
    nsecs: 291510247
  frame_id: "node1_radarinterface_radarscan"
range: 2.81421375275
angle: 0.158819884062
elev: 0.155288010836
doppler: 0.238509222865
snr: 114
noise: 465
frame_num: 1921
point_id: 24
x: 0.439720898867
y: 2.74535870552
z: 0.435259401798
doppler_bin: 35
target_idx: 2
posX: -0.133304655552
posY: 2.29097104073
posZ: 0.377720743418
velX: 0.226011767983
velY: 0.0447164066136
velZ: -0.118056587875
accX: 0.0
accY: 0.0
accZ: 0.0
---
header: 
  seq: 20704
  stamp: 
    secs: 1596613009
    nsecs: 291568607
  frame_id: "node1_radarinterface_radarscan"
range: 2.34517812729
angle: -0.126448616385
elev: 0.13288988173
doppler: -0.0795030742884
snr: 222
noise: 390
frame_num: 1921
point_id: 40
x: -0.293147265911
y: 2.30594229698
z: 0.31073397398
doppler_bin: 31
target_idx: 2
posX: -0.133304655552
posY: 2.29097104073
posZ: 0.377720743418
velX: 0.226011767983
velY: 0.0447164066136
velZ: -0.118056587875
accX: 0.0
accY: 0.0
accZ: 0.0
---
header: 
  seq: 20705
  stamp: 
    secs: 1596613009
    nsecs: 392247404
  frame_id: "node1_radarinterface_radarscan"
range: 2.26700544357
angle: -0.0954766049981
elev: 0.182410046458
doppler: 0.0795030742884
snr: 132
noise: 508
frame_num: 1922
point_id: 3
x: -0.212531775236
y: 2.21924090385
z: 0.411235153675
doppler_bin: 33
target_idx: 2
posX: -0.160543099046
posY: 2.29262566566
posZ: 0.335838466883
velX: 0.0973272919655
velY: 0.0310856197029
velZ: -0.207571774721
accX: 0.0
accY: 0.0
accZ: 0.0
---
header: 
  seq: 20706
  stamp: 
    secs: 1596613009
    nsecs: 392340436
  frame_id: "node1_radarinterface_radarscan"
range: 2.34517812729
angle: -0.0943795144558
elev: 0.10196428746
doppler: -0.0795030742884
snr: 244
noise: 392
frame_num: 1922
point_id: 48
x: -0.219860434532
y: 2.3226146698
z: 0.238710284233
doppler_bin: 31
target_idx: 2
posX: -0.160543099046
posY: 2.29262566566
posZ: 0.335838466883
velX: 0.0973272919655
velY: 0.0310856197029
velZ: -0.207571774721
accX: 0.0
accY: 0.0
accZ: 0.0
---
header: 
  seq: 20707
  stamp: 
    secs: 1596613009
    nsecs: 492201746
  frame_id: "node1_radarinterface_radarscan"
range: 2.18883275986
angle: -0.0955694839358
elev: 0.187589943409
doppler: -0.0795030742884
snr: 119
noise: 423
frame_num: 1923
point_id: 44
x: -0.205203071237
y: 2.14061999321
z: 0.408199071884
doppler_bin: 31
target_idx: 2
posX: -0.202806740999
posY: 2.28179001808
posZ: 0.354676932096
velX: -0.054132707417
velY: -0.0130023621023
velZ: -0.136331379414
accX: 0.0
accY: 0.0
accZ: 0.0
---
header: 
  seq: 20708
  stamp: 
    secs: 1596613009
    nsecs: 492286771
  frame_id: "node1_radarinterface_radarscan"
range: 2.26700544357
angle: -0.128166928887
elev: 0.210311576724
doppler: -0.0795030742884
snr: 165
noise: 423
frame_num: 1923
point_id: 45
x: -0.283375710249
y: 2.19886946678
z: 0.473270535469
doppler_bin: 31
target_idx: 2
posX: -0.202806740999
posY: 2.28179001808
posZ: 0.354676932096
velX: -0.054132707417
velY: -0.0130023621023
velZ: -0.136331379414
accX: 0.0
accY: 0.0
accZ: 0.0
---
header: 
  seq: 20709
  stamp: 
    secs: 1596613010
    nsecs:  95905745
  frame_id: "node1_radarinterface_radarscan"
range: 2.34517812729
angle: -0.157956302166
elev: 0.115623570979
doppler: 0.0
snr: 186
noise: 442
frame_num: 1929
point_id: 6
x: -0.366434067488
y: 2.30051898956
z: 0.270554095507
doppler_bin: 32
target_idx: 2
posX: -0.267623394728
posY: 2.28392076492
posZ: 0.377771317959
velX: -0.220120340586
velY: -0.0364399403334
velZ: -0.0255648195744
accX: 0.0
accY: 0.0
accZ: 0.0
---
header: 
  seq: 20710
  stamp: 
    secs: 1596613010
    nsecs:  95963239
  frame_id: "node1_radarinterface_radarscan"
range: 2.5015232563
angle: -0.0942237898707
elev: 0.0843402966857
doppler: 0.0
snr: 138
noise: 405
frame_num: 1929
point_id: 8
x: -0.234517812729
y: 2.48157477379
z: 0.210729181767
doppler_bin: 32
target_idx: 2
posX: -0.267623394728
posY: 2.28392076492
posZ: 0.377771317959
velX: -0.220120340586
velY: -0.0364399403334
velZ: -0.0255648195744
accX: 0.0
accY: 0.0
accZ: 0.0
---
header: 
  seq: 20711
  stamp: 
    secs: 1596613010
    nsecs:  95995970
  frame_id: "node1_radarinterface_radarscan"
range: 2.18883275986
angle: -0.128352537751
elev: 0.216945677996
doppler: 0.0795030742884
snr: 116
noise: 510
frame_num: 1929
point_id: 15
x: -0.273604124784
y: 2.11994218826
z: 0.471141666174
doppler_bin: 33
target_idx: 2
posX: -0.267623394728
posY: 2.28392076492
posZ: 0.377771317959
velX: -0.220120340586
velY: -0.0364399403334
velZ: -0.0255648195744
accX: 0.0
accY: 0.0
accZ: 0.0
---
header: 
  seq: 20712
  stamp: 
    secs: 1596613010
    nsecs:  96005446
  frame_id: "node1_radarinterface_radarscan"
range: 2.34517812729
angle: -0.127556830645
elev: 0.186722964048
doppler: 0.0795030742884
snr: 238
noise: 473
frame_num: 1929
point_id: 17
x: -0.293147265911
y: 2.28569197655
z: 0.435358464718
doppler_bin: 33
target_idx: 2
posX: -0.267623394728
posY: 2.28392076492
posZ: 0.377771317959
velX: -0.220120340586
velY: -0.0364399403334
velZ: -0.0255648195744
accX: 0.0
accY: 0.0
accZ: 0.0
---
header: 
  seq: 20713
  stamp: 
    secs: 1596613010
    nsecs:  96013981
  frame_id: "node1_radarinterface_radarscan"
range: 2.42335057259
angle: -0.128113120794
elev: 0.208345875144
doppler: 0.159006148577
snr: 155
noise: 428
frame_num: 1929
point_id: 25
x: -0.302918851376
y: 2.35151362419
z: 0.501250267029
doppler_bin: 34
target_idx: 2
posX: -0.267623394728
posY: 2.28392076492
posZ: 0.377771317959
velX: -0.220120340586
velY: -0.0364399403334
velZ: -0.0255648195744
accX: 0.0
accY: 0.0
accZ: 0.0
---
header: 
  seq: 20714
  stamp: 
    secs: 1596613010
    nsecs:  96031311
  frame_id: "node1_radarinterface_radarscan"
range: 2.26700544357
angle: -0.127269849181
elev: 0.174453228712
doppler: -0.0795030742884
snr: 200
noise: 447
frame_num: 1929
point_id: 28
x: -0.283375710249
y: 2.21453905106
z: 0.393483430147
doppler_bin: 31
target_idx: 2
posX: -0.267623394728
posY: 2.28392076492
posZ: 0.377771317959
velX: -0.220120340586
velY: -0.0364399403334
velZ: -0.0255648195744
accX: 0.0
accY: 0.0
accZ: 0.0
---
header: 
  seq: 20715
  stamp: 
    secs: 1596613010
    nsecs:  96063337
  frame_id: "node1_radarinterface_radarscan"
range: 2.5015232563
angle: -0.0946313813329
elev: 0.125250950456
doppler: -0.0795030742884
snr: 180
noise: 408
frame_num: 1929
point_id: 31
x: -0.234517812729
y: 2.47082257271
z: 0.312499582767
doppler_bin: 31
target_idx: 2
posX: -0.267623394728
posY: 2.28392076492
posZ: 0.377771317959
velX: -0.220120340586
velY: -0.0364399403334
velZ: -0.0255648195744
accX: 0.0
accY: 0.0
accZ: 0.0
---
header: 
  seq: 20716
  stamp: 
    secs: 1596613010
    nsecs: 193189917
  frame_id: "node1_radarinterface_radarscan"
range: 2.18883275986
angle: -0.127510339022
elev: 0.184793934226
doppler: 0.0
snr: 157
noise: 483
frame_num: 1930
point_id: 3
x: -0.273604094982
y: 2.13409876823
z: 0.402184844017
doppler_bin: 32
target_idx: 2
posX: -0.227796390653
posY: 2.2895796299
posZ: 0.443454474211
velX: -0.0745827704668
velY: -0.0237059202045
velZ: 0.136656269431
accX: 0.0
accY: 0.0
accZ: 0.0
---
header: 
  seq: 20717
  stamp: 
    secs: 1596613010
    nsecs: 193346103
  frame_id: "node1_radarinterface_radarscan"
range: 2.26700544357
angle: -0.127049684525
elev: 0.164386495948
doppler: 0.0
snr: 228
noise: 467
frame_num: 1930
point_id: 4
x: -0.283375680447
y: 2.21841812134
z: 0.370988935232
doppler_bin: 32
target_idx: 2
posX: -0.227796390653
posY: 2.2895796299
posZ: 0.443454474211
velX: -0.0745827704668
velY: -0.0237059202045
velZ: 0.136656269431
accX: 0.0
accY: 0.0
accZ: 0.0
---
header: 
  seq: 20718
  stamp: 
    secs: 1596613010
    nsecs: 193393880
  frame_id: "node1_radarinterface_radarscan"
range: 2.42335057259
angle: 0.0
elev: 0.20702034235
doppler: 0.0
snr: 194
noise: 425
frame_num: 1930
point_id: 6
x: 0.0
y: 2.37160658836
z: 0.498107075691
doppler_bin: 32
target_idx: 2
posX: -0.227796390653
posY: 2.2895796299
posZ: 0.443454474211
velX: -0.0745827704668
velY: -0.0237059202045
velZ: 0.136656269431
accX: 0.0
accY: 0.0
accZ: 0.0
---
header: 
  seq: 20719
  stamp: 
    secs: 1596613010
    nsecs: 193433563
  frame_id: "node1_radarinterface_radarscan"
range: 2.34517812729
angle: -0.127529501915
elev: 0.185591638088
doppler: 0.0795030742884
snr: 280
noise: 473
frame_num: 1930
point_id: 15
x: -0.293147265911
y: 2.28618717194
z: 0.432751119137
doppler_bin: 33
target_idx: 2
