header: 
  seq: 84945
  stamp: 
    secs: 1596523844
    nsecs: 358263300
  frame_id: "node1_radarinterface_radarscan"
range: 2.18883275986
angle: -0.227229118347
elev: 0.241337001324
doppler: 0.0
snr: 144
noise: 395
frame_num: 9857
point_id: 0
x: -0.47880718112
y: 2.07076406479
z: 0.523133397102
doppler_bin: 32
target_idx: 4
posX: -0.487003922462
posY: 2.15891861916
posZ: 0.576315283775
velX: -0.0836856365204
velY: -0.0375832766294
velZ: -0.0127830505371
accX: 0.0
accY: 0.0
accZ: 0.0
---
header: 
  seq: 84946
  stamp: 
    secs: 1596523844
    nsecs: 358327550
  frame_id: "node1_radarinterface_radarscan"
range: 2.11066031456
angle: -0.261105984449
elev: 0.251933783293
doppler: 0.0795030742884
snr: 154
noise: 388
frame_num: 9857
point_id: 7
x: -0.52766507864
y: 1.97474908829
z: 0.526139438152
doppler_bin: 33
target_idx: 4
posX: -0.487003922462
posY: 2.15891861916
posZ: 0.576315283775
velX: -0.0836856365204
velY: -0.0375832766294
velZ: -0.0127830505371
accX: 0.0
accY: 0.0
accZ: 0.0
---
header: 
  seq: 84947
  stamp: 
    secs: 1596523844
    nsecs: 358338153
  frame_id: "node1_radarinterface_radarscan"
range: 2.26700544357
angle: -0.233809649944
elev: 0.33573281765
doppler: 0.0795030742884
snr: 251
noise: 381
frame_num: 9857
point_id: 9
x: -0.495907455683
y: 2.08219718933
z: 0.746890246868
doppler_bin: 33
target_idx: 4
posX: -0.487003922462
posY: 2.15891861916
posZ: 0.576315283775
velX: -0.0836856365204
velY: -0.0375832766294
velZ: -0.0127830505371
accX: 0.0
accY: 0.0
accZ: 0.0
---
header: 
  seq: 84948
  stamp: 
    secs: 1596523844
    nsecs: 358346637
  frame_id: "node1_radarinterface_radarscan"
range: 2.42335057259
angle: -0.200878486037
elev: 0.349023073912
doppler: 0.0795030742884
snr: 143
noise: 390
frame_num: 9857
point_id: 11
x: -0.454378217459
y: 2.23144865036
z: 0.828737318516
doppler_bin: 33
target_idx: 4
posX: -0.487003922462
posY: 2.15891861916
posZ: 0.576315283775
velX: -0.0836856365204
velY: -0.0375832766294
velZ: -0.0127830505371
accX: 0.0
accY: 0.0
accZ: 0.0
---
header: 
  seq: 84949
  stamp: 
    secs: 1596523844
    nsecs: 358362494
  frame_id: "node1_radarinterface_radarscan"
range: 2.11066031456
angle: -0.225760996342
elev: 0.213830962777
doppler: -0.0795030742884
snr: 172
noise: 398
frame_num: 9857
point_id: 24
x: -0.461706966162
y: 2.01025009155
z: 0.447893023491
doppler_bin: 31
target_idx: 4
posX: -0.487003922462
posY: 2.15891861916
posZ: 0.576315283775
velX: -0.0836856365204
velY: -0.0375832766294
velZ: -0.0127830505371
accX: 0.0
accY: 0.0
accZ: 0.0
---
header: 
  seq: 84950
  stamp: 
    secs: 1596523844
    nsecs: 460236616
  frame_id: "node1_radarinterface_radarscan"
range: 2.11066031456
angle: -0.228429168463
elev: 0.261487960815
doppler: 0.0795030742884
snr: 142
noise: 396
frame_num: 9858
point_id: 5
x: -0.461706936359
y: 1.98594713211
z: 0.545644164085
doppler_bin: 33
target_idx: 4
posX: -0.536365091801
posY: 2.13621330261
posZ: 0.608274400234
velX: -0.241281062365
velY: -0.0961516797543
velZ: 0.0890826880932
accX: 0.0
accY: 0.0
accZ: 0.0
---
header: 
  seq: 84951
  stamp: 
    secs: 1596523844
    nsecs: 460334714
  frame_id: "node1_radarinterface_radarscan"
range: 2.18883275986
angle: -0.23008646071
elev: 0.286742627621
doppler: 0.0795030742884
snr: 185
noise: 391
frame_num: 9858
point_id: 6
x: -0.478807151318
y: 2.04413533211
z: 0.619066178799
doppler_bin: 33
target_idx: 4
posX: -0.536365091801
posY: 2.13621330261
posZ: 0.608274400234
velX: -0.241281062365
velY: -0.0961516797543
velZ: 0.0890826880932
accX: 0.0
accY: 0.0
accZ: 0.0
---
header: 
  seq: 84952
  stamp: 
    secs: 1596523844
    nsecs: 460384857
  frame_id: "node1_radarinterface_radarscan"
range: 2.26700544357
angle: -0.236386567354
elev: 0.365162491798
doppler: 0.0795030742884
snr: 165
noise: 393
frame_num: 9858
point_id: 7
x: -0.495907455683
y: 2.05864477158
z: 0.809550106525
doppler_bin: 33
target_idx: 4
posX: -0.536365091801
posY: 2.13621330261
posZ: 0.608274400234
velX: -0.241281062365
velY: -0.0961516797543
velZ: 0.0890826880932
accX: 0.0
accY: 0.0
accZ: 0.0
---
header: 
  seq: 84953
  stamp: 
    secs: 1596523844
    nsecs: 460408317
  frame_id: "node1_radarinterface_radarscan"
range: 2.42335057259
angle: -0.346625566483
elev: 0.403075635433
doppler: 0.0795030742884
snr: 160
noise: 398
frame_num: 9858
point_id: 9
x: -0.757297098637
y: 2.09656143188
z: 0.950557649136
doppler_bin: 33
target_idx: 4
posX: -0.536365091801
posY: 2.13621330261
posZ: 0.608274400234
velX: -0.241281062365
velY: -0.0961516797543
velZ: 0.0890826880932
accX: 0.0
accY: 0.0
accZ: 0.0
---
header: 
  seq: 84954
  stamp: 
    secs: 1596523844
    nsecs: 460483365
  frame_id: "node1_radarinterface_radarscan"
range: 2.11066031456
angle: -0.224748954177
elev: 0.192386478186
doppler: -0.0795030742884
snr: 164
noise: 380
frame_num: 9858
point_id: 20
x: -0.461706936359
y: 2.01961660385
z: 0.403562247753
doppler_bin: 31
target_idx: 4
posX: -0.536365091801
posY: 2.13621330261
posZ: 0.608274400234
velX: -0.241281062365
velY: -0.0961516797543
velZ: 0.0890826880932
accX: 0.0
accY: 0.0
accZ: 0.0
---
header: 
  seq: 84955
  stamp: 
    secs: 1596523844
    nsecs: 460502554
  frame_id: "node1_radarinterface_radarscan"
range: 2.34517812729
angle: -0.298212498426
elev: 0.293474525213
doppler: -0.0795030742884
snr: 202
noise: 371
frame_num: 9858
point_id: 23
x: -0.659581363201
y: 2.14582586288
z: 0.678412973881
doppler_bin: 31
target_idx: 4
posX: -0.536365091801
posY: 2.13621330261
posZ: 0.608274400234
velX: -0.241281062365
velY: -0.0961516797543
velZ: 0.0890826880932
accX: 0.0
accY: 0.0
accZ: 0.0
---
header: 
  seq: 84956
  stamp: 
    secs: 1596523844
    nsecs: 460570132
  frame_id: "node1_radarinterface_radarscan"
range: 2.42335057259
angle: -0.338766485453
elev: 0.347145944834
doppler: -0.0795030742884
snr: 178
noise: 381
frame_num: 9858
point_id: 24
x: -0.757297039032
y: 2.14927721024
z: 0.82446116209
doppler_bin: 31
target_idx: 4
posX: -0.536365091801
posY: 2.13621330261
posZ: 0.608274400234
velX: -0.241281062365
velY: -0.0961516797543
velZ: 0.0890826880932
accX: 0.0
accY: 0.0
accZ: 0.0
---
header: 
  seq: 84957
  stamp: 
    secs: 1596523844
    nsecs: 561558260
  frame_id: "node1_radarinterface_radarscan"
range: 2.26700544357
angle: -0.202088579535
elev: 0.364908397198
doppler: 0.0795030742884
snr: 190
noise: 400
frame_num: 9859
point_id: 5
x: -0.42506352067
y: 2.07464075089
z: 0.809011995792
doppler_bin: 33
target_idx: 4
posX: -0.472420364618
posY: 2.15289378166
posZ: 0.622333407402
velX: 0.0201040804386
velY: -0.0275629088283
velZ: 0.118862837553
accX: 0.0
accY: 0.0
accZ: 0.0
---
header: 
  seq: 84958
  stamp: 
    secs: 1596523844
    nsecs: 561636944
  frame_id: "node1_radarinterface_radarscan"
range: 2.34517812729
angle: -0.236427098513
elev: 0.365602225065
doppler: 0.0795030742884
snr: 175
noise: 406
frame_num: 9859
point_id: 6
x: -0.513007700443
y: 2.12925338745
z: 0.838428795338
doppler_bin: 33
target_idx: 4
posX: -0.472420364618
posY: 2.15289378166
posZ: 0.622333407402
velX: 0.0201040804386
velY: -0.0275629088283
velZ: 0.118862837553
accX: 0.0
accY: 0.0
accZ: 0.0
---
header: 
  seq: 84959
  stamp: 
    secs: 1596523844
    nsecs: 561690861
  frame_id: "node1_radarinterface_radarscan"
range: 2.42335057259
angle: -0.12925209105
elev: 0.246385321021
doppler: 0.0795030742884
snr: 138
noise: 409
frame_num: 9859
point_id: 7
x: -0.302918821573
y: 2.33056259155
z: 0.591055333614
doppler_bin: 33
target_idx: 4
posX: -0.472420364618
posY: 2.15289378166
posZ: 0.622333407402
velX: 0.0201040804386
velY: -0.0275629088283
velZ: 0.118862837553
accX: 0.0
accY: 0.0
accZ: 0.0
---
header: 
  seq: 84960
  stamp: 
    secs: 1596523844
    nsecs: 561709293
  frame_id: "node1_radarinterface_radarscan"
range: 2.11066031456
angle: -0.191433981061
elev: 0.170748114586
doppler: -0.0795030742884
snr: 131
noise: 395
frame_num: 9859
point_id: 11
x: -0.395748823881
y: 2.04197096825
z: 0.35864263773
doppler_bin: 31
target_idx: 4
posX: -0.472420364618
posY: 2.15289378166
posZ: 0.622333407402
velX: 0.0201040804386
velY: -0.0275629088283
velZ: 0.118862837553
accX: 0.0
accY: 0.0
accZ: 0.0
---
header: 
  seq: 84961
  stamp: 
    secs: 1596523844
    nsecs: 561727415
  frame_id: "node1_radarinterface_radarscan"
range: 2.34517812729
angle: -0.199449643493
elev: 0.329053044319
doppler: -0.0795030742884
snr: 184
noise: 389
frame_num: 9859
point_id: 14
x: -0.439720928669
y: 2.17535948753
z: 0.757837355137
doppler_bin: 31
target_idx: 4
posX: -0.472420364618
posY: 2.15289378166
posZ: 0.622333407402
velX: 0.0201040804386
velY: -0.0275629088283
velZ: 0.118862837553
accX: 0.0
accY: 0.0
accZ: 0.0
---
header: 
  seq: 84962
  stamp: 
    secs: 1596523844
    nsecs: 657903858
  frame_id: "node1_radarinterface_radarscan"
range: 2.26700544357
angle: -0.201320260763
elev: 0.354923725128
doppler: 0.0795030742884
snr: 166
noise: 401
frame_num: 9860
point_id: 2
x: -0.42506352067
y: 2.08277773857
z: 0.787827134132
doppler_bin: 33
target_idx: 4
posX: -0.453311026096
posY: 2.15287256241
posZ: 0.643930494785
velX: 0.083916246891
velY: -0.0226873401552
velZ: 0.16376054287
accX: 0.0
accY: 0.0
accZ: 0.0
---
header: 
  seq: 84963
  stamp: 
    secs: 1596523844
    nsecs: 658038900
  frame_id: "node1_radarinterface_radarscan"
range: 2.18883275986
angle: -0.162136495113
elev: 0.253942400217
doppler: -0.0795030742884
snr: 149
noise: 384
frame_num: 9860
point_id: 5
x: -0.342005133629
y: 2.09084916115
z: 0.549882650375
doppler_bin: 31
target_idx: 4
posX: -0.453311026096
posY: 2.15287256241
posZ: 0.643930494785
velX: 0.083916246891
velY: -0.0226873401552
velZ: 0.16376054287
accX: 0.0
accY: 0.0
accZ: 0.0
---
header: 
  seq: 84964
  stamp: 
    secs: 1596523844
    nsecs: 658097300
  frame_id: "node1_radarinterface_radarscan"
range: 2.26700544357
angle: -0.197061702609
elev: 0.292018055916
doppler: -0.0795030742884
snr: 207
noise: 382
frame_num: 9860
point_id: 6
x: -0.425063550472
y: 2.12901353836
z: 0.652637839317
doppler_bin: 31
target_idx: 4
posX: -0.453311026096
posY: 2.15287256241
posZ: 0.643930494785
velX: 0.083916246891
velY: -0.0226873401552
velZ: 0.16376054287
accX: 0.0
accY: 0.0
accZ: 0.0
---
header: 
  seq: 84965
  stamp: 
    secs: 1596523844
    nsecs: 658150203
  frame_id: "node1_radarinterface_radarscan"
range: 2.34517812729
angle: -0.231969445944
elev: 0.312647044659
doppler: -0.0795030742884
snr: 177
noise: 379
frame_num: 9860
point_id: 7
x: -0.513007700443
y: 2.1717209816
z: 0.721326231956
doppler_bin: 31
target_idx: 4
posX: -0.453311026096
posY: 2.15287256241
posZ: 0.643930494785
velX: 0.083916246891
velY: -0.0226873401552
velZ: 0.16376054287
accX: 0.0
accY: 0.0
accZ: 0.0
---
header: 
  seq: 84966
  stamp: 
    secs: 1596523844
    nsecs: 762002562
  frame_id: "node1_radarinterface_radarscan"
range: 2.34517812729
angle: -0.229681357741
elev: 0.280807137489
doppler: 0.0
snr: 164
noise: 388
frame_num: 9861
point_id: 2
x: -0.513007700443
y: 2.19414782524
z: 0.649922192097
doppler_bin: 32
target_idx: 4
posX: -0.475220710039
posY: 2.1596493721
posZ: 0.616514921188
velX: 0.00287217646837
velY: -0.00202197954059
velZ: 0.0662940442562
accX: 0.0
accY: 0.0
accZ: 0.0
---
header: 
  seq: 84967
  stamp: 
    secs: 1596523844
    nsecs: 762154498
  frame_id: "node1_radarinterface_radarscan"
range: 2.26700544357
angle: -0.227548316121
elev: 0.24687550962
doppler: 0.0795030742884
snr: 238
noise: 387
frame_num: 9861
point_id: 8
x: -0.495907455683
y: 2.1416053772
z: 0.554000377655
doppler_bin: 33
target_idx: 4
posX: -0.475220710039
posY: 2.1596493721
posZ: 0.616514921188
velX: 0.00287217646837
velY: -0.00202197954059
velZ: 0.0662940442562
accX: 0.0
accY: 0.0
accZ: 0.0
---
header: 
  seq: 84968
  stamp: 
    secs: 1596523844
    nsecs: 762184244
  frame_id: "node1_radarinterface_radarscan"
range: 2.34517812729
angle: -0.228788882494
elev: 0.267199516296
doppler: -0.0795030742884
snr: 208
noise: 381
frame_num: 9861
point_id: 20
x: -0.513007700443
y: 2.20301485062
z: 0.619200587273
doppler_bin: 31
target_idx: 4
posX: -0.475220710039
posY: 2.1596493721
posZ: 0.616514921188
velX: 0.00287217646837
velY: -0.00202197954059
velZ: 0.0662940442562
accX: 0.0
accY: 0.0
accZ: 0.0
---
header: 
  seq: 84969
  stamp: 
    secs: 1596523844
    nsecs: 956164626
  frame_id: "node1_radarinterface_radarscan"
range: 2.34517812729
angle: -0.196645185351
elev: 0.28498095274
doppler: 0.0795030742884
snr: 138
noise: 384
frame_num: 9862
point_id: 2
x: -0.439720928669
y: 2.20721578598
z: 0.659321427345
doppler_bin: 33
target_idx: 4
posX: -0.471445798874
posY: 2.1847679615
posZ: 0.525470197201
velX: 0.0229202508926
velY: 0.0572423711419
velZ: -0.175071999431
accX: 0.0
accY: 0.0
accZ: 0.0
---
header: 
  seq: 84970
  stamp: 
    secs: 1596523844
    nsecs: 956220211
  frame_id: "node1_radarinterface_radarscan"
range: 2.18883275986
angle: -0.223717540503
elev: 0.167529448867
doppler: -0.0795030742884
snr: 163
noise: 378
frame_num: 9862
point_id: 3
x: -0.47880718112
y: 2.10440540314
z: 0.364981085062
doppler_bin: 31
target_idx: 4
posX: -0.471445798874
posY: 2.1847679615
posZ: 0.525470197201
velX: 0.0229202508926
velY: 0.0572423711419
velZ: -0.175071999431
accX: 0.0
accY: 0.0
accZ: 0.0
---
header: 
  seq: 84971
  stamp: 
    secs: 1596523844
    nsecs: 956242486
  frame_id: "node1_radarinterface_radarscan"
range: 2.26700544357
angle: -0.227213472128
elev: 0.241062045097
doppler: -0.0795030742884
snr: 167
noise: 375
frame_num: 9862
point_id: 4
x: -0.49590742588
y: 2.14487290382
z: 0.541211485863
doppler_bin: 31
target_idx: 4
posX: -0.471445798874
posY: 2.1847679615
posZ: 0.525470197201
velX: 0.0229202508926
velY: 0.0572423711419
velZ: -0.175071999431
accX: 0.0
accY: 0.0
accZ: 0.0
---
header: 
  seq: 84972
  stamp: 
    secs: 1596523845
    nsecs:  60657677
  frame_id: "node1_radarinterface_radarscan"
range: 2.18883275986
angle: -0.193481728435
elev: 0.22336961329
doppler: -0.0795030742884
snr: 137
noise: 388
frame_num: 9863
point_id: 6
x: -0.410406172276
y: 2.09462738037
z: 0.484863162041
doppler_bin: 31
target_idx: 4
posX: -0.498831540346
posY: 2.16999149323
posZ: 0.569897830486
velX: -0.0698750764132
velY: 0.000136196613312
velZ: -0.0284759253263
accX: 0.0
accY: 0.0
accZ: 0.0
---
header: 
  seq: 84973
  stamp: 
    secs: 1596523845
    nsecs:  60762291
  frame_id: "node1_radarinterface_radarscan"
range: 2.34517812729
angle: -0.231855586171
elev: 0.311151742935
doppler: -0.0795030742884
snr: 122
noise: 384
frame_num: 9863
point_id: 8
x: -0.513007700443
y: 2.17282652855
z: 0.717988669872
doppler_bin: 31
target_idx: 4
posX: -0.498831540346
posY: 2.16999149323
posZ: 0.569897830486
velX: -0.0698750764132
velY: 0.000136196613312
velZ: -0.0284759253263
accX: 0.0
accY: 0.0
accZ: 0.0
---
header: 
  seq: 84974
  stamp: 
    secs: 1596523845
    nsecs: 161636788
  frame_id: "node1_radarinterface_radarscan"
range: 2.34517812729
angle: -0.26253554225
elev: 0.27183586359
doppler: 0.0795030742884
snr: 175
noise: 382
frame_num: 9864
point_id: 6
x: -0.586294531822
y: 2.18165564537
z: 0.629681110382
doppler_bin: 33
target_idx: 4
posX: -0.520320534706
posY: 2.16767215729
posZ: 0.576690733433
velX: -0.125533163548
velY: -0.00623821094632
velZ: -0.00147197209299
accX: 0.0
accY: 0.0
accZ: 0.0
---
header: 
  seq: 84975
  stamp: 
    secs: 1596523845
    nsecs: 161741683
  frame_id: "node1_radarinterface_radarscan"
range: 2.42335057259
angle: -0.299436569214
elev: 0.306324571371
doppler: 0.0795030742884
snr: 139
noise: 383
frame_num: 9864
point_id: 7
x: -0.681567370892
y: 2.20772719383
z: 0.7307767272
doppler_bin: 33
target_idx: 4
posX: -0.520320534706
posY: 2.16767215729
posZ: 0.576690733433
velX: -0.125533163548
velY: -0.00623821094632
velZ: -0.00147197209299
accX: 0.0
accY: 0.0
accZ: 0.0
---
header: 
  seq: 84976
  stamp: 
    secs: 1596523845
    nsecs: 462084635
  frame_id: "node1_radarinterface_radarscan"
range: 2.18883275986
angle: -0.196893766522
elev: 0.289204448462
doppler: 0.0795030742884
snr: 181
noise: 388
frame_num: 9866
point_id: 3
x: -0.410406142473
y: 2.05739855766
z: 0.624232769012
doppler_bin: 33
target_idx: 4
posX: -0.500251173973
posY: 2.1603770256
posZ: 0.619862854481
velX: 0.00212191045284
velY: -0.0244372468442
velZ: 0.10370631516
accX: 0.0
accY: 0.0
accZ: 0.0
---
header: 
  seq: 84977
  stamp: 
    secs: 1596523845
    nsecs: 462194487
  frame_id: "node1_radarinterface_radarscan"
range: 2.18883275986
angle: -0.193372040987
elev: 0.22089022398
doppler: -0.0795030742884
snr: 188
noise: 388
frame_num: 9866
point_id: 14
x: -0.410406112671
y: 2.09584546089
z: 0.479569554329
doppler_bin: 31
target_idx: 4
posX: -0.500251173973
posY: 2.1603770256
posZ: 0.619862854481
velX: 0.00212191045284
velY: -0.0244372468442
velZ: 0.10370631516
accX: 0.0
accY: 0.0
accZ: 0.0
---
header: 
  seq: 84978
  stamp: 
    secs: 1596523845
    nsecs: 559449354
  frame_id: "node1_radarinterface_radarscan"
range: 2.26700544357
angle: -0.194789603353
elev: 0.250892311335
doppler: 0.0795030742884
snr: 220
noise: 395
frame_num: 9867
point_id: 2
x: -0.425063550472
y: 2.15449810028
z: 0.562825858593
doppler_bin: 33
target_idx: 4
posX: -0.429885774851
posY: 2.19929671288
posZ: 0.565356612206
velX: 0.22407823801
velY: 0.0775083228946
velZ: -0.0503046885133
accX: 0.0
accY: 0.0
accZ: 0.0
---
header: 
  seq: 84979
  stamp: 
    secs: 1596523845
    nsecs: 559532590
  frame_id: "node1_radarinterface_radarscan"
range: 2.18883275986
angle: -0.225421965122
elev: 0.206912845373
doppler: -0.0795030742884
snr: 197
noise: 389
frame_num: 9867
point_id: 7
x: -0.478807151318
y: 2.08794784546
z: 0.449672877789
doppler_bin: 31
target_idx: 4
posX: -0.429885774851
posY: 2.19929671288
posZ: 0.565356612206
velX: 0.22407823801
velY: 0.0775083228946
velZ: -0.0503046885133
accX: 0.0
accY: 0.0
accZ: 0.0
---
header: 
  seq: 84980
  stamp: 
    secs: 1596523845
    nsecs: 661591651
  frame_id: "node1_radarinterface_radarscan"
range: 2.34517812729
angle: -0.195244893432
elev: 0.259723395109
doppler: 0.0
snr: 168
noise: 380
frame_num: 9868
point_id: 2
x: -0.439720898867
y: 2.22345995903
z: 0.602272808552
doppler_bin: 32
target_idx: 4
posX: -0.440402895212
posY: 2.17520189285
posZ: 0.633953213692
velX: 0.150272354484
velY: -0.0121668800712
velZ: 0.13373427093
accX: 0.0
accY: 0.0
accZ: 0.0
---
header: 
  seq: 84981
  stamp: 
    secs: 1596523845
    nsecs: 661666830
  frame_id: "node1_radarinterface_radarscan"
range: 2.26700544357
angle: -0.256962776184
elev: 0.180837363005
doppler: 0.0795030742884
snr: 157
noise: 382
frame_num: 9868
point_id: 6
x: -0.566751360893
y: 2.15681815147
z: 0.407728523016
doppler_bin: 33
target_idx: 4
posX: -0.440402895212
posY: 2.17520189285
posZ: 0.633953213692
velX: 0.150272354484
velY: -0.0121668800712
velZ: 0.13373427093
accX: 0.0
accY: 0.0
accZ: 0.0
---
header: 
  seq: 84982
  stamp: 
    secs: 1596523845
    nsecs: 661692616
  frame_id: "node1_radarinterface_radarscan"
range: 2.34517812729
angle: -0.21437433362
elev: 0.492034375668
doppler: 0.0795030742884
snr: 191
noise: 382
frame_num: 9868
point_id: 7
x: -0.439720928669
y: 2.01966452599
z: 1.10790884495
doppler_bin: 33
target_idx: 4
posX: -0.440402895212
posY: 2.17520189285
posZ: 0.633953213692
velX: 0.150272354484
velY: -0.0121668800712
velZ: 0.13373427093
accX: 0.0
accY: 0.0
accZ: 0.0
---
header: 
  seq: 84983
  stamp: 
    secs: 1596523845
    nsecs: 661759869
  frame_id: "node1_radarinterface_radarscan"
range: 2.26700544357
angle: -0.199368625879
elev: 0.327876716852
doppler: -0.159006148577
snr: 158
noise: 380
frame_num: 9868
point_id: 10
x: -0.42506352067
y: 2.10372495651
z: 0.730051875114
doppler_bin: 30
target_idx: 4
posX: -0.440402895212
posY: 2.17520189285
posZ: 0.633953213692
velX: 0.150272354484
velY: -0.0121668800712
velZ: 0.13373427093
accX: 0.0
accY: 0.0
accZ: 0.0
---
header: 
  seq: 84984
  stamp: 
    secs: 1596523845
    nsecs: 661771845
  frame_id: "node1_radarinterface_radarscan"
range: 2.34517812729
angle: -0.198251515627
elev: 0.31111702323
doppler: -0.159006148577
snr: 166
noise: 381
frame_num: 9868
point_id: 11
x: -0.439720928669
y: 2.18886041641
z: 0.717911124229
doppler_bin: 30
target_idx: 4
posX: -0.440402895212
posY: 2.17520189285
posZ: 0.633953213692
velX: 0.150272354484
velY: -0.0121668800712
velZ: 0.13373427093
accX: 0.0
accY: 0.0
accZ: 0.0
---
header: 
  seq: 84985
  stamp: 
    secs: 1596523845
    nsecs: 661781411
  frame_id: "node1_radarinterface_radarscan"
range: 2.18883275986
angle: -0.22604110837
elev: 0.219369605184
doppler: -0.0795030742884
snr: 152
noise: 396
frame_num: 9868
point_id: 14
x: -0.478807210922
y: 2.08203053474
z: 0.476321488619
doppler_bin: 31
target_idx: 4
posX: -0.440402895212
posY: 2.17520189285
posZ: 0.633953213692
velX: 0.150272354484
velY: -0.0121668800712
velZ: 0.13373427093
accX: 0.0
accY: 0.0
accZ: 0.0
---
header: 
  seq: 84986
  stamp: 
    secs: 1596523845
    nsecs: 661820108
  frame_id: "node1_radarinterface_radarscan"
range: 2.26700544357
angle: -0.200527653098
elev: 0.344249039888
doppler: -0.0795030742884
snr: 216
noise: 391
frame_num: 9868
point_id: 15
x: -0.425063550472
y: 2.09123659134
z: 0.765091359615
doppler_bin: 31
target_idx: 4
posX: -0.440402895212
posY: 2.17520189285
posZ: 0.633953213692
velX: 0.150272354484
velY: -0.0121668800712
velZ: 0.13373427093
accX: 0.0
accY: 0.0
accZ: 0.0
---
header: 
  seq: 84987
  stamp: 
    secs: 1596523845
    nsecs: 661829408
  frame_id: "node1_radarinterface_radarscan"
range: 2.34517812729
angle: -0.200411960483
elev: 0.342657029629
doppler: -0.0795030742884
snr: 237
noise: 386
frame_num: 9868
point_id: 16
x: -0.439720898867
y: 2.16463112831
z: 0.78795838356
doppler_bin: 31
target_idx: 4
posX: -0.440402895212
posY: 2.17520189285
posZ: 0.633953213692
velX: 0.150272354484
velY: -0.0121668800712
velZ: 0.13373427093
accX: 0.0
accY: 0.0
accZ: 0.0
---
header: 
  seq: 84988
  stamp: 
    secs: 1596523845
    nsecs: 661838449
  frame_id: "node1_radarinterface_radarscan"
range: 2.42335057259
angle: -0.198408544064
elev: 0.313536822796
doppler: -0.0795030742884
snr: 197
noise: 385
frame_num: 9868
point_id: 17
x: -0.454378217459
y: 2.25998425484
z: 0.74742180109
doppler_bin: 31
target_idx: 4
posX: -0.440402895212
posY: 2.17520189285
posZ: 0.633953213692
velX: 0.150272354484
velY: -0.0121668800712
velZ: 0.13373427093
accX: 0.0
accY: 0.0
accZ: 0.0
---
header: 
  seq: 84989
  stamp: 
    secs: 1596523845
    nsecs: 856611895
  frame_id: "node1_radarinterface_radarscan"
range: 2.26700544357
angle: -0.145395696163
elev: 0.530094265938
doppler: 0.0795030742884
snr: 123
noise: 401
frame_num: 9869
point_id: 1
x: -0.283375680447
y: 1.93524312973
z: 1.14623117447
doppler_bin: 33
target_idx: 4
posX: -0.371059179306
posY: 2.19267344475
posZ: 0.641083717346
velX: 0.327657699585
velY: 0.0338320881128
velZ: 0.10907997936
accX: 0.0
accY: 0.0
accZ: 0.0
---
header: 
  seq: 84990
  stamp: 
    secs: 1596523845
    nsecs: 856713589
  frame_id: "node1_radarinterface_radarscan"
range: 2.34517812729
angle: -0.165481135249
elev: 0.322204530239
doppler: 0.0795030742884
snr: 171
noise: 402
frame_num: 9869
point_id: 2
x: -0.36643409729
y: 2.19410610199
z: 0.742620408535
doppler_bin: 33
target_idx: 4
posX: -0.371059179306
posY: 2.19267344475
posZ: 0.641083717346
velX: 0.327657699585
velY: 0.0338320881128
velZ: 0.10907997936
accX: 0.0
accY: 0.0
accZ: 0.0
---
header: 
  seq: 84991
  stamp: 
    secs: 1596523845
    nsecs: 856780637
  frame_id: "node1_radarinterface_radarscan"
range: 2.42335057259
angle: -0.129756525159
elev: 0.261314183474
doppler: 0.0795030742884
snr: 155
noise: 403
frame_num: 9869
point_id: 3
x: -0.302918821573
y: 2.32140040398
z: 0.626073479652
doppler_bin: 33
target_idx: 4
posX: -0.371059179306
posY: 2.19267344475
posZ: 0.641083717346
velX: 0.327657699585
velY: 0.0338320881128
velZ: 0.10907997936
accX: 0.0
accY: 0.0
accZ: 0.0
---
header: 
  seq: 84992
  stamp: 
    secs: 1596523845
    nsecs: 856810927
  frame_id: "node1_radarinterface_radarscan"
range: 2.26700544357
angle: -0.17014323175
elev: 0.395537167788
doppler: -0.0795030742884
snr: 164
noise: 373
frame_num: 9869
point_id: 5
x: -0.354219585657
y: 2.06176233292
z: 0.873486101627
doppler_bin: 31
target_idx: 4
posX: -0.371059179306
posY: 2.19267344475
posZ: 0.641083717346
velX: 0.327657699585
velY: 0.0338320881128
velZ: 0.10907997936
accX: 0.0
accY: 0.0
accZ: 0.0
---
header: 
  seq: 84993
  stamp: 
    secs: 1596523845
    nsecs: 856834883
  frame_id: "node1_radarinterface_radarscan"
range: 2.42335057259
angle: -0.12720964849
elev: 0.17176219821
doppler: -0.0795030742884
snr: 173
noise: 382
frame_num: 9869
point_id: 7
x: -0.302918821573
y: 2.36839818954
z: 0.414196372032
doppler_bin: 31
target_idx: 4
posX: -0.371059179306
posY: 2.19267344475
posZ: 0.641083717346
velX: 0.327657699585
velY: 0.0338320881128
velZ: 0.10907997936
accX: 0.0
accY: 0.0
accZ: 0.0
---
header: 
  seq: 84994
  stamp: 
    secs: 1596523845
    nsecs: 961494298
  frame_id: "node1_radarinterface_radarscan"
range: 2.18883275986
angle: -0.322146117687
elev: 0.161168038845
doppler: 0.0795030742884
snr: 150
noise: 382
frame_num: 9870
point_id: 0
x: -0.684010267258
y: 2.04932832718
z: 0.351244658232
doppler_bin: 33
target_idx: 4
posX: -0.448791444302
posY: 2.20160937309
posZ: 0.554995715618
velX: 0.00520822405815
velY: 0.0554495155811
velZ: -0.140434443951
accX: 0.0
accY: 0.0
accZ: 0.0
---
header: 
  seq: 84995
  stamp: 
    secs: 1596523845
    nsecs: 961578393
  frame_id: "node1_radarinterface_radarscan"
range: 2.26700544357
angle: -0.29128459096
elev: 0.203620254993
doppler: 0.0795030742884
snr: 171
noise: 382
frame_num: 9870
point_id: 1
x: -0.637595295906
y: 2.12664818764
z: 0.458425015211
doppler_bin: 33
target_idx: 4
posX: -0.448791444302
posY: 2.20160937309
posZ: 0.554995715618
velX: 0.00520822405815
velY: 0.0554495155811
velZ: -0.140434443951
accX: 0.0
accY: 0.0
accZ: 0.0
---
header: 
  seq: 84996
  stamp: 
    secs: 1596523845
    nsecs: 961652448
  frame_id: "node1_radarinterface_radarscan"
range: 2.42335057259
angle: -0.0945366099477
elev: 0.117045521736
doppler: 0.0795030742884
snr: 126
noise: 384
frame_num: 9870
point_id: 3
x: -0.227189123631
y: 2.39602303505
z: 0.282995134592
doppler_bin: 33
target_idx: 4
posX: -0.448791444302
posY: 2.20160937309
posZ: 0.554995715618
velX: 0.00520822405815
velY: 0.0554495155811
velZ: -0.140434443951
accX: 0.0
accY: 0.0
accZ: 0.0
---
header: 
  seq: 84997
  stamp: 
    secs: 1596523845
    nsecs: 961669463
  frame_id: "node1_radarinterface_radarscan"
range: 2.18883275986
angle: -0.323927909136
elev: 0.19107337296
doppler: -0.0795030742884
snr: 164
noise: 377
frame_num: 9870
point_id: 5
x: -0.684010267258
y: 2.03723406792
z: 0.415687441826
doppler_bin: 31
target_idx: 4
posX: -0.448791444302
posY: 2.20160937309
posZ: 0.554995715618
velX: 0.00520822405815
velY: 0.0554495155811
velZ: -0.140434443951
accX: 0.0
accY: 0.0
accZ: 0.0
---
header: 
  seq: 84998
  stamp: 
    secs: 1596523845
    nsecs: 961683091
  frame_id: "node1_radarinterface_radarscan"
range: 2.26700544357
angle: -0.324421137571
elev: 0.198513075709
doppler: -0.0795030742884
snr: 170
noise: 379
frame_num: 9870
point_id: 6
x: -0.708439171314
y: 2.10654854774
z: 0.447080284357
doppler_bin: 31
target_idx: 4
posX: -0.448791444302
posY: 2.20160937309
posZ: 0.554995715618
velX: 0.00520822405815
velY: 0.0554495155811
velZ: -0.140434443951
accX: 0.0
accY: 0.0
accZ: 0.0
---
header: 
  seq: 84999
  stamp: 
    secs: 1596523846
    nsecs: 156343251
  frame_id: "node1_radarinterface_radarscan"
range: 2.26700544357
angle: -0.228104069829
elev: 0.256202965975
doppler: 0.0
snr: 132
noise: 386
frame_num: 9871
point_id: 0
x: -0.49590742588
y: 2.13620257378
z: 0.574480235577
doppler_bin: 32
target_idx: 4
posX: -0.393815428019
posY: 2.21343278885
posZ: 0.516521513462
velX: 0.141497373581
velY: 0.075923204422
velZ: -0.221161797643
accX: 0.0
accY: 0.0
accZ: 0.0
---
header: 
  seq: 85000
  stamp: 
    secs: 1596523846
    nsecs: 156413270
  frame_id: "node1_radarinterface_radarscan"
range: 2.18883275986
angle: -0.19193045795
elev: 0.184979423881
doppler: 0.0795030742884
snr: 168
noise: 395
frame_num: 9871
point_id: 1
x: -0.410406142473
y: 2.11198544502
z: 0.402583926916
doppler_bin: 33
target_idx: 4
posX: -0.393815428019
posY: 2.21343278885
posZ: 0.516521513462
velX: 0.141497373581
velY: 0.075923204422
velZ: -0.221161797643
accX: 0.0
accY: 0.0
accZ: 0.0
---
header: 
  seq: 85001
  stamp: 
    secs: 1596523846
    nsecs: 156426217
  frame_id: "node1_radarinterface_radarscan"
range: 2.34517812729
angle: -0.161684080958
elev: 0.243026331067
doppler: 0.0795030742884
snr: 182
noise: 396
frame_num: 9871
point_id: 3
x: -0.366434067488
y: 2.24657511711
z: 0.564346313477
doppler_bin: 33
target_idx: 4
posX: -0.393815428019
posY: 2.21343278885
posZ: 0.516521513462
velX: 0.141497373581
velY: 0.075923204422
velZ: -0.221161797643
accX: 0.0
accY: 0.0
accZ: 0.0
---
header: 
  seq: 85002
  stamp: 
    secs: 1596523846
    nsecs: 156436907
  frame_id: "node1_radarinterface_radarscan"
range: 2.5015232563
angle: -0.0941274017096
elev: 0.0712501704693
doppler: 0.0795030742884
snr: 113
noise: 405
frame_num: 9871
point_id: 5
x: -0.234517797828
y: 2.48413085938
z: 0.178083196282
doppler_bin: 33
target_idx: 4
posX: -0.393815428019
posY: 2.21343278885
posZ: 0.516521513462
velX: 0.141497373581
velY: 0.075923204422
velZ: -0.221161797643
accX: 0.0
accY: 0.0
accZ: 0.0
---
header: 
  seq: 85003
  stamp: 
    secs: 1596523846
    nsecs: 156447384
  frame_id: "node1_radarinterface_radarscan"
range: 2.11066031456
angle: -0.192012533545
elev: 0.187222182751
doppler: -0.0795030742884
snr: 135
noise: 388
frame_num: 9871
point_id: 6
x: -0.395748823881
y: 2.03566527367
z: 0.392857939005
doppler_bin: 31
target_idx: 4
posX: -0.393815428019
posY: 2.21343278885
posZ: 0.516521513462
velX: 0.141497373581
velY: 0.075923204422
velZ: -0.221161797643
accX: 0.0
accY: 0.0
accZ: 0.0
---
header: 
  seq: 85004
  stamp: 
    secs: 1596523846
    nsecs: 156457225
  frame_id: "node1_radarinterface_radarscan"
range: 2.18883275986
angle: -0.19142024219
elev: 0.170336261392
doppler: -0.0795030742884
snr: 211
noise: 381
frame_num: 9871
point_id: 7
x: -0.410406142473
y: 2.11775517464
z: 0.371037244797
doppler_bin: 31
target_idx: 4
posX: -0.393815428019
posY: 2.21343278885
posZ: 0.516521513462
velX: 0.141497373581
velY: 0.075923204422
velZ: -0.221161797643
accX: 0.0
accY: 0.0
accZ: 0.0
---
header: 
  seq: 85005
  stamp: 
    secs: 1596523846
    nsecs: 261252850
  frame_id: "node1_radarinterface_radarscan"
range: 2.18883275986
angle: -0.266386628151
elev: 0.318591535091
doppler: 0.0795030742884
snr: 134
noise: 388
frame_num: 9872
point_id: 0
x: -0.547208189964
y: 2.00536680222
z: 0.685606539249
doppler_bin: 33
target_idx: 4
posX: -0.426792800426
posY: 2.19315266609
posZ: 0.55590814352
velX: -0.0111463665962
velY: 0.0085451900959
velZ: -0.0752086341381
accX: 0.0
accY: 0.0
accZ: 0.0
---
header: 
  seq: 85006
  stamp: 
    secs: 1596523846
    nsecs: 261319154
  frame_id: "node1_radarinterface_radarscan"
range: 2.26700544357
angle: -0.232608422637
elev: 0.320886939764
doppler: 0.0795030742884
snr: 154
noise: 392
frame_num: 9872
point_id: 1
x: -0.495907455683
y: 2.0933508873
z: 0.715032458305
doppler_bin: 33
target_idx: 4
posX: -0.426792800426
posY: 2.19315266609
posZ: 0.55590814352
velX: -0.0111463665962
velY: 0.0085451900959
velZ: -0.0752086341381
accX: 0.0
accY: 0.0
accZ: 0.0
---
header: 
  seq: 85007
  stamp: 
    secs: 1596523846
    nsecs: 261340591
  frame_id: "node1_radarinterface_radarscan"
range: 2.18883275986
angle: -0.229717731476
elev: 0.281346052885
doppler: -0.0795030742884
snr: 149
noise: 384
frame_num: 9872
point_id: 3
x: -0.478807151318
y: 2.04753494263
z: 0.6077272892
doppler_bin: 31
target_idx: 4
posX: -0.426792800426
posY: 2.19315266609
posZ: 0.55590814352
velX: -0.0111463665962
velY: 0.0085451900959
velZ: -0.0752086341381
accX: 0.0
accY: 0.0
accZ: 0.0
---
header: 
  seq: 85008
  stamp: 
    secs: 1596523846
    nsecs: 261365116
  frame_id: "node1_radarinterface_radarscan"
range: 2.34517812729
angle: -0.230255231261
elev: 0.289174407721
doppler: -0.0795030742884
snr: 168
noise: 384
frame_num: 9872
point_id: 5
x: -0.513007700443
y: 2.18848156929
z: 0.668753385544
doppler_bin: 31
target_idx: 4
posX: -0.426792800426
posY: 2.19315266609
posZ: 0.55590814352
velX: -0.0111463665962
velY: 0.0085451900959
velZ: -0.0752086341381
accX: 0.0
accY: 0.0
accZ: 0.0
---
header: 
  seq: 85009
  stamp: 
    secs: 1596523846
    nsecs: 456272133
  frame_id: "node1_radarinterface_radarscan"
range: 2.18883275986
angle: -0.225878834724
elev: 0.216179639101
doppler: 0.0795030742884
snr: 159
noise: 381
frame_num: 9873
point_id: 0
x: -0.47880718112
y: 2.08357834816
z: 0.469504088163
doppler_bin: 33
target_idx: 4
posX: -0.46634170413
posY: 2.1828649044
posZ: 0.489363908768
velX: -0.157204478979
velY: -0.0100346188992
velZ: -0.193367362022
accX: 0.0
accY: 0.0
accZ: 0.0
---
header: 
  seq: 85010
  stamp: 
    secs: 1596523846
    nsecs: 456399445
  frame_id: "node1_radarinterface_radarscan"
range: 2.26700544357
angle: -0.22829182446
elev: 0.259270012379
doppler: 0.0795030742884
snr: 174
noise: 389
frame_num: 9873
point_id: 1
x: -0.49590742588
y: 2.1343832016
z: 0.581203579903
doppler_bin: 33
target_idx: 4
posX: -0.46634170413
posY: 2.1828649044
posZ: 0.489363908768
velX: -0.157204478979
velY: -0.0100346188992
velZ: -0.193367362022
accX: 0.0
accY: 0.0
accZ: 0.0
---
header: 
  seq: 85011
  stamp: 
    secs: 1596523846
    nsecs: 456470152
  frame_id: "node1_radarinterface_radarscan"
range: 2.18883275986
angle: -0.224291071296
elev: 0.181795418262
doppler: -0.0795030742884
snr: 176
noise: 382
frame_num: 9873
point_id: 3
x: -0.478807121515
y: 2.09883975983
z: 0.395731538534
doppler_bin: 31
target_idx: 4
posX: -0.46634170413
posY: 2.1828649044
posZ: 0.489363908768
velX: -0.157204478979
velY: -0.0100346188992
velZ: -0.193367362022
accX: 0.0
accY: 0.0
accZ: 0.0
---
header: 
  seq: 85012
  stamp: 
    secs: 1596523846
    nsecs: 456494295
  frame_id: "node1_radarinterface_radarscan"
range: 2.34517812729
angle: -0.230673506856
elev: 0.295102000237
doppler: -0.0795030742884
snr: 173
noise: 382
frame_num: 9873
point_id: 5
x: -0.513007700443
y: 2.18436932564
z: 0.682065606117
doppler_bin: 31
target_idx: 4
posX: -0.46634170413
posY: 2.1828649044
posZ: 0.489363908768
velX: -0.157204478979
velY: -0.0100346188992
velZ: -0.193367362022
accX: 0.0
accY: 0.0
accZ: 0.0
---
header: 
  seq: 85013
  stamp: 
    secs: 1596523846
    nsecs: 561448611
  frame_id: "node1_radarinterface_radarscan"
range: 2.18883275986
angle: -0.257364928722
elev: 0.189012005925
doppler: 0.0795030742884
snr: 164
noise: 386
frame_num: 9874
point_id: 0
x: -0.547208189964
y: 2.07904291153
z: 0.411256700754
doppler_bin: 33
target_idx: 4
posX: -0.508847892284
posY: 2.17516422272
posZ: 0.484356552362
velX: -0.273328274488
velY: -0.03045995906
velZ: -0.168463051319
accX: 0.0
accY: 0.0
accZ: 0.0
---
header: 
  seq: 85014
  stamp: 
    secs: 1596523846
    nsecs: 561546149
  frame_id: "node1_radarinterface_radarscan"
range: 2.26700544357
angle: -0.260606050491
elev: 0.24454498291
doppler: 0.0795030742884
snr: 194
noise: 386
frame_num: 9874
point_id: 1
x: -0.566751360893
y: 2.12528634071
z: 0.548875749111
doppler_bin: 33
target_idx: 4
posX: -0.508847892284
posY: 2.17516422272
posZ: 0.484356552362
velX: -0.273328274488
velY: -0.03045995906
velZ: -0.168463051319
accX: 0.0
accY: 0.0
accZ: 0.0
---
header: 
  seq: 85015
  stamp: 
    secs: 1596523846
    nsecs: 561575576
  frame_id: "node1_radarinterface_radarscan"
range: 2.5015232563
angle: -0.0638394206762
elev: 0.201915740967
doppler: 0.0795030742884
snr: 112
noise: 403
frame_num: 9874
point_id: 3
x: -0.156345188618
y: 2.44571042061
z: 0.501671791077
doppler_bin: 33
target_idx: 4
posX: -0.508847892284
posY: 2.17516422272
posZ: 0.484356552362
velX: -0.273328274488
velY: -0.03045995906
velZ: -0.168463051319
accX: 0.0
accY: 0.0
accZ: 0.0
---
header: 
  seq: 85016
  stamp: 
    secs: 1596523846
    nsecs: 561641499
  frame_id: "node1_radarinterface_radarscan"
range: 2.26700544357
angle: -0.259275019169
elev: 0.223554730415
doppler: -0.0795030742884
snr: 214
noise: 370
frame_num: 9874
point_id: 7
x: -0.566751360893
y: 2.13670563698
z: 0.50258898735
doppler_bin: 31
target_idx: 4
posX: -0.508847892284
posY: 2.17516422272
posZ: 0.484356552362
velX: -0.273328274488
velY: -0.03045995906
velZ: -0.168463051319
accX: 0.0
accY: 0.0
accZ: 0.0
---
header: 
  seq: 85017
  stamp: 
    secs: 1596523846
    nsecs: 756250270
  frame_id: "node1_radarinterface_radarscan"
range: 2.18883275986
angle: -0.22624707222
elev: 0.223347514868
doppler: 0.0795030742884
snr: 157
noise: 396
frame_num: 9875
point_id: 0
x: -0.47880718112
y: 2.08006882668
z: 0.484816014767
doppler_bin: 33
target_idx: 4
posX: -0.516417860985
posY: 2.13771700859
posZ: 0.594568014145
velX: -0.200147643685
velY: -0.101409517229
velZ: 0.17476978898
accX: 0.0
accY: 0.0
accZ: 0.0
---
header: 
  seq: 85018
  stamp: 
    secs: 1596523846
    nsecs: 756406261
  frame_id: "node1_radarinterface_radarscan"
range: 2.26700544357
angle: -0.228091135621
elev: 0.255990207195
doppler: 0.0795030742884
snr: 155
noise: 394
frame_num: 9875
point_id: 1
x: -0.495907455683
y: 2.13632822037
z: 0.574013650417
doppler_bin: 33
target_idx: 4
posX: -0.516417860985
posY: 2.13771700859
posZ: 0.594568014145
velX: -0.200147643685
velY: -0.101409517229
velZ: 0.17476978898
accX: 0.0
accY: 0.0
accZ: 0.0
---
header: 
  seq: 85019
  stamp: 
    secs: 1596523846
    nsecs: 756469937
  frame_id: "node1_radarinterface_radarscan"
range: 2.11066031456
angle: -0.224770277739
elev: 0.192864716053
doppler: -0.0795030742884
snr: 124
noise: 385
frame_num: 9875
point_id: 3
x: -0.461706966162
y: 2.01941847801
z: 0.404552966356
doppler_bin: 31
target_idx: 4
posX: -0.516417860985
posY: 2.13771700859
posZ: 0.594568014145
velX: -0.200147643685
velY: -0.101409517229
velZ: 0.17476978898
accX: 0.0
accY: 0.0
accZ: 0.0
---
header: 
  seq: 85020
  stamp: 
    secs: 1596523846
    nsecs: 756496810
  frame_id: "node1_radarinterface_radarscan"
range: 2.26700544357
angle: -0.192722395062
elev: 0.205540627241
doppler: -0.0795030742884
snr: 169
noise: 379
frame_num: 9875
point_id: 5
x: -0.42506352067
y: 2.17819976807
z: 0.462687730789
doppler_bin: 31
target_idx: 4
posX: -0.516417860985
posY: 2.13771700859
posZ: 0.594568014145
velX: -0.200147643685
velY: -0.101409517229
velZ: 0.17476978898
accX: 0.0
accY: 0.0
accZ: 0.0
---
header: 
  seq: 85021
  stamp: 
    secs: 1596523846
    nsecs: 861540900
  frame_id: "node1_radarinterface_radarscan"
range: 2.26700544357
angle: -0.230341687799
elev: 0.29041108489
doppler: 0.0795030742884
snr: 184
noise: 394
frame_num: 9876
point_id: 1
x: -0.49590742588
y: 2.11470937729
z: 0.649148225784
doppler_bin: 33
target_idx: 4
posX: -0.446506947279
posY: 2.16661167145
posZ: 0.602777719498
velX: 0.0781502425671
velY: -0.0053416788578
velZ: 0.17228256166
accX: 0.0
accY: 0.0
accZ: 0.0
---
header: 
  seq: 85022
  stamp: 
    secs: 1596523846
    nsecs: 861658997
  frame_id: "node1_radarinterface_radarscan"
range: 2.34517812729
angle: -0.197536766529
elev: 0.299813330173
doppler: 0.0795030742884
snr: 160
noise: 392
frame_num: 9876
point_id: 2
x: -0.439720928669
y: 2.19699144363
z: 0.692629277706
doppler_bin: 33
target_idx: 4
posX: -0.446506947279
posY: 2.16661167145
posZ: 0.602777719498
velX: 0.0781502425671
velY: -0.0053416788578
velZ: 0.17228256166
accX: 0.0
accY: 0.0
accZ: 0.0
---
header: 
  seq: 85023
  stamp: 
    secs: 1596523846
    nsecs: 861701239
  frame_id: "node1_radarinterface_radarscan"
range: 2.18883275986
angle: -0.19791072607
elev: 0.30578827858
doppler: -0.0795030742884
snr: 160
noise: 375
frame_num: 9876
point_id: 5
x: -0.410406142473
y: 2.04654765129
z: 0.658937096596
doppler_bin: 31
target_idx: 4
posX: -0.446506947279
posY: 2.16661167145
posZ: 0.602777719498
velX: 0.0781502425671
velY: -0.0053416788578
velZ: 0.17228256166
accX: 0.0
accY: 0.0
accZ: 0.0
---
header: 
  seq: 85024
  stamp: 
    secs: 1596523846
    nsecs: 861728566
  frame_id: "node1_radarinterface_radarscan"
range: 2.26700544357
angle: -0.231690272689
elev: 0.308965593576
doppler: -0.0795030742884
snr: 195
noise: 372
frame_num: 9876
point_id: 6
x: -0.49590742588
y: 2.10195279121
z: 0.689336001873
doppler_bin: 31
target_idx: 4
posX: -0.446506947279
posY: 2.16661167145
posZ: 0.602777719498
velX: 0.0781502425671
velY: -0.0053416788578
velZ: 0.17228256166
accX: 0.0
accY: 0.0
accZ: 0.0
---
header: 
  seq: 85025
  stamp: 
    secs: 1596523846
    nsecs: 861809117
  frame_id: "node1_radarinterface_radarscan"
range: 2.42335057259
angle: -0.0955358371139
elev: 0.185731381178
doppler: -0.0795030742884
snr: 147
noise: 375
frame_num: 9876
point_id: 8
x: -0.227189093828
y: 2.37081170082
z: 0.447508960962
doppler_bin: 31
target_idx: 4
posX: -0.446506947279
posY: 2.16661167145
posZ: 0.602777719498
velX: 0.0781502425671
velY: -0.0053416788578
velZ: 0.17228256166
accX: 0.0
accY: 0.0
accZ: 0.0
---
header: 
  seq: 85026
  stamp: 
    secs: 1596523847
    nsecs:  56400924
  frame_id: "node1_radarinterface_radarscan"
range: 2.11066031456
angle: -0.262159764767
elev: 0.266765981913
doppler: 0.0795030742884
snr: 127
noise: 384
frame_num: 9877
point_id: 0
x: -0.52766507864
y: 1.96643793583
z: 0.556397914886
doppler_bin: 33
target_idx: 4
posX: -0.54585313797
posY: 2.13099265099
posZ: 0.605197489262
velX: -0.260647833347
velY: -0.0977704450488
velZ: 0.145377382636
accX: 0.0
accY: 0.0
accZ: 0.0
---
header: 
  seq: 85027
  stamp: 
    secs: 1596523847
    nsecs:  56456521
  frame_id: "node1_radarinterface_radarscan"
range: 2.26700544357
angle: -0.336847513914
elev: 0.331673651934
doppler: 0.0795030742884
snr: 166
noise: 381
frame_num: 9877
point_id: 2
x: -0.708439230919
y: 2.02299165726
z: 0.738195717335
doppler_bin: 33
target_idx: 4
posX: -0.54585313797
posY: 2.13099265099
posZ: 0.605197489262
velX: -0.260647833347
velY: -0.0977704450488
velZ: 0.145377382636
accX: 0.0
accY: 0.0
accZ: 0.0
---
header: 
  seq: 85028
  stamp: 
    secs: 1596523847
    nsecs:  56520137
  frame_id: "node1_radarinterface_radarscan"
range: 2.18883275986
angle: -0.329222410917
elev: 0.259288549423
doppler: -0.0795030742884
snr: 170
noise: 376
frame_num: 9877
point_id: 3
x: -0.684010207653
y: 2.00204205513
z: 0.561201274395
doppler_bin: 31
target_idx: 4
posX: -0.54585313797
posY: 2.13099265099
posZ: 0.605197489262
velX: -0.260647833347
velY: -0.0977704450488
velZ: 0.145377382636
accX: 0.0
accY: 0.0
accZ: 0.0
---
header: 
  seq: 85029
  stamp: 
    secs: 1596523847
    nsecs:  56627194
  frame_id: "node1_radarinterface_radarscan"
range: 2.26700544357
angle: -0.324473172426
elev: 0.199280902743
doppler: -0.0795030742884
snr: 172
noise: 379
frame_num: 9877
point_id: 4
x: -0.708439171314
y: 2.10618567467
z: 0.448786646128
doppler_bin: 31
target_idx: 4
posX: -0.54585313797
posY: 2.13099265099
posZ: 0.605197489262
velX: -0.260647833347
velY: -0.0977704450488
velZ: 0.145377382636
accX: 0.0
accY: 0.0
accZ: 0.0
---
header: 
  seq: 85030
  stamp: 
    secs: 1596523847
    nsecs: 161326812
  frame_id: "node1_radarinterface_radarscan"
range: 2.11066031456
angle: -0.193852886558
elev: 0.231545522809
doppler: 0.0795030742884
snr: 152
noise: 384
frame_num: 9878
point_id: 0
x: -0.395748823881
y: 2.01585388184
z: 0.48435869813
doppler_bin: 33
target_idx: 4
posX: -0.509035050869
posY: 2.15877723694
posZ: 0.535489797592
velX: -0.0833184570074
velY: 0.00920370221138
velZ: -0.0674908608198
accX: 0.0
accY: 0.0
accZ: 0.0
---
header: 
  seq: 85031
  stamp: 
    secs: 1596523847
    nsecs: 161431256
  frame_id: "node1_radarinterface_radarscan"
range: 2.26700544357
angle: -0.225154668093
elev: 0.201277852058
doppler: 0.0795030742884
snr: 227
noise: 392
frame_num: 9878
point_id: 2
x: -0.495907396078
y: 2.165173769
z: 0.453223228455
doppler_bin: 33
target_idx: 4
posX: -0.509035050869
posY: 2.15877723694
posZ: 0.535489797592
velX: -0.0833184570074
velY: 0.00920370221138
velZ: -0.0674908608198
accX: 0.0
accY: 0.0
accZ: 0.0
---
header: 
  seq: 85032
  stamp: 
    secs: 1596523847
    nsecs: 161451244
  frame_id: "node1_radarinterface_radarscan"
range: 2.34517812729
angle: -0.254081189632
elev: 0.103927239776
doppler: 0.0795030742884
snr: 178
noise: 392
frame_num: 9878
point_id: 3
x: -0.586294531822
y: 2.2576379776
z: 0.243289381266
doppler_bin: 33
target_idx: 4
posX: -0.509035050869
posY: 2.15877723694
posZ: 0.535489797592
velX: -0.0833184570074
velY: 0.00920370221138
velZ: -0.0674908608198
accX: 0.0
accY: 0.0
accZ: 0.0
---
header: 
  seq: 85033
  stamp: 
    secs: 1596523847
    nsecs: 161466520
  frame_id: "node1_radarinterface_radarscan"
range: 2.42335057259
angle: -0.164688810706
elev: 0.307604968548
doppler: 0.0795030742884
snr: 172
noise: 398
frame_num: 9878
point_id: 4
x: -0.378648549318
y: 2.27835178375
z: 0.733734548092
doppler_bin: 33
target_idx: 4
posX: -0.509035050869
posY: 2.15877723694
posZ: 0.535489797592
velX: -0.0833184570074
velY: 0.00920370221138
velZ: -0.0674908608198
accX: 0.0
accY: 0.0
accZ: 0.0
---
header: 
  seq: 85034
  stamp: 
    secs: 1596523847
    nsecs: 161480877
  frame_id: "node1_radarinterface_radarscan"
range: 2.11066031456
angle: -0.191701754928
elev: 0.178572416306
doppler: -0.0795030742884
snr: 132
noise: 372
frame_num: 9878
point_id: 5
x: -0.395748794079
y: 2.03904771805
z: 0.374905765057
doppler_bin: 31
target_idx: 4
posX: -0.509035050869
posY: 2.15877723694
posZ: 0.535489797592
velX: -0.0833184570074
velY: 0.00920370221138
velZ: -0.0674908608198
accX: 0.0
accY: 0.0
accZ: 0.0
---
header: 
  seq: 85035
  stamp: 
    secs: 1596523847
    nsecs: 161495016
  frame_id: "node1_radarinterface_radarscan"
range: 2.18883275986
angle: -0.225116088986
elev: 0.200450286269
doppler: -0.0795030742884
snr: 209
noise: 378
frame_num: 9878
point_id: 6
x: -0.478807151318
y: 2.090883255
z: 0.435819864273
doppler_bin: 31
target_idx: 4
posX: -0.509035050869
posY: 2.15877723694
posZ: 0.535489797592
velX: -0.0833184570074
velY: 0.00920370221138
velZ: -0.0674908608198
accX: 0.0
accY: 0.0
accZ: 0.0
---
header: 
  seq: 85036
  stamp: 
    secs: 1596523847
    nsecs: 161512186
  frame_id: "node1_radarinterface_radarscan"
range: 2.26700544357
angle: -0.224415138364
elev: 0.184728682041
doppler: -0.0795030742884
snr: 232
noise: 377
frame_num: 9878
point_id: 7
x: -0.49590742588
y: 2.17255544662
z: 0.416403204203
doppler_bin: 31
target_idx: 4
posX: -0.509035050869
posY: 2.15877723694
posZ: 0.535489797592
velX: -0.0833184570074
velY: 0.00920370221138
velZ: -0.0674908608198
accX: 0.0
accY: 0.0
accZ: 0.0
---
header: 
  seq: 85037
  stamp: 
    secs: 1596523847
    nsecs: 161527139
  frame_id: "node1_radarinterface_radarscan"
range: 2.34517812729
angle: -0.253891199827
elev: 0.0966542810202
doppler: -0.0795030742884
snr: 202
noise: 375
frame_num: 9878
point_id: 8
x: -0.586294531822
y: 2.2594025135
z: 0.226318746805
doppler_bin: 31
target_idx: 4
posX: -0.509035050869
posY: 2.15877723694
posZ: 0.535489797592
velX: -0.0833184570074
velY: 0.00920370221138
velZ: -0.0674908608198
accX: 0.0
accY: 0.0
accZ: 0.0
---
header: 
  seq: 85038
  stamp: 
    secs: 1596523847
    nsecs: 266586299
  frame_id: "node1_radarinterface_radarscan"
range: 2.11066031456
angle: -0.227753102779
elev: 0.250357478857
doppler: 0.0795030742884
snr: 184
noise: 385
frame_num: 9879
point_id: 2
x: -0.461706936359
y: 1.99205219746
z: 0.522916734219
doppler_bin: 33
target_idx: 4
posX: -0.516985833645
posY: 2.15085911751
posZ: 0.536816298962
velX: -0.0877421721816
velY: 0.00371794868261
velZ: -0.0525749102235
accX: 0.0
accY: 0.0
accZ: 0.0
---
header: 
  seq: 85039
  stamp: 
    secs: 1596523847
    nsecs: 266688412
  frame_id: "node1_radarinterface_radarscan"
range: 2.18883275986
angle: -0.227705433965
elev: 0.249551698565
doppler: 0.0795030742884
snr: 264
noise: 382
frame_num: 9879
point_id: 3
x: -0.47880718112
y: 2.06627964973
z: 0.54057508707
doppler_bin: 33
target_idx: 4
posX: -0.516985833645
posY: 2.15085911751
posZ: 0.536816298962
velX: -0.0877421721816
velY: 0.00371794868261
velZ: -0.0525749102235
accX: 0.0
accY: 0.0
accZ: 0.0
---
header: 
  seq: 85040
  stamp: 
    secs: 1596523847
    nsecs: 266704502
  frame_id: "node1_radarinterface_radarscan"
range: 2.26700544357
angle: -0.227950379252
elev: 0.25366166234
doppler: 0.0795030742884
snr: 282
noise: 382
frame_num: 9879
point_id: 4
x: -0.495907455683
y: 2.13769412041
z: 0.568905293941
doppler_bin: 33
target_idx: 4
posX: -0.516985833645
posY: 2.15085911751
posZ: 0.536816298962
velX: -0.0877421721816
velY: 0.00371794868261
velZ: -0.0525749102235
accX: 0.0
accY: 0.0
accZ: 0.0
---
header: 
  seq: 85041
  stamp: 
    secs: 1596523847
    nsecs: 266720707
  frame_id: "node1_radarinterface_radarscan"
range: 2.34517812729
angle: -0.262648582458
elev: 0.27334010601
doppler: 0.0795030742884
snr: 236
noise: 382
frame_num: 9879
point_id: 5
x: -0.586294531822
y: 2.18067193031
z: 0.633078575134
doppler_bin: 33
target_idx: 4
posX: -0.516985833645
posY: 2.15085911751
posZ: 0.536816298962
velX: -0.0877421721816
velY: 0.00371794868261
velZ: -0.0525749102235
accX: 0.0
accY: 0.0
accZ: 0.0
---
header: 
  seq: 85042
  stamp: 
    secs: 1596523847
    nsecs: 266739987
  frame_id: "node1_radarinterface_radarscan"
range: 2.18883275986
angle: -0.228135257959
elev: 0.256715208292
doppler: 0.159006148577
snr: 187
noise: 373
frame_num: 9879
point_id: 8
x: -0.47880718112
y: 2.0622484684
z: 0.555755078793
doppler_bin: 34
target_idx: 4
posX: -0.516985833645
posY: 2.15085911751
posZ: 0.536816298962
velX: -0.0877421721816
velY: 0.00371794868261
velZ: -0.0525749102235
accX: 0.0
accY: 0.0
accZ: 0.0
---
header: 
  seq: 85043
  stamp: 
    secs: 1596523847
    nsecs: 266763247
  frame_id: "node1_radarinterface_radarscan"
range: 2.26700544357
angle: -0.229061111808
elev: 0.271432220936
doppler: 0.159006148577
snr: 201
noise: 377
frame_num: 9879
point_id: 9
x: -0.495907396078
y: 2.12695932388
z: 0.607810199261
doppler_bin: 34
target_idx: 4
posX: -0.516985833645
posY: 2.15085911751
posZ: 0.536816298962
velX: -0.0877421721816
velY: 0.00371794868261
velZ: -0.0525749102235
accX: 0.0
accY: 0.0
accZ: 0.0
---
header: 
  seq: 85044
  stamp: 
    secs: 1596523847
    nsecs: 266786514
  frame_id: "node1_radarinterface_radarscan"
range: 2.26700544357
angle: -0.226439639926
elev: 0.226998001337
doppler: -0.0795030742884
snr: 270
noise: 374
frame_num: 9879
point_id: 12
x: -0.49590742588
y: 2.15246081352
z: 0.510197639465
doppler_bin: 31
target_idx: 4
posX: -0.516985833645
posY: 2.15085911751
posZ: 0.536816298962
velX: -0.0877421721816
velY: 0.00371794868261
velZ: -0.0525749102235
accX: 0.0
accY: 0.0
accZ: 0.0
---
header: 
  seq: 85045
  stamp: 
    secs: 1596523847
    nsecs: 266808974
  frame_id: "node1_radarinterface_radarscan"
range: 2.42335057259
angle: -0.352447897196
elev: -0.0915711373091
doppler: -0.0795030742884
snr: 120
noise: 382
frame_num: 9879
point_id: 14
x: -0.833026766777
y: 2.26485943794
z: -0.22159896791
doppler_bin: 31
target_idx: 4
posX: -0.516985833645
posY: 2.15085911751
posZ: 0.536816298962
velX: -0.0877421721816
velY: 0.00371794868261
velZ: -0.0525749102235
accX: 0.0
accY: 0.0
accZ: 0.0
---
header: 
  seq: 85046
  stamp: 
    secs: 1596523847
    nsecs: 266831446
  frame_id: "node1_radarinterface_radarscan"
range: 2.42335057259
angle: -0.0326633229852
elev: 0.294660687447
doppler: -0.0795030742884
snr: 120
noise: 382
frame_num: 9879
point_id: 15
x: -0.0757297128439
y: 2.31766915321
z: 0.70377779007
doppler_bin: 31
target_idx: 4
posX: -0.516985833645
posY: 2.15085911751
posZ: 0.536816298962
velX: -0.0877421721816
velY: 0.00371794868261
velZ: -0.0525749102235
accX: 0.0
accY: 0.0
accZ: 0.0
---
header: 
  seq: 85047
  stamp: 
    secs: 1596523847
    nsecs: 356229899
  frame_id: "node1_radarinterface_radarscan"
range: 2.34517812729
angle: -0.295474767685
elev: 0.262089461088
doppler: 0.0795030742884
snr: 172
noise: 376
frame_num: 9880
point_id: 2
x: -0.659581363201
y: 2.1669318676
z: 0.607633829117
doppler_bin: 33
target_idx: 4
posX: -0.526524484158
posY: 2.14784240723
posZ: 0.536033928394
velX: -0.092933177948
velY: -0.000359076075256
velZ: -0.0465094707906
accX: 0.0
accY: 0.0
accZ: 0.0
---
header: 
  seq: 85048
  stamp: 
    secs: 1596523847
    nsecs: 356290208
  frame_id: "node1_radarinterface_radarscan"
range: 2.18883275986
angle: -0.22689935565
elev: 0.235464155674
doppler: -0.0795030742884
snr: 190
noise: 386
frame_num: 9880
point_id: 3
x: -0.478807151318
y: 2.07387971878
z: 0.51064234972
doppler_bin: 31
target_idx: 4
posX: -0.526524484158
posY: 2.14784240723
posZ: 0.536033928394
velX: -0.092933177948
velY: -0.000359076075256
velZ: -0.0465094707906
accX: 0.0
accY: 0.0
accZ: 0.0
---
header: 
  seq: 85049
  stamp: 
    secs: 1596523847
    nsecs: 356345804
  frame_id: "node1_radarinterface_radarscan"
range: 2.26700544357
angle: -0.226329639554
elev: 0.224920749664
doppler: -0.0795030742884
snr: 219
noise: 386
frame_num: 9880
point_id: 4
x: -0.495907455683
y: 2.15354371071
z: 0.505608201027
doppler_bin: 31
target_idx: 4
posX: -0.526524484158
posY: 2.14784240723
posZ: 0.536033928394
velX: -0.092933177948
velY: -0.000359076075256
velZ: -0.0465094707906
accX: 0.0
accY: 0.0
accZ: 0.0
---
header: 
  seq: 85050
  stamp: 
    secs: 1596523847
    nsecs: 356364354
  frame_id: "node1_radarinterface_radarscan"
range: 2.34517812729
angle: -0.25771227479
elev: 0.195781677961
doppler: -0.0795030742884
snr: 175
noise: 384
frame_num: 9880
point_id: 5
x: -0.586294531822
y: 2.22440719604
z: 0.456215322018
doppler_bin: 31
target_idx: 4
posX: -0.526524484158
posY: 2.14784240723
posZ: 0.536033928394
velX: -0.092933177948
velY: -0.000359076075256
velZ: -0.0465094707906
accX: 0.0
accY: 0.0
accZ: 0.0
---
header: 
  seq: 85051
  stamp: 
    secs: 1596523847
    nsecs: 461445881
  frame_id: "node1_radarinterface_radarscan"
range: 2.42335057259
angle: -0.128027051687
elev: 0.205159336329
doppler: 0.0795030742884
snr: 139
noise: 390
frame_num: 9881
point_id: 2
x: -0.302918821573
y: 2.35311174393
z: 0.49369263649
doppler_bin: 33
target_idx: 4
posX: -0.454505860806
posY: 2.1786403656
posZ: 0.54317766428
velX: 0.180809468031
velY: 0.0750788003206
velZ: -0.0268518142402
accX: 0.0
accY: 0.0
accZ: 0.0
---
header: 
  seq: 85052
  stamp: 
    secs: 1596523847
    nsecs: 461579507
  frame_id: "node1_radarinterface_radarscan"
range: 2.5015232563
angle: -0.0633528754115
elev: 0.160184293985
doppler: 0.0795030742884
snr: 133
noise: 388
frame_num: 9881
point_id: 3
x: -0.156345203519
y: 2.46454453468
z: 0.398993313313
doppler_bin: 33
target_idx: 4
posX: -0.454505860806
posY: 2.1786403656
posZ: 0.54317766428
velX: 0.180809468031
velY: 0.0750788003206
velZ: -0.0268518142402
accX: 0.0
accY: 0.0
accZ: 0.0
---
header: 
  seq: 85053
  stamp: 
    secs: 1596523847
    nsecs: 461605575
  frame_id: "node1_radarinterface_radarscan"
range: 2.18883275986
angle: -0.191911563277
elev: 0.184459134936
doppler: -0.0795030742884
snr: 138
noise: 376
frame_num: 9881
point_id: 4
x: -0.410406112671
y: 2.11219835281
z: 0.401464492083
doppler_bin: 31
target_idx: 4
posX: -0.454505860806
posY: 2.1786403656
posZ: 0.54317766428
velX: 0.180809468031
velY: 0.0750788003206
velZ: -0.0268518142402
accX: 0.0
accY: 0.0
accZ: 0.0
---
header: 
  seq: 85054
  stamp: 
    secs: 1596523847
    nsecs: 461626764
  frame_id: "node1_radarinterface_radarscan"
range: 2.42335057259
angle: -0.0952989608049
elev: 0.172043904662
doppler: -0.0795030742884
snr: 160
noise: 370
frame_num: 9881
point_id: 7
x: -0.227189108729
y: 2.37674069405
z: 0.414868980646
doppler_bin: 31
target_idx: 4
posX: -0.454505860806
posY: 2.1786403656
posZ: 0.54317766428
velX: 0.180809468031
velY: 0.0750788003206
velZ: -0.0268518142402
accX: 0.0
accY: 0.0
accZ: 0.0
---
header: 
  seq: 85055
  stamp: 
    secs: 1596523847
    nsecs: 656397212
  frame_id: "node1_radarinterface_radarscan"
range: 2.42335057259
angle: -0.0645443946123
elev: 0.249652355909
doppler: 0.0795030742884
snr: 138
noise: 391
frame_num: 9882
point_id: 2
x: -0.151459395885
y: 2.34333300591
z: 0.59873020649
doppler_bin: 33
target_idx: 4
posX: -0.391985654831
posY: 2.19507312775
posZ: 0.557361543179
velX: 0.335063695908
velY: 0.0772751420736
velZ: 0.00274197757244
accX: 0.0
accY: 0.0
accZ: 0.0
---
header: 
  seq: 85056
  stamp: 
    secs: 1596523847
    nsecs: 656484534
  frame_id: "node1_radarinterface_radarscan"
range: 2.18883275986
angle: -0.189206436276
elev: 0.0785243138671
doppler: -0.0795030742884
snr: 146
noise: 380
frame_num: 9882
point_id: 3
x: -0.410406112671
y: 2.14314579964
z: 0.171700015664
doppler_bin: 31
target_idx: 4
posX: -0.391985654831
posY: 2.19507312775
posZ: 0.557361543179
velX: 0.335063695908
velY: 0.0772751420736
velZ: 0.00274197757244
accX: 0.0
accY: 0.0
accZ: 0.0
---
header: 
  seq: 85057
  stamp: 
    secs: 1596523847
    nsecs: 656575800
  frame_id: "node1_radarinterface_radarscan"
range: 2.26700544357
angle: -0.195013478398
elev: 0.255277335644
doppler: -0.0795030742884
snr: 148
noise: 383
frame_num: 9882
point_id: 4
x: -0.42506352067
y: 2.15196084976
z: 0.572450101376
doppler_bin: 31
target_idx: 4
posX: -0.391985654831
posY: 2.19507312775
posZ: 0.557361543179
velX: 0.335063695908
velY: 0.0772751420736
velZ: 0.00274197757244
accX: 0.0
accY: 0.0
accZ: 0.0
---
header: 
  seq: 85058
  stamp: 
    secs: 1596523847
    nsecs: 761495313
  frame_id: "node1_radarinterface_radarscan"
range: 2.26700544357
angle: -0.229266017675
elev: 0.274569600821
doppler: 0.0795030742884
snr: 223
noise: 385
frame_num: 9883
point_id: 1
x: -0.49590742588
y: 2.12499022484
z: 0.614659249783
doppler_bin: 33
target_idx: 4
posX: -0.410234689713
posY: 2.19060134888
posZ: 0.570040464401
velX: 0.224443644285
velY: 0.0429883748293
velZ: 0.0369912572205
accX: 0.0
accY: 0.0
accZ: 0.0
---
header: 
  seq: 85059
  stamp: 
    secs: 1596523847
    nsecs: 761578955
  frame_id: "node1_radarinterface_radarscan"
range: 2.34517812729
angle: -0.229080557823
elev: 0.271731585264
doppler: 0.0795030742884
snr: 214
noise: 386
frame_num: 9883
point_id: 2
x: -0.513007700443
y: 2.20010948181
z: 0.629445552826
doppler_bin: 33
target_idx: 4
posX: -0.410234689713
posY: 2.19060134888
posZ: 0.570040464401
velX: 0.224443644285
velY: 0.0429883748293
velZ: 0.0369912572205
accX: 0.0
accY: 0.0
accZ: 0.0
---
header: 
  seq: 85060
  stamp: 
    secs: 1596523847
    nsecs: 761600997
  frame_id: "node1_radarinterface_radarscan"
range: 2.42335057259
angle: -0.163870021701
elev: 0.291616201401
doppler: 0.0795030742884
snr: 154
noise: 385
frame_num: 9883
point_id: 3
x: -0.378648519516
y: 2.28994369507
z: 0.696714639664
doppler_bin: 33
target_idx: 4
posX: -0.410234689713
posY: 2.19060134888
posZ: 0.570040464401
velX: 0.224443644285
velY: 0.0429883748293
velZ: 0.0369912572205
accX: 0.0
accY: 0.0
accZ: 0.0
---
header: 
  seq: 85061
  stamp: 
    secs: 1596523847
    nsecs: 761648873
  frame_id: "node1_radarinterface_radarscan"
range: 2.26700544357
angle: -0.226836919785
elev: 0.234334006906
doppler: -0.0795030742884
snr: 213
noise: 374
frame_num: 9883
point_id: 10
x: -0.495907455683
y: 2.14855885506
z: 0.526387870312
doppler_bin: 31
target_idx: 4
posX: -0.410234689713
posY: 2.19060134888
posZ: 0.570040464401
velX: 0.224443644285
velY: 0.0429883748293
velZ: 0.0369912572205
accX: 0.0
accY: 0.0
accZ: 0.0
---
header: 
  seq: 85062
  stamp: 
    secs: 1596523847
    nsecs: 859716495
  frame_id: "node1_radarinterface_radarscan"
range: 2.42335057259
angle: -0.206833660603
elev: 0.420165240765
doppler: 0.0795030742884
snr: 132
noise: 390
frame_num: 9884
point_id: 2
x: -0.454378277063
y: 2.16541266441
z: 0.988512158394
doppler_bin: 33
target_idx: 4
posX: -0.419180870056
posY: 2.17708754539
posZ: 0.655147969723
velX: 0.152667462826
velY: -0.0184762887657
velZ: 0.260674387217
accX: 0.0
accY: 0.0
accZ: 0.0
---
header: 
  seq: 85063
  stamp: 
    secs: 1596523847
    nsecs: 859798677
  frame_id: "node1_radarinterface_radarscan"
range: 2.34517812729
angle: -0.237606346607
elev: 0.378119438887
doppler: -0.0795030742884
snr: 183
noise: 381
frame_num: 9884
point_id: 6
x: -0.513007760048
y: 2.11828064919
z: 0.865777373314
doppler_bin: 31
target_idx: 4
posX: -0.419180870056
posY: 2.17708754539
posZ: 0.655147969723
velX: 0.152667462826
velY: -0.0184762887657
velZ: 0.260674387217
accX: 0.0
accY: 0.0
accZ: 0.0
---
header: 
  seq: 85064
  stamp: 
