header: 
  seq: 19262
  stamp: 
    secs: 1596615285
    nsecs: 827706764
  frame_id: "node1_radarinterface_radarscan"
range: 2.03248763084
angle: -0.0320784784853
elev: 0.227024272084
doppler: 0.0
snr: 126
noise: 391
frame_num: 2198
point_id: 0
x: -0.0635152384639
y: 1.97931611538
z: 0.457470595837
doppler_bin: 32
target_idx: 18
posX: 0.0441380925477
posY: 2.07531523705
posZ: 0.695513129234
velX: 0.204643845558
velY: -0.00717920437455
velZ: 0.170625329018
accX: 0.0
accY: 0.0
accZ: 0.0
---
header: 
  seq: 19263
  stamp: 
    secs: 1596615285
    nsecs: 827779680
  frame_id: "node1_radarinterface_radarscan"
range: 2.34517812729
angle: 0.0349440798163
elev: 0.463556319475
doppler: 0.0
snr: 156
noise: 405
frame_num: 2198
point_id: 3
x: 0.0732868164778
y: 2.09640622139
z: 1.04860401154
doppler_bin: 32
target_idx: 18
posX: 0.0441380925477
posY: 2.07531523705
posZ: 0.695513129234
velX: 0.204643845558
velY: -0.00717920437455
velZ: 0.170625329018
accX: 0.0
accY: 0.0
accZ: 0.0
---
header: 
  seq: 19264
  stamp: 
    secs: 1596615285
    nsecs: 827792057
  frame_id: "node1_radarinterface_radarscan"
range: 2.03248763084
angle: -0.0322722755373
elev: 0.251695513725
doppler: 0.0795030742884
snr: 187
noise: 408
frame_num: 2198
point_id: 7
x: -0.0635152384639
y: 1.96742212772
z: 0.506183743477
doppler_bin: 33
target_idx: 18
posX: 0.0441380925477
posY: 2.07531523705
posZ: 0.695513129234
velX: 0.204643845558
velY: -0.00717920437455
velZ: 0.170625329018
accX: 0.0
accY: 0.0
accZ: 0.0
---
header: 
  seq: 19265
  stamp: 
    secs: 1596615285
    nsecs: 827809308
  frame_id: "node1_radarinterface_radarscan"
range: 2.11066031456
angle: -0.0628345832229
elev: -0.0966817066073
doppler: 0.0795030742884
snr: 171
noise: 408
frame_num: 2198
point_id: 8
x: -0.131916254759
y: 2.09665751457
z: -0.203744485974
doppler_bin: 33
target_idx: 18
posX: 0.0441380925477
posY: 2.07531523705
posZ: 0.695513129234
velX: 0.204643845558
velY: -0.00717920437455
velZ: 0.170625329018
accX: 0.0
accY: 0.0
accZ: 0.0
---
header: 
  seq: 19266
  stamp: 
    secs: 1596615285
    nsecs: 827824519
  frame_id: "node1_radarinterface_radarscan"
range: 2.18883275986
angle: 0.0347401872277
elev: 0.451678961515
doppler: 0.0795030742884
snr: 219
noise: 411
frame_num: 2198
point_id: 9
x: 0.0684010237455
y: 1.96813857555
z: 0.955374598503
doppler_bin: 33
target_idx: 18
posX: 0.0441380925477
posY: 2.07531523705
posZ: 0.695513129234
velX: 0.204643845558
velY: -0.00717920437455
velZ: 0.170625329018
accX: 0.0
accY: 0.0
accZ: 0.0
---
header: 
  seq: 19267
  stamp: 
    secs: 1596615285
    nsecs: 827843928
  frame_id: "node1_radarinterface_radarscan"
range: 2.26700544357
angle: 0.0339540094137
elev: 0.401337146759
doppler: 0.0795030742884
snr: 256
noise: 412
frame_num: 2198
point_id: 10
x: 0.0708439201117
y: 2.08566522598
z: 0.885604739189
doppler_bin: 33
target_idx: 18
posX: 0.0441380925477
posY: 2.07531523705
posZ: 0.695513129234
velX: 0.204643845558
velY: -0.00717920437455
velZ: 0.170625329018
accX: 0.0
accY: 0.0
accZ: 0.0
---
header: 
  seq: 19268
  stamp: 
    secs: 1596615285
    nsecs: 827859516
  frame_id: "node1_radarinterface_radarscan"
range: 2.18883275986
angle: 0.0351745858788
elev: 0.476493388414
doppler: 0.159006148577
snr: 173
noise: 376
frame_num: 2198
point_id: 12
x: 0.0684010237455
y: 1.94381284714
z: 1.00394320488
doppler_bin: 34
target_idx: 18
posX: 0.0441380925477
posY: 2.07531523705
posZ: 0.695513129234
velX: 0.204643845558
velY: -0.00717920437455
velZ: 0.170625329018
accX: 0.0
accY: 0.0
accZ: 0.0
---
header: 
  seq: 19269
  stamp: 
    secs: 1596615285
    nsecs: 827875000
  frame_id: "node1_radarinterface_radarscan"
range: 2.03248763084
angle: -0.032091230154
elev: 0.228737458587
doppler: -0.0795030742884
snr: 146
noise: 403
frame_num: 2198
point_id: 16
x: -0.0635152384639
y: 1.97852909565
z: 0.460862606764
doppler_bin: 31
target_idx: 18
posX: 0.0441380925477
posY: 2.07531523705
posZ: 0.695513129234
velX: 0.204643845558
velY: -0.00717920437455
velZ: 0.170625329018
accX: 0.0
accY: 0.0
accZ: 0.0
---
header: 
  seq: 19270
  stamp: 
    secs: 1596615285
    nsecs: 827889498
  frame_id: "node1_radarinterface_radarscan"
range: 2.18883275986
angle: 0.0335477888584
elev: 0.371781170368
doppler: -0.0795030742884
snr: 184
noise: 398
frame_num: 2198
point_id: 18
x: 0.0684010311961
y: 2.03814816475
z: 0.79514926672
doppler_bin: 31
target_idx: 18
posX: 0.0441380925477
posY: 2.07531523705
posZ: 0.695513129234
velX: 0.204643845558
velY: -0.00717920437455
velZ: 0.170625329018
accX: 0.0
accY: 0.0
accZ: 0.0
---
header: 
  seq: 19271
  stamp: 
    secs: 1596615285
    nsecs: 827904461
  frame_id: "node1_radarinterface_radarscan"
range: 2.26700544357
angle: 0.0333014540374
elev: 0.352330833673
doppler: -0.0795030742884
snr: 229
noise: 392
frame_num: 2198
point_id: 19
x: 0.0708439201117
y: 2.12656569481
z: 0.782312750816
doppler_bin: 31
target_idx: 18
posX: 0.0441380925477
posY: 2.07531523705
posZ: 0.695513129234
velX: 0.204643845558
velY: -0.00717920437455
velZ: 0.170625329018
accX: 0.0
accY: 0.0
accZ: 0.0
---
header: 
  seq: 19272
  stamp: 
    secs: 1596615285
    nsecs: 928977812
  frame_id: "node1_radarinterface_radarscan"
range: 2.03248763084
angle: -0.0315692126751
elev: 0.141163408756
doppler: 0.0
snr: 149
noise: 397
frame_num: 2199
point_id: 0
x: -0.0635152459145
y: 2.01126790047
z: 0.285960942507
doppler_bin: 32
target_idx: 18
posX: 0.0108714923263
posY: 2.08422374725
posZ: 0.67906332016
velX: 0.0360717475414
velY: 0.0217848010361
velZ: 0.108797207475
accX: 0.0
accY: 0.0
accZ: 0.0
---
header: 
  seq: 19273
  stamp: 
    secs: 1596615285
    nsecs: 929142004
  frame_id: "node1_radarinterface_radarscan"
range: 2.11066031456
angle: -0.0316321589053
elev: 0.15453363955
doppler: 0.0
snr: 176
noise: 390
frame_num: 2199
point_id: 1
x: -0.0659581273794
y: 2.08446502686
z: 0.324871391058
doppler_bin: 32
target_idx: 18
posX: 0.0108714923263
posY: 2.08422374725
posZ: 0.67906332016
velX: 0.0360717475414
velY: 0.0217848010361
velZ: 0.108797207475
accX: 0.0
accY: 0.0
accZ: 0.0
---
header: 
  seq: 19274
  stamp: 
    secs: 1596615285
    nsecs: 929169248
  frame_id: "node1_radarinterface_radarscan"
range: 2.26700544357
angle: 0.0
elev: 0.408175200224
doppler: 0.0
snr: 189
noise: 389
frame_num: 2199
point_id: 3
x: 0.0
y: 2.08076334
z: 0.899854063988
doppler_bin: 32
target_idx: 18
posX: 0.0108714923263
posY: 2.08422374725
posZ: 0.67906332016
velX: 0.0360717475414
velY: 0.0217848010361
velZ: 0.108797207475
accX: 0.0
accY: 0.0
accZ: 0.0
---
header: 
  seq: 19275
  stamp: 
    secs: 1596615285
    nsecs: 929190742
  frame_id: "node1_radarinterface_radarscan"
range: 2.03248763084
angle: -0.0317119471729
elev: 0.169920310378
doppler: 0.0795030742884
snr: 209
noise: 423
frame_num: 2199
point_id: 7
x: -0.0635152384639
y: 2.00220918655
z: 0.343701392412
doppler_bin: 33
target_idx: 18
posX: 0.0108714923263
posY: 2.08422374725
posZ: 0.67906332016
velX: 0.0360717475414
velY: 0.0217848010361
velZ: 0.108797207475
accX: 0.0
accY: 0.0
accZ: 0.0
---
header: 
  seq: 19276
  stamp: 
    secs: 1596615285
    nsecs: 929221997
  frame_id: "node1_radarinterface_radarscan"
range: 2.18883275986
angle: 0.0
elev: 0.29965570569
doppler: 0.0795030742884
snr: 255
noise: 402
frame_num: 2199
point_id: 9
x: 0.0
y: 2.09129428864
z: 0.646124303341
doppler_bin: 33
target_idx: 18
posX: 0.0108714923263
posY: 2.08422374725
posZ: 0.67906332016
velX: 0.0360717475414
velY: 0.0217848010361
velZ: 0.108797207475
accX: 0.0
accY: 0.0
accZ: 0.0
---
header: 
  seq: 19277
  stamp: 
    secs: 1596615285
    nsecs: 929254269
  frame_id: "node1_radarinterface_radarscan"
range: 2.26700544357
angle: 0.0
elev: 0.445197075605
doppler: 0.0795030742884
snr: 246
noise: 403
frame_num: 2199
point_id: 10
x: 0.0
y: 2.04603099823
z: 0.976253628731
doppler_bin: 33
target_idx: 18
posX: 0.0108714923263
posY: 2.08422374725
posZ: 0.67906332016
velX: 0.0360717475414
velY: 0.0217848010361
velZ: 0.108797207475
accX: 0.0
accY: 0.0
accZ: 0.0
---
header: 
  seq: 19278
  stamp: 
    secs: 1596615285
    nsecs: 929346397
  frame_id: "node1_radarinterface_radarscan"
range: 2.34517812729
angle: 0.0
elev: 0.447870910168
doppler: 0.0795030742884
snr: 206
noise: 426
frame_num: 2199
point_id: 11
x: 0.0
y: 2.11387586594
z: 1.01557338238
doppler_bin: 33
target_idx: 18
posX: 0.0108714923263
posY: 2.08422374725
posZ: 0.67906332016
velX: 0.0360717475414
velY: 0.0217848010361
velZ: 0.108797207475
accX: 0.0
accY: 0.0
accZ: 0.0
---
header: 
  seq: 19279
  stamp: 
    secs: 1596615285
    nsecs: 929380678
  frame_id: "node1_radarinterface_radarscan"
range: 2.11066031456
angle: -0.0318320542574
elev: 0.190653532743
doppler: 0.159006148577
snr: 194
noise: 379
frame_num: 2199
point_id: 14
x: -0.0659581273794
y: 2.07136631012
z: 0.399971455336
doppler_bin: 34
target_idx: 18
posX: 0.0108714923263
posY: 2.08422374725
posZ: 0.67906332016
velX: 0.0360717475414
velY: 0.0217848010361
velZ: 0.108797207475
accX: 0.0
accY: 0.0
accZ: 0.0
---
header: 
  seq: 19280
  stamp: 
    secs: 1596615285
    nsecs: 929413032
  frame_id: "node1_radarinterface_radarscan"
range: 2.26700544357
angle: 0.0
elev: 0.453861474991
doppler: 0.159006148577
snr: 191
noise: 379
frame_num: 2199
point_id: 16
x: 0.0
y: 2.0374956131
z: 0.993944346905
doppler_bin: 34
target_idx: 18
posX: 0.0108714923263
posY: 2.08422374725
posZ: 0.67906332016
velX: 0.0360717475414
velY: 0.0217848010361
velZ: 0.108797207475
accX: 0.0
accY: 0.0
accZ: 0.0
---
header: 
  seq: 19281
  stamp: 
    secs: 1596615285
    nsecs: 929444884
  frame_id: "node1_radarinterface_radarscan"
range: 2.03248763084
angle: -0.0315919220448
elev: 0.146133944392
doppler: -0.0795030742884
snr: 161
noise: 432
frame_num: 2199
point_id: 21
x: -0.0635152384639
y: 2.00982093811
z: 0.295959442854
doppler_bin: 31
target_idx: 18
posX: 0.0108714923263
posY: 2.08422374725
posZ: 0.67906332016
velX: 0.0360717475414
velY: 0.0217848010361
velZ: 0.108797207475
accX: 0.0
accY: 0.0
accZ: 0.0
---
header: 
  seq: 19282
  stamp: 
    secs: 1596615285
    nsecs: 929474569
  frame_id: "node1_radarinterface_radarscan"
range: 2.11066031456
angle: -0.0315387547016
elev: 0.134199336171
doppler: -0.0795030742884
snr: 202
noise: 414
frame_num: 2199
point_id: 22
x: -0.06595813483
y: 2.09064269066
z: 0.282399773598
doppler_bin: 31
target_idx: 18
posX: 0.0108714923263
posY: 2.08422374725
posZ: 0.67906332016
velX: 0.0360717475414
velY: 0.0217848010361
velZ: 0.108797207475
accX: 0.0
accY: 0.0
accZ: 0.0
---
header: 
  seq: 19283
  stamp: 
    secs: 1596615285
    nsecs: 929527781
  frame_id: "node1_radarinterface_radarscan"
range: 2.18883275986
angle: 0.0
elev: 0.259040743113
doppler: -0.0795030742884
snr: 206
noise: 404
frame_num: 2199
point_id: 23
x: 0.0
y: 2.11580491066
z: 0.56067699194
doppler_bin: 31
target_idx: 18
posX: 0.0108714923263
posY: 2.08422374725
posZ: 0.67906332016
velX: 0.0360717475414
velY: 0.0217848010361
velZ: 0.108797207475
accX: 0.0
accY: 0.0
accZ: 0.0
---
header: 
  seq: 19284
  stamp: 
    secs: 1596615285
    nsecs: 929654449
  frame_id: "node1_radarinterface_radarscan"
range: 2.34517812729
angle: 0.0
elev: 0.431355506182
doppler: -0.0795030742884
snr: 171
noise: 409
frame_num: 2199
point_id: 25
x: 0.0
y: 2.13035941124
z: 0.980524897575
doppler_bin: 31
target_idx: 18
posX: 0.0108714923263
posY: 2.08422374725
posZ: 0.67906332016
velX: 0.0360717475414
velY: 0.0217848010361
velZ: 0.108797207475
accX: 0.0
accY: 0.0
accZ: 0.0
---
header: 
  seq: 19285
  stamp: 
    secs: 1596615286
    nsecs:  30508620
  frame_id: "node1_radarinterface_radarscan"
range: 2.03248763084
angle: -0.0323294475675
elev: 0.258480787277
doppler: 0.0
snr: 141
noise: 395
frame_num: 2200
point_id: 0
x: -0.0635152384639
y: 1.96394050121
z: 0.519528448582
doppler_bin: 32
target_idx: 18
posX: -0.0204136557877
posY: 2.09842681885
posZ: 0.617537617683
velX: -0.103791862726
velY: 0.0763085484505
velZ: -0.0681331604719
accX: 0.0
accY: 0.0
accZ: 0.0
---
header: 
  seq: 19286
  stamp: 
    secs: 1596615286
    nsecs:  30573250
  frame_id: "node1_radarinterface_radarscan"
range: 2.03248763084
angle: -0.0321607887745
elev: 0.23784647882
doppler: 0.0795030742884
snr: 241
noise: 400
frame_num: 2200
point_id: 5
x: -0.0635152310133
y: 1.97424685955
z: 0.478874981403
doppler_bin: 33
target_idx: 18
posX: -0.0204136557877
posY: 2.09842681885
posZ: 0.617537617683
velX: -0.103791862726
velY: 0.0763085484505
velZ: -0.0681331604719
accX: 0.0
accY: 0.0
accZ: 0.0
---
header: 
  seq: 19287
  stamp: 
    secs: 1596615286
    nsecs:  30589424
  frame_id: "node1_radarinterface_radarscan"
range: 2.18883275986
angle: -0.0317001491785
elev: 0.167738184333
doppler: 0.0795030742884
snr: 208
noise: 404
frame_num: 2200
point_id: 7
x: -0.0684010237455
y: 2.15702795982
z: 0.365431547165
doppler_bin: 33
target_idx: 18
posX: -0.0204136557877
posY: 2.09842681885
posZ: 0.617537617683
velX: -0.103791862726
velY: 0.0763085484505
velZ: -0.0681331604719
accX: 0.0
accY: 0.0
accZ: 0.0
---
header: 
  seq: 19288
  stamp: 
    secs: 1596615286
    nsecs:  30602773
  frame_id: "node1_radarinterface_radarscan"
range: 2.26700544357
angle: 0.0343614183366
elev: 0.428405553102
doppler: 0.0795030742884
snr: 116
noise: 409
frame_num: 2200
point_id: 8
x: 0.0708439201117
y: 2.06091713905
z: 0.941761612892
doppler_bin: 33
target_idx: 18
posX: -0.0204136557877
posY: 2.09842681885
posZ: 0.617537617683
velX: -0.103791862726
velY: 0.0763085484505
velZ: -0.0681331604719
accX: 0.0
accY: 0.0
accZ: 0.0
---
header: 
  seq: 19289
  stamp: 
    secs: 1596615286
    nsecs:  30614973
  frame_id: "node1_radarinterface_radarscan"
range: 2.34517812729
angle: -0.0335914120078
elev: 0.375096380711
doppler: 0.0795030742884
snr: 122
noise: 434
frame_num: 2200
point_id: 9
x: -0.0732868239284
y: 2.1808924675
z: 0.859184622765
doppler_bin: 33
target_idx: 18
posX: -0.0204136557877
posY: 2.09842681885
posZ: 0.617537617683
velX: -0.103791862726
velY: 0.0763085484505
velZ: -0.0681331604719
accX: 0.0
accY: 0.0
accZ: 0.0
---
header: 
  seq: 19290
  stamp: 
    secs: 1596615286
    nsecs:  30628699
  frame_id: "node1_radarinterface_radarscan"
range: 2.11066031456
angle: -0.0322578400373
elev: 0.249950170517
doppler: 0.159006148577
snr: 195
noise: 375
frame_num: 2200
point_id: 11
x: -0.06595813483
y: 2.04400730133
z: 0.522083818913
doppler_bin: 34
target_idx: 18
posX: -0.0204136557877
posY: 2.09842681885
posZ: 0.617537617683
velX: -0.103791862726
velY: 0.0763085484505
velZ: -0.0681331604719
accX: 0.0
accY: 0.0
accZ: 0.0
---
header: 
  seq: 19291
  stamp: 
    secs: 1596615286
    nsecs: 225467266
  frame_id: "node1_radarinterface_radarscan"
range: 2.11066031456
angle: 0.0
elev: 0.114332102239
doppler: 0.0795030742884
snr: 114
noise: 397
frame_num: 2201
point_id: 0
x: 0.0
y: 2.09688019753
z: 0.240790829062
doppler_bin: 33
target_idx: 18
posX: -0.0147648453712
posY: 2.11235547066
posZ: 0.580690205097
velX: -0.0570523068309
velY: 0.0503862760961
velZ: -0.132704809308
accX: 0.0
accY: 0.0
accZ: 0.0
---
header: 
  seq: 19292
  stamp: 
    secs: 1596615286
    nsecs: 225580842
  frame_id: "node1_radarinterface_radarscan"
range: 2.18883275986
angle: 0.0
elev: 0.28959980607
doppler: -0.0795030742884
snr: 175
noise: 379
frame_num: 2201
point_id: 5
x: 0.0
y: 2.0976858139
z: 0.625062167645
doppler_bin: 31
target_idx: 18
posX: -0.0147648453712
posY: 2.11235547066
posZ: 0.580690205097
velX: -0.0570523068309
velY: 0.0503862760961
velZ: -0.132704809308
accX: 0.0
accY: 0.0
accZ: 0.0
---
header: 
  seq: 19293
  stamp: 
    secs: 1596615286
    nsecs: 225612800
  frame_id: "node1_radarinterface_radarscan"
range: 2.34517812729
angle: 0.0348762981594
elev: 0.459654957056
doppler: -0.0795030742884
snr: 153
noise: 379
frame_num: 2201
point_id: 7
x: 0.0732868090272
y: 2.10048365593
z: 1.04041230679
doppler_bin: 31
target_idx: 18
posX: -0.0147648453712
posY: 2.11235547066
posZ: 0.580690205097
velX: -0.0570523068309
velY: 0.0503862760961
velZ: -0.132704809308
accX: 0.0
accY: 0.0
accZ: 0.0
---
header: 
  seq: 19294
  stamp: 
    secs: 1596615286
    nsecs: 328412629
  frame_id: "node1_radarinterface_radarscan"
range: 2.18883275986
angle: -0.0315954238176
elev: 0.14688411355
doppler: 0.0795030742884
snr: 181
noise: 405
frame_num: 2202
point_id: 3
x: -0.0684010237455
y: 2.16418242455
z: 0.320349931717
doppler_bin: 33
target_idx: 18
posX: -0.0376086458564
posY: 2.13245916367
posZ: 0.486180692911
velX: -0.127386242151
velY: 0.0814931318164
velZ: -0.367595613003
accX: 0.0
accY: 0.0
accZ: 0.0
---
header: 
  seq: 19295
  stamp: 
    secs: 1596615286
    nsecs: 328660065
  frame_id: "node1_radarinterface_radarscan"
range: 1.95431506634
angle: -0.0322312787175
elev: 0.246702373028
doppler: -0.0795030742884
snr: 115
noise: 400
frame_num: 2202
point_id: 5
x: -0.061072345823
y: 1.89415991306
z: 0.47725841403
doppler_bin: 31
target_idx: 18
posX: -0.0376086458564
posY: 2.13245916367
posZ: 0.486180692911
velX: -0.127386242151
velY: 0.0814931318164
velZ: -0.367595613003
accX: 0.0
accY: 0.0
accZ: 0.0
---
header: 
  seq: 19296
  stamp: 
    secs: 1596615286
    nsecs: 328706007
  frame_id: "node1_radarinterface_radarscan"
range: 2.11066031456
angle: -0.031664121896
elev: 0.160881876945
doppler: -0.0795030742884
snr: 219
noise: 387
frame_num: 2202
point_id: 7
x: -0.06595813483
y: 2.0823597908
z: 0.338104039431
doppler_bin: 31
target_idx: 18
posX: -0.0376086458564
posY: 2.13245916367
posZ: 0.486180692911
velX: -0.127386242151
velY: 0.0814931318164
velZ: -0.367595613003
accX: 0.0
accY: 0.0
accZ: 0.0
---
header: 
  seq: 19297
  stamp: 
    secs: 1596615286
    nsecs: 328747824
  frame_id: "node1_radarinterface_radarscan"
range: 2.18883275986
angle: -0.0314425528049
elev: 0.109234660864
doppler: -0.0795030742884
snr: 203
noise: 387
frame_num: 2202
point_id: 8
x: -0.0684010237455
y: 2.17471146584
z: 0.23862119019
doppler_bin: 31
target_idx: 18
posX: -0.0376086458564
posY: 2.13245916367
posZ: 0.486180692911
velX: -0.127386242151
velY: 0.0814931318164
velZ: -0.367595613003
accX: 0.0
accY: 0.0
accZ: 0.0
---
header: 
  seq: 19298
  stamp: 
    secs: 1596615286
    nsecs: 328791938
  frame_id: "node1_radarinterface_radarscan"
range: 2.26700544357
angle: 0.0
elev: 0.0705738440156
doppler: -0.0795030742884
snr: 158
noise: 390
frame_num: 2202
point_id: 9
x: 0.0
y: 2.26136207581
z: 0.159858509898
doppler_bin: 31
target_idx: 18
posX: -0.0376086458564
posY: 2.13245916367
posZ: 0.486180692911
velX: -0.127386242151
velY: 0.0814931318164
velZ: -0.367595613003
accX: 0.0
accY: 0.0
accZ: 0.0
---
header: 
  seq: 19299
  stamp: 
    secs: 1596615286
    nsecs: 428871885
  frame_id: "node1_radarinterface_radarscan"
range: 2.11066031456
angle: -0.0316301137209
elev: 0.154118016362
doppler: 0.0
snr: 141
noise: 387
frame_num: 2203
point_id: 3
x: -0.06595813483
y: 2.08459997177
z: 0.324004560709
doppler_bin: 32
target_idx: 18
posX: -0.0437872037292
posY: 2.15061712265
posZ: 0.377316981554
velX: -0.124780066311
velY: 0.0883800834417
velZ: -0.596670866013
accX: 0.0
accY: 0.0
accZ: 0.0
---
header: 
  seq: 19300
  stamp: 
    secs: 1596615286
    nsecs: 429006714
  frame_id: "node1_radarinterface_radarscan"
range: 2.03248763084
angle: -0.031854365021
elev: 0.194247364998
doppler: 0.0795030742884
snr: 174
noise: 440
frame_num: 2203
point_id: 9
x: -0.0635152384639
y: 1.9932513237
z: 0.39232724905
doppler_bin: 33
target_idx: 18
posX: -0.0437872037292
posY: 2.15061712265
posZ: 0.377316981554
velX: -0.124780066311
velY: 0.0883800834417
velZ: -0.596670866013
accX: 0.0
accY: 0.0
accZ: 0.0
---
header: 
  seq: 19301
  stamp: 
    secs: 1596615286
    nsecs: 429117966
  frame_id: "node1_radarinterface_radarscan"
range: 2.18883275986
angle: -0.0316031612456
elev: 0.148529797792
doppler: 0.0795030742884
snr: 204
noise: 423
frame_num: 2203
point_id: 11
x: -0.0684010237455
y: 2.16365218163
z: 0.323912829161
doppler_bin: 33
target_idx: 18
posX: -0.0437872037292
posY: 2.15061712265
posZ: 0.377316981554
velX: -0.124780066311
velY: 0.0883800834417
velZ: -0.596670866013
accX: 0.0
accY: 0.0
accZ: 0.0
---
header: 
  seq: 19302
  stamp: 
    secs: 1596615286
    nsecs: 429148524
  frame_id: "node1_radarinterface_radarscan"
range: 2.11066031456
angle: -0.0314923562109
elev: 0.122809946537
doppler: -0.159006148577
snr: 180
noise: 384
frame_num: 2203
point_id: 17
x: -0.06595813483
y: 2.09372472763
z: 0.258558988571
doppler_bin: 30
target_idx: 18
posX: -0.0437872037292
posY: 2.15061712265
posZ: 0.377316981554
velX: -0.124780066311
velY: 0.0883800834417
velZ: -0.596670866013
accX: 0.0
accY: 0.0
accZ: 0.0
---
header: 
  seq: 19303
  stamp: 
    secs: 1596615286
    nsecs: 429175728
  frame_id: "node1_radarinterface_radarscan"
range: 2.18883275986
angle: 0.0
elev: 0.0917159989476
doppler: -0.159006148577
snr: 174
noise: 382
frame_num: 2203
point_id: 18
x: 0.0
y: 2.17963314056
z: 0.200469657779
doppler_bin: 30
target_idx: 18
posX: -0.0437872037292
posY: 2.15061712265
posZ: 0.377316981554
velX: -0.124780066311
velY: 0.0883800834417
velZ: -0.596670866013
accX: 0.0
accY: 0.0
accZ: 0.0
---
header: 
  seq: 19304
  stamp: 
    secs: 1596615286
    nsecs: 429201381
  frame_id: "node1_radarinterface_radarscan"
range: 2.03248763084
angle: -0.0316745564342
elev: 0.16289870441
doppler: -0.0795030742884
snr: 213
noise: 421
frame_num: 2203
point_id: 23
x: -0.0635152384639
y: 2.00457429886
z: 0.329627245665
doppler_bin: 31
target_idx: 18
posX: -0.0437872037292
posY: 2.15061712265
posZ: 0.377316981554
velX: -0.124780066311
velY: 0.0883800834417
velZ: -0.596670866013
accX: 0.0
accY: 0.0
accZ: 0.0
---
header: 
  seq: 19305
  stamp: 
    secs: 1596615286
    nsecs: 429254456
  frame_id: "node1_radarinterface_radarscan"
range: 2.18883275986
angle: 0.0
elev: 0.109637185931
doppler: -0.0795030742884
snr: 242
noise: 401
frame_num: 2203
point_id: 25
x: 0.0
y: 2.17569065094
z: 0.239496991038
doppler_bin: 31
target_idx: 18
posX: -0.0437872037292
posY: 2.15061712265
posZ: 0.377316981554
velX: -0.124780066311
velY: 0.0883800834417
velZ: -0.596670866013
accX: 0.0
accY: 0.0
accZ: 0.0
---
header: 
  seq: 19306
  stamp: 
    secs: 1596615286
    nsecs: 429281830
  frame_id: "node1_radarinterface_radarscan"
range: 2.26700544357
angle: 0.0
elev: 0.0954202562571
doppler: -0.0795030742884
snr: 217
noise: 404
frame_num: 2203
point_id: 26
x: 0.0
y: 2.25669264793
z: 0.215990126133
doppler_bin: 31
target_idx: 18
posX: -0.0437872037292
posY: 2.15061712265
posZ: 0.377316981554
velX: -0.124780066311
velY: 0.0883800834417
velZ: -0.596670866013
accX: 0.0
accY: 0.0
accZ: 0.0
---
header: 
  seq: 19307
  stamp: 
    secs: 1596615286
    nsecs: 530544321
  frame_id: "node1_radarinterface_radarscan"
range: 2.03248763084
angle: -0.0320634357631
elev: 0.224985226989
doppler: 0.0795030742884
snr: 151
noise: 451
frame_num: 2204
point_id: 7
x: -0.0635152384639
y: 1.98024523258
z: 0.453431665897
doppler_bin: 33
target_idx: 18
posX: -0.0571463406086
posY: 2.15683603287
posZ: 0.316935747862
velX: -0.144270434976
velY: 0.0762172788382
velZ: -0.660393476486
accX: 0.0
accY: 0.0
accZ: 0.0
---
header: 
  seq: 19308
  stamp: 
    secs: 1596615286
    nsecs: 530599160
  frame_id: "node1_radarinterface_radarscan"
range: 2.11066031456
angle: -0.0317867733538
elev: 0.183128163218
doppler: 0.0795030742884
snr: 181
noise: 439
frame_num: 2204
point_id: 8
x: -0.06595813483
y: 2.07431936264
z: 0.384364575148
doppler_bin: 33
target_idx: 18
posX: -0.0571463406086
posY: 2.15683603287
posZ: 0.316935747862
velX: -0.144270434976
velY: 0.0762172788382
velZ: -0.660393476486
accX: 0.0
accY: 0.0
accZ: 0.0
---
header: 
  seq: 19309
  stamp: 
    secs: 1596615286
    nsecs: 530614592
  frame_id: "node1_radarinterface_radarscan"
range: 2.18883275986
angle: -0.0316211804748
elev: 0.152289748192
doppler: 0.0795030742884
snr: 180
noise: 438
frame_num: 2204
point_id: 9
x: -0.068401016295
y: 2.16241836548
z: 0.332049816847
doppler_bin: 33
target_idx: 18
posX: -0.0571463406086
posY: 2.15683603287
posZ: 0.316935747862
velX: -0.144270434976
velY: 0.0762172788382
velZ: -0.660393476486
accX: 0.0
accY: 0.0
accZ: 0.0
---
header: 
  seq: 19310
  stamp: 
    secs: 1596615286
    nsecs: 530640597
  frame_id: "node1_radarinterface_radarscan"
range: 2.18883275986
angle: -0.031488314271
elev: 0.121765673161
doppler: -0.0795030742884
snr: 225
noise: 410
frame_num: 2204
point_id: 23
x: -0.0684010237455
y: 2.1715490818
z: 0.265866547823
doppler_bin: 31
target_idx: 18
posX: -0.0571463406086
posY: 2.15683603287
posZ: 0.316935747862
velX: -0.144270434976
velY: 0.0762172788382
velZ: -0.660393476486
accX: 0.0
accY: 0.0
accZ: 0.0
---
header: 
  seq: 19311
  stamp: 
    secs: 1596615286
    nsecs: 530646491
  frame_id: "node1_radarinterface_radarscan"
range: 2.34517812729
angle: 0.0313552320004
elev: 0.0799317806959
doppler: -0.0795030742884
snr: 133
noise: 416
frame_num: 2204
point_id: 25
x: 0.0732868164778
y: 2.33654141426
z: 0.187254711986
doppler_bin: 31
target_idx: 18
posX: -0.0571463406086
posY: 2.15683603287
posZ: 0.316935747862
velX: -0.144270434976
velY: 0.0762172788382
velZ: -0.660393476486
accX: 0.0
accY: 0.0
accZ: 0.0
---
header: 
  seq: 19312
  stamp: 
    secs: 1596615286
    nsecs: 635357999
  frame_id: "node1_radarinterface_radarscan"
range: 2.03248763084
angle: -0.032007496804
elev: 0.217219427228
doppler: -0.0795030742884
snr: 180
noise: 427
frame_num: 2205
point_id: 9
x: -0.0635152384639
y: 1.98370850086
z: 0.438032031059
doppler_bin: 31
target_idx: 18
posX: -0.0584274455905
posY: 2.1505715847
posZ: 0.318888992071
velX: -0.119115754962
velY: 0.0602772086859
velZ: -0.548233091831
accX: 0.0
accY: 0.0
accZ: 0.0
---
header: 
  seq: 19313
  stamp: 
    secs: 1596615286
    nsecs: 635451346
  frame_id: "node1_radarinterface_radarscan"
range: 2.11066031456
angle: -0.0317715965211
elev: 0.180531606078
doppler: -0.0795030742884
snr: 189
noise: 417
frame_num: 2205
point_id: 10
x: -0.0659581273794
y: 2.07531070709
z: 0.378974467516
doppler_bin: 31
target_idx: 18
posX: -0.0584274455905
posY: 2.1505715847
posZ: 0.318888992071
velX: -0.119115754962
velY: 0.0602772086859
velZ: -0.548233091831
accX: 0.0
accY: 0.0
accZ: 0.0
---
header: 
  seq: 19314
  stamp: 
    secs: 1596615286
    nsecs: 635470373
  frame_id: "node1_radarinterface_radarscan"
range: 2.26700544357
angle: 0.0329448133707
elev: 0.321610331535
doppler: -0.0795030742884
snr: 127
noise: 413
frame_num: 2205
point_id: 11
x: 0.0708439201117
y: 2.14960360527
z: 0.716588497162
doppler_bin: 31
target_idx: 18
posX: -0.0584274455905
posY: 2.1505715847
posZ: 0.318888992071
velX: -0.119115754962
velY: 0.0602772086859
velZ: -0.548233091831
accX: 0.0
accY: 0.0
accZ: 0.0
---
header: 
  seq: 19315
  stamp: 
    secs: 1596615286
    nsecs: 725604152
  frame_id: "node1_radarinterface_radarscan"
range: 2.11066031456
angle: -0.0328699611127
elev: 0.314706504345
doppler: 0.0795030742884
snr: 152
noise: 394
frame_num: 2206
point_id: 0
x: -0.06595813483
y: 2.0059158802
z: 0.653328299522
doppler_bin: 33
target_idx: 18
posX: -0.070459201932
posY: 2.1471683979
posZ: 0.36685359478
velX: -0.131489023566
velY: 0.0512908920646
velZ: -0.326243937016
accX: 0.0
accY: 0.0
accZ: 0.0
---
header: 
  seq: 19316
  stamp: 
    secs: 1596615286
    nsecs: 725763640
  frame_id: "node1_radarinterface_radarscan"
range: 2.34517812729
angle: -0.03156613186
elev: 0.140475183725
doppler: -0.0795030742884
snr: 139
noise: 389
frame_num: 2206
point_id: 6
x: -0.0732868164778
y: 2.32092022896
z: 0.328356921673
doppler_bin: 31
target_idx: 18
posX: -0.070459201932
posY: 2.1471683979
posZ: 0.36685359478
velX: -0.131489023566
velY: 0.0512908920646
velZ: -0.326243937016
accX: 0.0
accY: 0.0
accZ: 0.0
---
header: 
  seq: 19317
  stamp: 
    secs: 1596615286
    nsecs: 830252472
  frame_id: "node1_radarinterface_radarscan"
range: 2.03248763084
angle: -0.0317456945777
elev: 0.176006153226
doppler: 0.0795030742884
snr: 137
noise: 405
frame_num: 2207
point_id: 0
x: -0.0635152384639
y: 2.00007915497
z: 0.355886220932
doppler_bin: 33
target_idx: 18
posX: -0.0766305848956
posY: 2.14120292664
posZ: 0.400137096643
velX: -0.120329424739
velY: 0.0325969830155
velZ: -0.170135051012
accX: 0.0
accY: 0.0
accZ: 0.0
---
header: 
  seq: 19318
  stamp: 
    secs: 1596615286
    nsecs: 830297532
  frame_id: "node1_radarinterface_radarscan"
range: 2.18883275986
angle: -0.0321359410882
elev: 0.234636723995
doppler: -0.0795030742884
snr: 219
noise: 374
frame_num: 2207
point_id: 6
x: -0.0684010237455
y: 2.12775707245
z: 0.508881032467
doppler_bin: 31
target_idx: 18
posX: -0.0766305848956
posY: 2.14120292664
posZ: 0.400137096643
velX: -0.120329424739
velY: 0.0325969830155
velZ: -0.170135051012
accX: 0.0
accY: 0.0
accZ: 0.0
---
header: 
  seq: 19319
  stamp: 
    secs: 1596615286
    nsecs: 929069304
  frame_id: "node1_radarinterface_radarscan"
range: 2.03248763084
angle: -0.0321170315146
elev: 0.232161700726
doppler: 0.0795030742884
snr: 142
noise: 407
frame_num: 2208
point_id: 1
x: -0.0635152384639
y: 1.97693860531
z: 0.467638343573
doppler_bin: 33
target_idx: 18
posX: -0.0592171736062
posY: 2.12532305717
posZ: 0.498413801193
velX: -0.0337430760264
velY: -0.016332719475
velZ: 0.126706838608
accX: 0.0
accY: 0.0
accZ: 0.0
---
header: 
  seq: 19320
  stamp: 
    secs: 1596615286
    nsecs: 929164922
  frame_id: "node1_radarinterface_radarscan"
range: 2.11066031456
angle: -0.0321158953011
elev: 0.232012316585
doppler: -0.0795030742884
snr: 209
noise: 385
frame_num: 2208
point_id: 7
x: -0.0659581273794
y: 2.05304718018
z: 0.485317617655
doppler_bin: 31
target_idx: 18
posX: -0.0592171736062
posY: 2.12532305717
posZ: 0.498413801193
velX: -0.0337430760264
velY: -0.016332719475
velZ: 0.126706838608
accX: 0.0
accY: 0.0
accZ: 0.0
---
header: 
  seq: 19321
  stamp: 
    secs: 1596615286
    nsecs: 929198208
  frame_id: "node1_radarinterface_radarscan"
range: 2.18883275986
angle: 0.0
elev: 0.290834337473
doppler: -0.0795030742884
snr: 215
noise: 385
frame_num: 2208
point_id: 8
x: 0.0
y: 2.09691262245
z: 0.627651333809
doppler_bin: 31
target_idx: 18
posX: -0.0592171736062
posY: 2.12532305717
posZ: 0.498413801193
velX: -0.0337430760264
velY: -0.016332719475
velZ: 0.126706838608
accX: 0.0
accY: 0.0
accZ: 0.0
---
header: 
  seq: 19322
  stamp: 
    secs: 1596615287
    nsecs:  27631593
  frame_id: "node1_radarinterface_radarscan"
range: 2.03248763084
angle: 0.0
elev: 0.120440661907
doppler: -0.0795030742884
snr: 130
noise: 402
frame_num: 2209
point_id: 12
x: 0.0
y: 2.01776385307
z: 0.244202762842
doppler_bin: 31
target_idx: 18
posX: -0.0561948306859
posY: 2.12905240059
posZ: 0.453753471375
velX: -0.00625270791352
velY: -0.0209721717983
velZ: 0.0191387683153
accX: 0.0
accY: 0.0
accZ: 0.0
---
header: 
  seq: 19323
  stamp: 
    secs: 1596615287
    nsecs:  27747739
  frame_id: "node1_radarinterface_radarscan"
range: 2.11066031456
angle: 0.0
elev: 0.156783998013
doppler: -0.0795030742884
snr: 178
noise: 395
frame_num: 2209
point_id: 13
x: 0.0
y: 2.08477210999
z: 0.329563707113
doppler_bin: 31
target_idx: 18
posX: -0.0561948306859
posY: 2.12905240059
posZ: 0.453753471375
velX: -0.00625270791352
velY: -0.0209721717983
velZ: 0.0191387683153
accX: 0.0
accY: 0.0
accZ: 0.0
---
header: 
  seq: 19324
  stamp: 
    secs: 1596615287
    nsecs: 128390746
  frame_id: "node1_radarinterface_radarscan"
range: 2.03248763084
angle: -0.0315427742898
elev: 0.135139837861
doppler: 0.0795030742884
snr: 134
noise: 436
frame_num: 2210
point_id: 7
x: -0.0635152384639
y: 2.0129544735
z: 0.273834764957
doppler_bin: 33
target_idx: 18
posX: -0.0365131944418
posY: 2.11613845825
posZ: 0.506267130375
velX: 0.0688259974122
velY: -0.0518085584044
velZ: 0.173385843635
accX: 0.0
accY: 0.0
accZ: 0.0
---
header: 
  seq: 19325
  stamp: 
    secs: 1596615287
    nsecs: 128478672
  frame_id: "node1_radarinterface_radarscan"
range: 2.11066031456
angle: 0.0
elev: 0.177007779479
doppler: 0.0795030742884
snr: 150
noise: 428
frame_num: 2210
point_id: 8
x: 0.0
y: 2.07768130302
z: 0.371655404568
doppler_bin: 33
target_idx: 18
posX: -0.0365131944418
posY: 2.11613845825
posZ: 0.506267130375
velX: 0.0688259974122
velY: -0.0518085584044
velZ: 0.173385843635
accX: 0.0
accY: 0.0
accZ: 0.0
---
header: 
  seq: 19326
  stamp: 
    secs: 1596615287
    nsecs: 128525490
  frame_id: "node1_radarinterface_radarscan"
range: 2.26700544357
angle: -0.035376727581
elev: 0.487442940474
doppler: 0.0795030742884
snr: 115
noise: 420
frame_num: 2210
point_id: 10
x: -0.0708439201117
y: 2.00172185898
z: 1.06179320812
doppler_bin: 33
target_idx: 18
posX: -0.0365131944418
posY: 2.11613845825
posZ: 0.506267130375
velX: 0.0688259974122
velY: -0.0518085584044
velZ: 0.173385843635
accX: 0.0
accY: 0.0
accZ: 0.0
---
header: 
  seq: 19327
  stamp: 
    secs: 1596615287
    nsecs: 227838055
  frame_id: "node1_radarinterface_radarscan"
range: 2.03248763084
angle: -0.0321295149624
elev: 0.23379907012
doppler: -0.0795030742884
snr: 121
noise: 425
frame_num: 2211
point_id: 18
x: -0.0635152384639
y: 1.9761698246
z: 0.4708763659
doppler_bin: 31
target_idx: 18
posX: -0.0397411435843
posY: 2.10672807693
posZ: 0.513570725918
velX: 0.0532219149172
velY: -0.0817504301667
velZ: 0.18317347765
accX: 0.0
accY: 0.0
accZ: 0.0
---
header: 
  seq: 19328
  stamp: 
    secs: 1596615287
    nsecs: 227919607
  frame_id: "node1_radarinterface_radarscan"
range: 2.11066031456
angle: -0.0319559834898
elev: 0.209792584181
doppler: -0.0795030742884
snr: 137
noise: 420
frame_num: 2211
point_id: 19
x: -0.0659581422806
y: 2.06332826614
z: 0.439559847116
doppler_bin: 31
target_idx: 18
posX: -0.0397411435843
posY: 2.10672807693
posZ: 0.513570725918
velX: 0.0532219149172
velY: -0.0817504301667
velZ: 0.18317347765
accX: 0.0
accY: 0.0
accZ: 0.0
---
header: 
  seq: 19329
  stamp: 
    secs: 1596615287
    nsecs: 227933977
  frame_id: "node1_radarinterface_radarscan"
range: 2.18883275986
angle: -0.0322404392064
elev: 0.247828021646
doppler: -0.0795030742884
snr: 128
noise: 425
frame_num: 2211
point_id: 20
x: -0.0684010237455
y: 2.12085580826
z: 0.536918342113
doppler_bin: 31
target_idx: 18
posX: -0.0397411435843
posY: 2.10672807693
posZ: 0.513570725918
velX: 0.0532219149172
velY: -0.0817504301667
velZ: 0.18317347765
accX: 0.0
accY: 0.0
accZ: 0.0
---
header: 
  seq: 19330
  stamp: 
    secs: 1596615287
    nsecs: 428453553
  frame_id: "node1_radarinterface_radarscan"
range: 2.03248763084
angle: -0.0318750441074
elev: 0.197517260909
doppler: 0.0795030742884
snr: 174
noise: 454
frame_num: 2213
point_id: 3
x: -0.0635152310133
y: 1.99195718765
z: 0.398846179247
doppler_bin: 33
target_idx: 18
posX: -0.0682551860809
posY: 2.12461304665
posZ: 0.398843616247
velX: -0.0399075001478
velY: -0.00845395773649
velZ: -0.100385144353
accX: 0.0
accY: 0.0
accZ: 0.0
---
header: 
  seq: 19331
  stamp: 
    secs: 1596615287
    nsecs: 428612259
  frame_id: "node1_radarinterface_radarscan"
range: 2.18883275986
angle: -0.0625781714916
elev: 0.0345579758286
doppler: 0.0795030742884
snr: 158
noise: 424
frame_num: 2213
point_id: 5
x: -0.136802047491
y: 2.18324422836
z: 0.0756265744567
doppler_bin: 33
target_idx: 18
posX: -0.0682551860809
posY: 2.12461304665
posZ: 0.398843616247
velX: -0.0399075001478
velY: -0.00845395773649
velZ: -0.100385144353
accX: 0.0
accY: 0.0
accZ: 0.0
---
header: 
  seq: 19332
  stamp: 
    secs: 1596615287
    nsecs: 428647718
  frame_id: "node1_radarinterface_radarscan"
range: 2.03248763084
angle: -0.0317110307515
elev: 0.169752046466
doppler: -0.0795030742884
snr: 154
noise: 466
frame_num: 2213
point_id: 18
x: -0.0635152384639
y: 2.00226688385
z: 0.343364328146
doppler_bin: 31
target_idx: 18
posX: -0.0682551860809
posY: 2.12461304665
posZ: 0.398843616247
velX: -0.0399075001478
velY: -0.00845395773649
velZ: -0.100385144353
accX: 0.0
accY: 0.0
accZ: 0.0
---
header: 
  seq: 19333
  stamp: 
    secs: 1596615287
    nsecs: 428712755
  frame_id: "node1_radarinterface_radarscan"
range: 2.11066031456
angle: -0.031511053443
elev: 0.127525180578
doppler: -0.0795030742884
snr: 167
noise: 451
frame_num: 2213
point_id: 19
x: -0.0659581422806
y: 2.09248185158
z: 0.268433392048
doppler_bin: 31
target_idx: 18
posX: -0.0682551860809
posY: 2.12461304665
posZ: 0.398843616247
velX: -0.0399075001478
velY: -0.00845395773649
velZ: -0.100385144353
accX: 0.0
accY: 0.0
accZ: 0.0
---
header: 
  seq: 19334
  stamp: 
    secs: 1596615287
    nsecs: 428740942
  frame_id: "node1_radarinterface_radarscan"
range: 2.18883275986
angle: -0.0625409185886
elev: -0.00222220853902
doppler: -0.0795030742884
snr: 121
noise: 444
frame_num: 2213
point_id: 20
x: -0.136802047491
y: 2.18454790115
z: -0.00486403889954
doppler_bin: 31
target_idx: 18
posX: -0.0682551860809
posY: 2.12461304665
posZ: 0.398843616247
velX: -0.0399075001478
velY: -0.00845395773649
velZ: -0.100385144353
accX: 0.0
accY: 0.0
accZ: 0.0
---
header: 
  seq: 19335
  stamp: 
    secs: 1596615287
    nsecs: 527372063
  frame_id: "node1_radarinterface_radarscan"
range: 2.03248763084
angle: -0.0318911150098
elev: 0.200018763542
doppler: 0.0795030742884
snr: 221
noise: 434
frame_num: 2214
point_id: 7
x: -0.0635152384639
y: 1.99095273018
z: 0.403830319643
doppler_bin: 33
target_idx: 18
posX: -0.0502397194505
posY: 2.12624669075
posZ: 0.367992907763
velX: 0.0266001559794
velY: 0.0362801998854
velZ: -0.142616942525
accX: 0.0
accY: 0.0
accZ: 0.0
---
header: 
  seq: 19336
  stamp: 
    secs: 1596615287
    nsecs: 527417681
  frame_id: "node1_radarinterface_radarscan"
range: 2.11066031456
angle: -0.0318273119628
elev: 0.189879953861
doppler: 0.0795030742884
snr: 236
noise: 421
frame_num: 2214
point_id: 8
x: -0.06595813483
y: 2.07167553902
z: 0.398368149996
doppler_bin: 33
target_idx: 18
posX: -0.0502397194505
posY: 2.12624669075
posZ: 0.367992907763
velX: 0.0266001559794
velY: 0.0362801998854
velZ: -0.142616942525
accX: 0.0
accY: 0.0
accZ: 0.0
---
header: 
  seq: 19337
  stamp: 
    secs: 1596615287
    nsecs: 527444315
  frame_id: "node1_radarinterface_radarscan"
range: 2.26700544357
angle: 0.0315033867955
elev: 0.125613704324
doppler: 0.0795030742884
snr: 122
noise: 420
frame_num: 2214
point_id: 10
x: 0.0708439201117
y: 2.2480275631
z: 0.284018665552
doppler_bin: 33
target_idx: 18
posX: -0.0502397194505
posY: 2.12624669075
posZ: 0.367992907763
velX: 0.0266001559794
velY: 0.0362801998854
velZ: -0.142616942525
accX: 0.0
accY: 0.0
accZ: 0.0
---
header: 
  seq: 19338
  stamp: 
    secs: 1596615287
    nsecs: 527457844
  frame_id: "node1_radarinterface_radarscan"
range: 2.03248763084
angle: -0.0318787321448
elev: 0.198094233871
doppler: 0.159006148577
snr: 184
noise: 381
frame_num: 2214
point_id: 14
x: -0.0635152384639
y: 1.99172663689
z: 0.399995982647
doppler_bin: 34
target_idx: 18
posX: -0.0502397194505
posY: 2.12624669075
posZ: 0.367992907763
velX: 0.0266001559794
velY: 0.0362801998854
velZ: -0.142616942525
accX: 0.0
accY: 0.0
accZ: 0.0
---
header: 
  seq: 19339
  stamp: 
    secs: 1596615287
    nsecs: 527483368
  frame_id: "node1_radarinterface_radarscan"
range: 2.11066031456
angle: -0.0319043323398
elev: 0.202051505446
doppler: 0.159006148577
snr: 195
noise: 372
frame_num: 2214
point_id: 15
x: -0.06595813483
y: 2.0666706562
z: 0.423566311598
doppler_bin: 34
target_idx: 18
posX: -0.0502397194505
posY: 2.12624669075
posZ: 0.367992907763
velX: 0.0266001559794
velY: 0.0362801998854
velZ: -0.142616942525
accX: 0.0
accY: 0.0
accZ: 0.0
---
header: 
  seq: 19340
  stamp: 
    secs: 1596615287
    nsecs: 527492054
  frame_id: "node1_radarinterface_radarscan"
range: 2.26700544357
angle: 0.0
elev: 0.0585031285882
doppler: -0.0795030742884
snr: 117
noise: 427
frame_num: 2214
point_id: 25
x: 0.0
y: 2.26312708855
z: 0.132551267743
doppler_bin: 31
target_idx: 18
posX: -0.0502397194505
posY: 2.12624669075
posZ: 0.367992907763
velX: 0.0266001559794
velY: 0.0362801998854
velZ: -0.142616942525
accX: 0.0
accY: 0.0
accZ: 0.0
---
header: 
  seq: 19341
  stamp: 
    secs: 1596615287
    nsecs: 627973710
  frame_id: "node1_radarinterface_radarscan"
range: 2.03248763084
angle: -0.0317866392434
elev: 0.183105185628
doppler: 0.0
snr: 164
noise: 410
frame_num: 2215
point_id: 3
x: -0.0635152384639
y: 1.99750101566
z: 0.370082914829
doppler_bin: 32
target_idx: 18
posX: -0.0384932272136
posY: 2.11469864845
posZ: 0.379847437143
velX: 0.0630570575595
velY: 0.0408134534955
velZ: -0.0736359134316
accX: 0.0
accY: 0.0
accZ: 0.0
---
header: 
  seq: 19342
  stamp: 
    secs: 1596615287
    nsecs: 628041816
  frame_id: "node1_radarinterface_radarscan"
range: 1.95431506634
angle: -0.0319235101342
elev: 0.204962208867
doppler: 0.0795030742884
snr: 150
noise: 475
frame_num: 2215
point_id: 10
x: -0.061072345823
y: 1.91243374348
z: 0.397762060165
doppler_bin: 33
target_idx: 18
posX: -0.0384932272136
posY: 2.11469864845
posZ: 0.379847437143
velX: 0.0630570575595
velY: 0.0408134534955
velZ: -0.0736359134316
accX: 0.0
accY: 0.0
accZ: 0.0
---
header: 
  seq: 19343
  stamp: 
    secs: 1596615287
    nsecs: 628051856
  frame_id: "node1_radarinterface_radarscan"
range: 2.03248763084
angle: -0.0320726409554
elev: 0.22623513639
doppler: 0.159006148577
snr: 201
noise: 398
frame_num: 2215
point_id: 17
x: -0.0635152384639
y: 1.97967672348
z: 0.455907702446
doppler_bin: 34
target_idx: 18
posX: -0.0384932272136
posY: 2.11469864845
posZ: 0.379847437143
velX: 0.0630570575595
velY: 0.0408134534955
velZ: -0.0736359134316
accX: 0.0
accY: 0.0
accZ: 0.0
---
header: 
  seq: 19344
  stamp: 
    secs: 1596615287
    nsecs: 628066378
  frame_id: "node1_radarinterface_radarscan"
range: 2.11066031456
angle: -0.032071787864
elev: 0.22611990571
doppler: 0.159006148577
snr: 206
noise: 386
frame_num: 2215
point_id: 18
x: -0.06595813483
y: 2.05587267876
z: 0.473205596209
doppler_bin: 34
target_idx: 18
posX: -0.0384932272136
posY: 2.11469864845
posZ: 0.379847437143
velX: 0.0630570575595
velY: 0.0408134534955
velZ: -0.0736359134316
accX: 0.0
accY: 0.0
accZ: 0.0
---
header: 
  seq: 19345
  stamp: 
    secs: 1596615287
    nsecs: 628082189
  frame_id: "node1_radarinterface_radarscan"
range: 2.03248763084
angle: 0.0
elev: 0.175247639418
doppler: -0.0795030742884
snr: 184
noise: 476
frame_num: 2215
point_id: 26
x: 0.0
y: 2.00135684013
z: 0.354368269444
doppler_bin: 31
target_idx: 18
posX: -0.0384932272136
posY: 2.11469864845
posZ: 0.379847437143
velX: 0.0630570575595
velY: 0.0408134534955
velZ: -0.0736359134316
accX: 0.0
accY: 0.0
accZ: 0.0
---
header: 
  seq: 19346
  stamp: 
    secs: 1596615287
    nsecs: 628121463
  frame_id: "node1_radarinterface_radarscan"
range: 2.11066031456
angle: 0.0
elev: 0.186756744981
doppler: -0.0795030742884
snr: 197
noise: 456
frame_num: 2215
point_id: 27
x: 0.0
y: 2.07395935059
z: 0.391892671585
doppler_bin: 31
target_idx: 18
posX: -0.0384932272136
posY: 2.11469864845
posZ: 0.379847437143
velX: 0.0630570575595
velY: 0.0408134534955
velZ: -0.0736359134316
accX: 0.0
accY: 0.0
accZ: 0.0
---
header: 
  seq: 19347
  stamp: 
    secs: 1596615287
    nsecs: 628135972
  frame_id: "node1_radarinterface_radarscan"
range: 2.18883275986
angle: 0.0316200442612
elev: 0.152055457234
doppler: -0.0795030742884
snr: 142
noise: 447
frame_num: 2215
point_id: 28
x: 0.068401016295
y: 2.16249608994
z: 0.331542909145
doppler_bin: 31
target_idx: 18
posX: -0.0384932272136
posY: 2.11469864845
posZ: 0.379847437143
velX: 0.0630570575595
velY: 0.0408134534955
velZ: -0.0736359134316
accX: 0.0
accY: 0.0
accZ: 0.0
---
header: 
  seq: 19348
  stamp: 
    secs: 1596615287
    nsecs: 727834484
  frame_id: "node1_radarinterface_radarscan"
range: 2.03248763084
angle: -0.03214456141
elev: 0.235755860806
doppler: 0.0795030742884
snr: 203
noise: 450
frame_num: 2216
point_id: 5
x: -0.0635152310133
y: 1.97524416447
z: 0.474744409323
doppler_bin: 33
target_idx: 18
posX: -0.0544320084155
posY: 2.11244559288
posZ: 0.37340721488
velX: -0.00322124361992
velY: 0.0607708767056
velZ: -0.0611438788474
accX: 0.0
accY: 0.0
accZ: 0.0
---
header: 
  seq: 19349
  stamp: 
    secs: 1596615287
    nsecs: 727909419
  frame_id: "node1_radarinterface_radarscan"
range: 2.18883275986
angle: -0.0938884839416
elev: 0.00359232816845
doppler: 0.0795030742884
snr: 143
noise: 428
frame_num: 2216
point_id: 7
x: -0.205203086138
y: 2.17917847633
z: 0.00786298885942
doppler_bin: 33
target_idx: 18
posX: -0.0544320084155
posY: 2.11244559288
posZ: 0.37340721488
velX: -0.00322124361992
velY: 0.0607708767056
velZ: -0.0611438788474
accX: 0.0
accY: 0.0
accZ: 0.0
---
header: 
  seq: 19350
  stamp: 
    secs: 1596615287
    nsecs: 727926943
  frame_id: "node1_radarinterface_radarscan"
range: 2.26700544357
angle: -0.0627383068204
elev: -0.0793248340487
doppler: 0.0795030742884
snr: 130
noise: 427
frame_num: 2216
point_id: 8
x: -0.141687840223
y: 2.25543069839
z: -0.179641291499
doppler_bin: 33
target_idx: 18
posX: -0.0544320084155
posY: 2.11244559288
posZ: 0.37340721488
velX: -0.00322124361992
velY: 0.0607708767056
velZ: -0.0611438788474
accX: 0.0
accY: 0.0
accZ: 0.0
---
header: 
  seq: 19351
  stamp: 
    secs: 1596615287
    nsecs: 727945930
  frame_id: "node1_radarinterface_radarscan"
range: 2.11066031456
angle: -0.0320091024041
elev: 0.217446655035
doppler: 0.159006148577
snr: 151
noise: 395
frame_num: 2216
point_id: 10
x: -0.06595813483
y: 2.05990171432
z: 0.455347746611
doppler_bin: 34
target_idx: 18
posX: -0.0544320084155
posY: 2.11244559288
posZ: 0.37340721488
velX: -0.00322124361992
velY: 0.0607708767056
velZ: -0.0611438788474
accX: 0.0
accY: 0.0
accZ: 0.0
---
header: 
  seq: 19352
  stamp: 
    secs: 1596615287
    nsecs: 727972257
  frame_id: "node1_radarinterface_radarscan"
range: 2.03248763084
angle: 0.0
elev: 0.20893137157
doppler: -0.0795030742884
snr: 148
noise: 487
frame_num: 2216
point_id: 25
x: 0.0
y: 1.98828732967
z: 0.421567678452
doppler_bin: 31
target_idx: 18
posX: -0.0544320084155
posY: 2.11244559288
posZ: 0.37340721488
velX: -0.00322124361992
velY: 0.0607708767056
velZ: -0.0611438788474
accX: 0.0
accY: 0.0
accZ: 0.0
---
header: 
  seq: 19353
  stamp: 
    secs: 1596615287
    nsecs: 728028939
  frame_id: "node1_radarinterface_radarscan"
range: 2.11066031456
angle: -0.0319574587047
elev: 0.210009664297
doppler: -0.0795030742884
snr: 148
noise: 458
frame_num: 2216
point_id: 26
x: -0.0659581273794
y: 2.06323266029
z: 0.440007984638
doppler_bin: 31
target_idx: 18
posX: -0.0544320084155
posY: 2.11244559288
posZ: 0.37340721488
velX: -0.00322124361992
velY: 0.0607708767056
velZ: -0.0611438788474
accX: 0.0
accY: 0.0
accZ: 0.0
---
header: 
  seq: 19354
  stamp: 
    secs: 1596615287
    nsecs: 827841256
  frame_id: "node1_radarinterface_radarscan"
range: 2.11066031456
angle: 0.0
elev: 0.219690814614
doppler: 0.0795030742884
snr: 188
noise: 442
frame_num: 2217
point_id: 5
x: 0.0
y: 2.05993032455
z: 0.459971725941
doppler_bin: 33
target_idx: 18
posX: -0.0203597694635
posY: 2.1162314415
posZ: 0.380519092083
velX: 0.117706336081
velY: 0.0515217408538
velZ: -0.0226579010487
accX: 0.0
accY: 0.0
accZ: 0.0
---
header: 
  seq: 19355
  stamp: 
    secs: 1596615287
    nsecs: 827925601
  frame_id: "node1_radarinterface_radarscan"
range: 2.26700544357
angle: 0.0317762829363
elev: 0.181337535381
doppler: 0.0795030742884
snr: 169
noise: 430
frame_num: 2217
point_id: 7
x: 0.0708439126611
y: 2.22870850563
z: 0.408843874931
doppler_bin: 33
target_idx: 18
posX: -0.0203597694635
posY: 2.1162314415
posZ: 0.380519092083
velX: 0.117706336081
velY: 0.0515217408538
velZ: -0.0226579010487
accX: 0.0
accY: 0.0
accZ: 0.0
---
header: 
  seq: 19356
  stamp: 
    secs: 1596615287
    nsecs: 827938287
  frame_id: "node1_radarinterface_radarscan"
range: 2.34517812729
angle: 0.0
elev: 0.0488277636468
doppler: 0.0795030742884
snr: 138
noise: 446
frame_num: 2217
point_id: 8
x: 0.0
y: 2.34238314629
z: 0.114464305341
doppler_bin: 33
target_idx: 18
posX: -0.0203597694635
posY: 2.1162314415
posZ: 0.380519092083
velX: 0.117706336081
velY: 0.0515217408538
velZ: -0.0226579010487
accX: 0.0
accY: 0.0
accZ: 0.0
---
header: 
  seq: 19357
  stamp: 
    secs: 1596615287
    nsecs: 827954127
  frame_id: "node1_radarinterface_radarscan"
range: 2.03248763084
angle: 0.0
elev: 0.204146385193
doppler: -0.0795030742884
snr: 151
noise: 472
frame_num: 2217
point_id: 26
x: 0.0
y: 1.9902818203
z: 0.412048965693
doppler_bin: 31
target_idx: 18
posX: -0.0203597694635
posY: 2.1162314415
posZ: 0.380519092083
velX: 0.117706336081
velY: 0.0515217408538
velZ: -0.0226579010487
accX: 0.0
accY: 0.0
accZ: 0.0
---
header: 
  seq: 19358
  stamp: 
    secs: 1596615287
    nsecs: 827989737
  frame_id: "node1_radarinterface_radarscan"
range: 2.11066031456
angle: 0.0
elev: 0.176106065512
doppler: -0.0795030742884
snr: 159
noise: 454
frame_num: 2217
point_id: 27
x: 0.0
y: 2.07801556587
z: 0.369781792164
doppler_bin: 31
target_idx: 18
posX: -0.0203597694635
posY: 2.1162314415
posZ: 0.380519092083
velX: 0.117706336081
velY: 0.0515217408538
velZ: -0.0226579010487
accX: 0.0
accY: 0.0
accZ: 0.0
---
header: 
  seq: 19359
  stamp: 
    secs: 1596615287
    nsecs: 828000417
  frame_id: "node1_radarinterface_radarscan"
range: 2.18883275986
angle: 0.0318258479238
elev: 0.18964061141
doppler: -0.0795030742884
snr: 133
noise: 447
frame_num: 2217
point_id: 28
x: 0.0684010237455
y: 2.14850282669
z: 0.412608027458
doppler_bin: 31
target_idx: 18
posX: -0.0203597694635
posY: 2.1162314415
posZ: 0.380519092083
velX: 0.117706336081
velY: 0.0515217408538
velZ: -0.0226579010487
accX: 0.0
accY: 0.0
accZ: 0.0
---
header: 
  seq: 19360
  stamp: 
    secs: 1596615288
    nsecs:  28015896
  frame_id: "node1_radarinterface_radarscan"
range: 2.11066031456
angle: 0.0
elev: 0.192693129182
doppler: 0.0795030742884
snr: 138
noise: 454
frame_num: 2219
point_id: 14
x: 0.0
y: 2.07159638405
z: 0.404197514057
doppler_bin: 33
target_idx: 18
posX: 0.0271273255348
posY: 2.10848093033
posZ: 0.498311370611
velX: 0.218823879957
velY: -0.0173629932106
velZ: 0.278952270746
accX: 0.0
accY: 0.0
accZ: 0.0
---
header: 
  seq: 19361
  stamp: 
    secs: 1596615288
    nsecs:  28107621
  frame_id: "node1_radarinterface_radarscan"
range: 2.18883275986
angle: 0.0
elev: 0.233150184155
doppler: 0.0795030742884
snr: 158
noise: 439
frame_num: 2219
point_id: 15
x: 0.0
y: 2.12961030006
z: 0.505715847015
doppler_bin: 33
target_idx: 18
posX: 0.0271273255348
posY: 2.10848093033
posZ: 0.498311370611
velX: 0.218823879957
velY: -0.0173629932106
velZ: 0.278952270746
accX: 0.0
accY: 0.0
accZ: 0.0
---
header: 
  seq: 19362
  stamp: 
    secs: 1596615288
    nsecs:  28129007
  frame_id: "node1_radarinterface_radarscan"
range: 2.34517812729
angle: 0.0979456156492
elev: 0.288414895535
doppler: 0.0795030742884
snr: 123
noise: 437
frame_num: 2219
point_id: 17
x: 0.219860449433
y: 2.2375369072
z: 0.66704595089
doppler_bin: 33
target_idx: 18
posX: 0.0271273255348
posY: 2.10848093033
posZ: 0.498311370611
velX: 0.218823879957
velY: -0.0173629932106
velZ: 0.278952270746
accX: 0.0
accY: 0.0
accZ: 0.0
---
header: 
  seq: 19363
  stamp: 
    secs: 1596615288
    nsecs:  28148158
  frame_id: "node1_radarinterface_radarscan"
range: 2.26700544357
angle: 0.0
elev: 0.340083926916
doppler: -0.0795030742884
snr: 138
noise: 441
frame_num: 2219
point_id: 31
x: 0.0
y: 2.13716650009
z: 0.756196439266
doppler_bin: 31
target_idx: 18
posX: 0.0271273255348
posY: 2.10848093033
posZ: 0.498311370611
velX: 0.218823879957
velY: -0.0173629932106
velZ: 0.278952270746
accX: 0.0
accY: 0.0
accZ: 0.0
---
header: 
  seq: 19364
  stamp: 
    secs: 1596615288
    nsecs: 130596328
  frame_id: "node1_radarinterface_radarscan"
range: 2.11066031456
angle: -0.0322902612388
elev: 0.253852128983
doppler: 0.0795030742884
snr: 134
noise: 478
frame_num: 2220
point_id: 15
x: -0.06595813483
y: 2.04195332527
z: 0.530059576035
doppler_bin: 33
target_idx: 18
posX: 0.0259007290006
posY: 2.14517426491
posZ: 0.385325074196
velX: 0.167845875025
velY: 0.0225070789456
velZ: -0.0628858804703
accX: 0.0
accY: 0.0
accZ: 0.0
---
header: 
  seq: 19365
  stamp: 
    secs: 1596615288
    nsecs: 130717331
  frame_id: "node1_radarinterface_radarscan"
range: 2.26700544357
angle: -0.0313768871129
elev: 0.0881259888411
doppler: -0.0795030742884
snr: 136
noise: 432
frame_num: 2220
point_id: 31
x: -0.0708439126611
y: 2.25709652901
z: 0.199523612857
doppler_bin: 31
target_idx: 18
posX: 0.0259007290006
posY: 2.14517426491
posZ: 0.385325074196
velX: 0.167845875025
velY: 0.0225070789456
velZ: -0.0628858804703
accX: 0.0
accY: 0.0
accZ: 0.0
---
header: 
  seq: 19366
  stamp: 
    secs: 1596615288
    nsecs: 130752654
  frame_id: "node1_radarinterface_radarscan"
range: 2.42335057259
angle: 0.0312678702176
elev: -0.0285896472633
doppler: -0.0795030742884
snr: 126
noise: 455
frame_num: 2220
point_id: 33
x: 0.0757297053933
y: 2.42117619514
z: -0.0692733004689
doppler_bin: 31
target_idx: 18
posX: 0.0259007290006
posY: 2.14517426491
posZ: 0.385325074196
velX: 0.167845875025
velY: 0.0225070789456
velZ: -0.0628858804703
accX: 0.0
accY: 0.0
accZ: 0.0
---
header: 
  seq: 19367
  stamp: 
    secs: 1596615288
    nsecs: 327917379
  frame_id: "node1_radarinterface_radarscan"
range: 2.03248763084
angle: 0.0
elev: 0.266753315926
doppler: 0.0795030742884
snr: 124
noise: 438
frame_num: 2222
point_id: 8
x: 0.0
y: 1.96060216427
z: 0.535765707493
doppler_bin: 33
target_idx: 18
posX: 0.076085999608
posY: 2.12221860886
posZ: 0.506733119488
velX: 0.290433079004
velY: -0.062242873013
velZ: 0.246404662728
accX: 0.0
accY: 0.0
accZ: 0.0
---
header: 
  seq: 19368
  stamp: 
    secs: 1596615288
    nsecs: 327990338
  frame_id: "node1_radarinterface_radarscan"
range: 2.34517812729
angle: 0.107114568353
elev: 0.501407265663
doppler: 0.0795030742884
snr: 139
noise: 443
frame_num: 2222
point_id: 10
x: 0.219860449433
y: 2.0447165966
z: 1.12723350525
doppler_bin: 33
target_idx: 18
posX: 0.076085999608
posY: 2.12221860886
posZ: 0.506733119488
velX: 0.290433079004
velY: -0.062242873013
velZ: 0.246404662728
accX: 0.0
accY: 0.0
accZ: 0.0
---
header: 
  seq: 19369
  stamp: 
    secs: 1596615288
    nsecs: 328053095
  frame_id: "node1_radarinterface_radarscan"
range: 2.34517812729
angle: 0.102361120284
elev: 0.409106940031
doppler: -0.0795030742884
snr: 144
noise: 422
frame_num: 2222
point_id: 28
x: 0.219860449433
y: 2.14038324356
z: 0.932888686657
doppler_bin: 31
target_idx: 18
posX: 0.076085999608
posY: 2.12221860886
posZ: 0.506733119488
velX: 0.290433079004
velY: -0.062242873013
velZ: 0.246404662728
accX: 0.0
accY: 0.0
accZ: 0.0
---
header: 
  seq: 19370
  stamp: 
    secs: 1596615288
    nsecs: 429175663
  frame_id: "node1_radarinterface_radarscan"
range: 2.03248763084
angle: -0.0319267585874
elev: 0.205450952053
doppler: 0.0795030742884
snr: 115
noise: 430
frame_num: 2223
point_id: 10
x: -0.0635152384639
y: 1.98872852325
z: 0.414645045996
doppler_bin: 33
target_idx: 18
posX: 0.0647499263287
posY: 2.12865805626
posZ: 0.493409216404
velX: 0.190685510635
velY: -0.0237819030881
velZ: 0.190826460719
accX: 0.0
accY: 0.0
accZ: 0.0
---
header: 
  seq: 19371
  stamp: 
    secs: 1596615288
    nsecs: 528371130
  frame_id: "node1_radarinterface_radarscan"
range: 2.03248763084
angle: -0.0325445868075
elev: 0.282395362854
doppler: 0.0795030742884
snr: 144
noise: 423
frame_num: 2224
point_id: 7
x: -0.0635152459145
y: 1.950948596
z: 0.566366791725
doppler_bin: 33
target_idx: 18
posX: -0.00132782012224
posY: 2.13997101784
posZ: 0.465639293194
velX: -0.0665347874165
velY: 0.0295639932156
velZ: 0.103863589466
accX: 0.0
accY: 0.0
accZ: 0.0
---
header: 
  seq: 19372
  stamp: 
    secs: 1596615288
    nsecs: 528520972
  frame_id: "node1_radarinterface_radarscan"
range: 2.11066031456
angle: -0.063622571528
elev: 0.184550449252
doppler: 0.0795030742884
snr: 145
noise: 417
frame_num: 2224
point_id: 8
x: -0.13191626966
y: 2.07062101364
z: 0.387315958738
doppler_bin: 33
target_idx: 18
posX: -0.00132782012224
posY: 2.13997101784
posZ: 0.465639293194
velX: -0.0665347874165
velY: 0.0295639932156
velZ: 0.103863589466
accX: 0.0
accY: 0.0
accZ: 0.0
---
header: 
  seq: 19373
  stamp: 
    secs: 1596615288
    nsecs: 629636323
  frame_id: "node1_radarinterface_radarscan"
range: 2.65786838531
angle: 0.0320238955319
elev: 0.219526797533
doppler: 0.0
snr: 135
noise: 420
frame_num: 2225
point_id: 4
x: 0.0830583870411
y: 2.59275102615
z: 0.578798174858
doppler_bin: 32
target_idx: 18
posX: 0.0361167415977
posY: 2.17593693733
posZ: 0.580522656441
velX: 0.0440909713507
velY: 0.0149087905884
velZ: 0.34004124999
accX: 0.0
accY: 0.0
accZ: 0.0
---
header: 
  seq: 19374
  stamp: 
    secs: 1596615288
    nsecs: 629706243
  frame_id: "node1_radarinterface_radarscan"
range: 2.26700544357
angle: 0.104736439884
elev: 0.458443254232
doppler: 0.0795030742884
snr: 152
noise: 419
frame_num: 2225
point_id: 10
x: 0.212531745434
y: 2.02178001404
z: 1.00326919556
doppler_bin: 33
target_idx: 18
posX: 0.0361167415977
posY: 2.17593693733
posZ: 0.580522656441
velX: 0.0440909713507
velY: 0.0149087905884
velZ: 0.34004124999
accX: 0.0
accY: 0.0
accZ: 0.0
---
header: 
  seq: 19375
  stamp: 
    secs: 1596615288
    nsecs: 629715915
  frame_id: "node1_radarinterface_radarscan"
range: 2.73604106903
angle: 0.0
elev: 0.32672137022
doppler: 0.159006148577
snr: 115
noise: 431
frame_num: 2225
point_id: 14
x: 0.0
y: 2.59130358696
z: 0.878103852272
doppler_bin: 34
target_idx: 18
posX: 0.0361167415977
posY: 2.17593693733
posZ: 0.580522656441
velX: 0.0440909713507
velY: 0.0149087905884
velZ: 0.34004124999
accX: 0.0
accY: 0.0
accZ: 0.0
---
header: 
  seq: 19376
  stamp: 
    secs: 1596615288
    nsecs: 730176382
  frame_id: "node1_radarinterface_radarscan"
range: 2.18883275986
angle: 0.0338908433914
elev: 0.39692401886
doppler: 0.0795030742884
snr: 120
noise: 464
frame_num: 2226
point_id: 6
x: 0.0684010237455
y: 2.01750159264
z: 0.84616625309
doppler_bin: 33
target_idx: 18
posX: 0.0732960775495
posY: 2.16334033012
posZ: 0.640325903893
velX: 0.13928450644
velY: -0.0591309405863
velZ: 0.409372061491
accX: 0.0
accY: 0.0
accZ: 0.0
---
header: 
  seq: 19377
  stamp: 
    secs: 1596615288
    nsecs: 730824605
  frame_id: "node1_radarinterface_radarscan"
range: 2.26700544357
angle: 0.066377542913
elev: 0.341434538364
doppler: 0.0795030742884
snr: 146
noise: 454
frame_num: 2226
point_id: 7
x: 0.141687840223
y: 2.13143897057
z: 0.759082198143
doppler_bin: 33
target_idx: 18
posX: 0.0732960775495
posY: 2.16334033012
posZ: 0.640325903893
velX: 0.13928450644
velY: -0.0591309405863
velZ: 0.409372061491
accX: 0.0
accY: 0.0
accZ: 0.0
---
header: 
  seq: 19378
  stamp: 
    secs: 1596615288
    nsecs: 730935536
  frame_id: "node1_radarinterface_radarscan"
range: 2.34517812729
angle: 0.0648469850421
elev: 0.267316818237
doppler: 0.0795030742884
snr: 133
noise: 453
frame_num: 2226
point_id: 8
x: 0.146573618054
y: 2.25713062286
z: 0.619465947151
doppler_bin: 33
target_idx: 18
posX: 0.0732960775495
posY: 2.16334033012
posZ: 0.640325903893
velX: 0.13928450644
velY: -0.0591309405863
velZ: 0.409372061491
accX: 0.0
accY: 0.0
accZ: 0.0
---
header: 
  seq: 19379
  stamp: 
    secs: 1596615288
    nsecs: 730981936
  frame_id: "node1_radarinterface_radarscan"
range: 2.34517812729
angle: 0.0645078793168
elev: 0.247425243258
doppler: -0.0795030742884
snr: 150
noise: 408
frame_num: 2226
point_id: 17
x: 0.146573647857
y: 2.26902937889
z: 0.57435387373
doppler_bin: 31
target_idx: 18
posX: 0.0732960775495
posY: 2.16334033012
posZ: 0.640325903893
velX: 0.13928450644
velY: -0.0591309405863
velZ: 0.409372061491
accX: 0.0
accY: 0.0
accZ: 0.0
---
header: 
  seq: 19380
  stamp: 
    secs: 1596615288
    nsecs: 827512147
  frame_id: "node1_radarinterface_radarscan"
range: 2.18883275986
angle: 0.0
elev: 0.375364631414
doppler: -0.0795030742884
snr: 153
noise: 399
frame_num: 2227
point_id: 20
x: 0.0
y: 2.03643321991
z: 0.802451908588
doppler_bin: 31
target_idx: 18
posX: 0.0830653682351
posY: 2.13269996643
posZ: 0.732770085335
velX: 0.129254132509
velY: -0.177014425397
velZ: 0.538132607937
accX: 0.0
accY: 0.0
accZ: 0.0
---
header: 
  seq: 19381
  stamp: 
    secs: 1596615288
    nsecs: 929835562
  frame_id: "node1_radarinterface_radarscan"
range: 2.11066031456
angle: -0.0321501232684
elev: 0.236474439502
doppler: -0.0795030742884
snr: 168
noise: 378
frame_num: 2228
point_id: 32
x: -0.06595813483
y: 2.05086016655
z: 0.494478404522
doppler_bin: 31
target_idx: 18
posX: 0.0402638502419
posY: 2.12893390656
posZ: 0.70459395647
velX: -0.0446180403233
velY: -0.179154008627
velZ: 0.381643265486
accX: 0.0
accY: 0.0
accZ: 0.0
---
header: 
  seq: 19382
  stamp: 
