header: 
  seq: 38485
  stamp: 
    secs: 1596613152
    nsecs:  99141724
  frame_id: "node1_radarinterface_radarscan"
range: 1.87614250183
angle: -0.12853191793
elev: 0.223155483603
doppler: 0.0
snr: 203
noise: 474
frame_num: 3349
point_id: 3
x: -0.234517812729
y: 1.81452941895
z: 0.415205270052
doppler_bin: 32
target_idx: 2
posX: -0.294218629599
posY: 2.03859806061
posZ: 0.344276815653
velX: -0.0162155777216
velY: -0.0397331751883
velZ: -0.290821135044
accX: 0.0
accY: 0.0
accZ: 0.0
---
header: 
  seq: 38486
  stamp: 
    secs: 1596613152
    nsecs:  99264179
  frame_id: "node1_radarinterface_radarscan"
range: 2.03248763084
angle: -0.127766445279
elev: 0.195171058178
doppler: 0.0
snr: 223
noise: 474
frame_num: 3349
point_id: 5
x: -0.254060953856
y: 1.97764742374
z: 0.394169151783
doppler_bin: 32
target_idx: 2
posX: -0.294218629599
posY: 2.03859806061
posZ: 0.344276815653
velX: -0.0162155777216
velY: -0.0397331751883
velZ: -0.290821135044
accX: 0.0
accY: 0.0
accZ: 0.0
---
header: 
  seq: 38487
  stamp: 
    secs: 1596613152
    nsecs:  99292764
  frame_id: "node1_radarinterface_radarscan"
range: 1.87614250183
angle: -0.161827713251
elev: 0.24655008316
doppler: 0.0795030742884
snr: 242
noise: 490
frame_num: 3349
point_id: 11
x: -0.293147265911
y: 1.79563677311
z: 0.457891017199
doppler_bin: 33
target_idx: 2
posX: -0.294218629599
posY: 2.03859806061
posZ: 0.344276815653
velX: -0.0162155777216
velY: -0.0397331751883
velZ: -0.290821135044
accX: 0.0
accY: 0.0
accZ: 0.0
---
header: 
  seq: 38488
  stamp: 
    secs: 1596613152
    nsecs:  99361317
  frame_id: "node1_radarinterface_radarscan"
range: 1.87614250183
angle: -0.161308810115
elev: 0.233543142676
doppler: -0.0795030742884
snr: 159
noise: 488
frame_num: 3349
point_id: 37
x: -0.293147265911
y: 1.80151498318
z: 0.434188008308
doppler_bin: 31
target_idx: 2
posX: -0.294218629599
posY: 2.03859806061
posZ: 0.344276815653
velX: -0.0162155777216
velY: -0.0397331751883
velZ: -0.290821135044
accX: 0.0
accY: 0.0
accZ: 0.0
---
header: 
  seq: 38489
  stamp: 
    secs: 1596613152
    nsecs: 198018120
  frame_id: "node1_radarinterface_radarscan"
range: 1.87614250183
angle: -0.12886312604
elev: 0.23415248096
doppler: 0.0
snr: 141
noise: 469
frame_num: 3350
point_id: 5
x: -0.234517812729
y: 1.80981385708
z: 0.435300111771
doppler_bin: 32
target_idx: 2
posX: -0.289861321449
posY: 2.03628373146
posZ: 0.34019446373
velX: -0.00636035576463
velY: -0.0403453931212
velZ: -0.260383158922
accX: 0.0
accY: 0.0
accZ: 0.0
---
header: 
  seq: 38490
  stamp: 
    secs: 1596613152
    nsecs: 198104365
  frame_id: "node1_radarinterface_radarscan"
range: 2.03248763084
angle: -0.128157511353
elev: 0.209968939424
doppler: 0.0
snr: 167
noise: 471
frame_num: 3350
point_id: 7
x: -0.254060953856
y: 1.97154664993
z: 0.423630416393
doppler_bin: 32
target_idx: 2
posX: -0.289861321449
posY: 2.03628373146
posZ: 0.34019446373
velX: -0.00636035576463
velY: -0.0403453931212
velZ: -0.260383158922
accX: 0.0
accY: 0.0
accZ: 0.0
---
header: 
  seq: 38491
  stamp: 
    secs: 1596613152
    nsecs: 198134215
  frame_id: "node1_radarinterface_radarscan"
range: 2.03248763084
angle: -0.159224793315
elev: 0.170643135905
doppler: -0.159006148577
snr: 167
noise: 466
frame_num: 3350
point_id: 33
x: -0.31757619977
y: 1.97763085365
z: 0.345149278641
doppler_bin: 30
target_idx: 2
posX: -0.289861321449
posY: 2.03628373146
posZ: 0.34019446373
velX: -0.00636035576463
velY: -0.0403453931212
velZ: -0.260383158922
accX: 0.0
accY: 0.0
accZ: 0.0
---
header: 
  seq: 38492
  stamp: 
    secs: 1596613152
    nsecs: 198173945
  frame_id: "node1_radarinterface_radarscan"
range: 2.11066031456
angle: -0.159404665232
elev: 0.177017718554
doppler: -0.159006148577
snr: 133
noise: 455
frame_num: 3350
point_id: 34
x: -0.329790681601
y: 2.05133652687
z: 0.371676057577
doppler_bin: 30
target_idx: 2
posX: -0.289861321449
posY: 2.03628373146
posZ: 0.34019446373
velX: -0.00636035576463
velY: -0.0403453931212
velZ: -0.260383158922
accX: 0.0
accY: 0.0
accZ: 0.0
---
header: 
  seq: 38493
  stamp: 
    secs: 1596613152
    nsecs: 198192466
  frame_id: "node1_radarinterface_radarscan"
range: 2.34517812729
angle: -0.0944384485483
elev: 0.107874311507
doppler: -0.159006148577
snr: 152
noise: 450
frame_num: 3350
point_id: 35
x: -0.219860449433
y: 2.32115674019
z: 0.252494096756
doppler_bin: 30
target_idx: 2
posX: -0.289861321449
posY: 2.03628373146
posZ: 0.34019446373
velX: -0.00636035576463
velY: -0.0403453931212
velZ: -0.260383158922
accX: 0.0
accY: 0.0
accZ: 0.0
---
header: 
  seq: 38494
  stamp: 
    secs: 1596613152
    nsecs: 198775145
  frame_id: "node1_radarinterface_radarscan"
range: 2.03248763084
angle: -0.159762188792
elev: 0.189019054174
doppler: -0.0795030742884
snr: 211
noise: 510
frame_num: 3350
point_id: 42
x: -0.317576169968
y: 1.97086453438
z: 0.381895303726
doppler_bin: 31
target_idx: 2
posX: -0.289861321449
posY: 2.03628373146
posZ: 0.34019446373
velX: -0.00636035576463
velY: -0.0403453931212
velZ: -0.260383158922
accX: 0.0
accY: 0.0
accZ: 0.0
---
header: 
  seq: 38495
  stamp: 
    secs: 1596613152
    nsecs: 301246425
  frame_id: "node1_radarinterface_radarscan"
range: 1.87614250183
angle: -0.130463153124
elev: 0.280748605728
doppler: -0.0795030742884
snr: 238
noise: 499
frame_num: 3351
point_id: 31
x: -0.234517812729
y: 1.7873686552
z: 0.519832253456
doppler_bin: 31
target_idx: 2
posX: -0.277074426413
posY: 2.01258563995
posZ: 0.388805627823
velX: 0.025024279952
velY: -0.0815121158957
velZ: -0.0804365724325
accX: 0.0
accY: 0.0
accZ: 0.0
---
header: 
  seq: 38496
  stamp: 
    secs: 1596613152
    nsecs: 402187938
  frame_id: "node1_radarinterface_radarscan"
range: 1.87614250183
angle: -0.130467608571
elev: 0.280866354704
doppler: 0.0
snr: 186
noise: 482
frame_num: 3352
point_id: 3
x: -0.234517797828
y: 1.78730690479
z: 0.520044505596
doppler_bin: 32
target_idx: 2
posX: -0.253696382046
posY: 2.01133680344
posZ: 0.380214750767
velX: 0.0909568071365
velY: -0.0728235542774
velZ: -0.085052549839
accX: 0.0
accY: 0.0
accZ: 0.0
---
header: 
  seq: 38497
  stamp: 
    secs: 1596613152
    nsecs: 402264317
  frame_id: "node1_radarinterface_radarscan"
range: 2.03248763084
angle: -0.12901224196
elev: 0.23892351985
doppler: 0.0
snr: 174
noise: 486
frame_num: 3352
point_id: 5
x: -0.254060953856
y: 1.95834004879
z: 0.481002151966
doppler_bin: 32
target_idx: 2
posX: -0.253696382046
posY: 2.01133680344
posZ: 0.380214750767
velX: 0.0909568071365
velY: -0.0728235542774
velZ: -0.085052549839
accX: 0.0
accY: 0.0
accZ: 0.0
---
header: 
  seq: 38498
  stamp: 
    secs: 1596613152
    nsecs: 402312274
  frame_id: "node1_radarinterface_radarscan"
range: 1.95431506634
angle: -0.130685254931
elev: 0.286550402641
doppler: 0.0795030742884
snr: 184
noise: 514
frame_num: 3352
point_id: 11
x: -0.244289383292
y: 1.85864186287
z: 0.552377343178
doppler_bin: 33
target_idx: 2
posX: -0.253696382046
posY: 2.01133680344
posZ: 0.380214750767
velX: 0.0909568071365
velY: -0.0728235542774
velZ: -0.085052549839
accX: 0.0
accY: 0.0
accZ: 0.0
---
header: 
  seq: 38499
  stamp: 
    secs: 1596613152
    nsecs: 498906066
  frame_id: "node1_radarinterface_radarscan"
range: 2.03248763084
angle: -0.156894654036
elev: -0.00474023725837
doppler: 0.0
snr: 129
noise: 478
frame_num: 3353
point_id: 3
x: -0.31757619977
y: 2.00750041008
z: -0.00963443797082
doppler_bin: 32
target_idx: 2
posX: -0.249179199338
posY: 2.01644659042
posZ: 0.406167268753
velX: 0.084162697196
velY: -0.0370389334857
velZ: 0.0077213793993
accX: 0.0
accY: 0.0
accZ: 0.0
---
header: 
  seq: 38500
  stamp: 
    secs: 1596613152
    nsecs: 499003142
  frame_id: "node1_radarinterface_radarscan"
range: 2.03248763084
angle: -0.158329889178
elev: 0.134273871779
doppler: 0.0795030742884
snr: 194
noise: 521
frame_num: 3353
point_id: 11
x: -0.317576169968
y: 1.98899924755
z: 0.272090643644
doppler_bin: 33
target_idx: 2
posX: -0.249179199338
posY: 2.01644659042
posZ: 0.406167268753
velX: 0.084162697196
velY: -0.0370389334857
velZ: 0.0077213793993
accX: 0.0
accY: 0.0
accZ: 0.0
---
header: 
  seq: 38501
  stamp: 
    secs: 1596613152
    nsecs: 499022169
  frame_id: "node1_radarinterface_radarscan"
range: 1.87614250183
angle: -0.128575891256
elev: 0.224649399519
doppler: -0.0795030742884
snr: 167
noise: 487
frame_num: 3353
point_id: 34
x: -0.234517797828
y: 1.81390178204
z: 0.417938113213
doppler_bin: 31
target_idx: 2
posX: -0.249179199338
posY: 2.01644659042
posZ: 0.406167268753
velX: 0.084162697196
velY: -0.0370389334857
velZ: 0.0077213793993
accX: 0.0
accY: 0.0
accZ: 0.0
---
header: 
  seq: 38502
  stamp: 
    secs: 1596613152
    nsecs: 499033715
  frame_id: "node1_radarinterface_radarscan"
range: 1.95431506634
angle: -0.127791717649
elev: 0.196163251996
doppler: -0.0795030742884
snr: 213
noise: 491
frame_num: 3353
point_id: 35
x: -0.244289398193
y: 1.90120410919
z: 0.380910873413
doppler_bin: 31
target_idx: 2
posX: -0.249179199338
posY: 2.01644659042
posZ: 0.406167268753
velX: 0.084162697196
velY: -0.0370389334857
velZ: 0.0077213793993
accX: 0.0
accY: 0.0
accZ: 0.0
---
header: 
  seq: 38503
  stamp: 
    secs: 1596613152
    nsecs: 601724878
  frame_id: "node1_radarinterface_radarscan"
range: 2.11066031456
angle: -0.127292320132
elev: 0.175446689129
doppler: 0.0
snr: 142
noise: 483
frame_num: 3354
point_id: 5
x: -0.26383253932
y: 2.06144404411
z: 0.368411511183
doppler_bin: 32
target_idx: 2
posX: -0.245889082551
posY: 2.02334618568
posZ: 0.521397054195
velX: 0.0743339061737
velY: -0.0249786879867
velZ: 0.331757694483
accX: 0.0
accY: 0.0
accZ: 0.0
---
header: 
  seq: 38504
  stamp: 
    secs: 1596613152
    nsecs: 601807377
  frame_id: "node1_radarinterface_radarscan"
range: 2.26700544357
angle: -0.104657165706
elev: 0.456911563873
doppler: 0.0
snr: 195
noise: 469
frame_num: 3354
point_id: 7
x: -0.212531775236
y: 2.02332282066
z: 1.00015425682
doppler_bin: 32
target_idx: 2
posX: -0.245889082551
posY: 2.02334618568
posZ: 0.521397054195
velX: 0.0743339061737
velY: -0.0249786879867
velZ: 0.331757694483
accX: 0.0
accY: 0.0
accZ: 0.0
---
header: 
  seq: 38505
  stamp: 
    secs: 1596613152
    nsecs: 601825242
  frame_id: "node1_radarinterface_radarscan"
range: 2.34517812729
angle: -0.105989791453
elev: 0.481767356396
doppler: 0.0
snr: 180
noise: 459
frame_num: 3354
point_id: 8
x: -0.219860464334
y: 2.06658148766
z: 1.0866291523
doppler_bin: 32
target_idx: 2
posX: -0.245889082551
posY: 2.02334618568
posZ: 0.521397054195
velX: 0.0743339061737
velY: -0.0249786879867
velZ: 0.331757694483
accX: 0.0
accY: 0.0
accZ: 0.0
---
header: 
  seq: 38506
  stamp: 
    secs: 1596613152
    nsecs: 601847867
  frame_id: "node1_radarinterface_radarscan"
range: 1.95431506634
angle: -0.189070299268
elev: 0.0688931420445
doppler: -0.0795030742884
snr: 136
noise: 493
frame_num: 3354
point_id: 33
x: -0.366434067488
y: 1.91493451595
z: 0.134532421827
doppler_bin: 31
target_idx: 2
posX: -0.245889082551
posY: 2.02334618568
posZ: 0.521397054195
velX: 0.0743339061737
velY: -0.0249786879867
velZ: 0.331757694483
accX: 0.0
accY: 0.0
accZ: 0.0
---
header: 
  seq: 38507
  stamp: 
    secs: 1596613152
    nsecs: 601964723
  frame_id: "node1_radarinterface_radarscan"
range: 2.03248763084
angle: -0.188918486238
elev: 0.0562232621014
doppler: -0.0795030742884
snr: 166
noise: 496
frame_num: 3354
point_id: 34
x: -0.381091415882
y: 1.99317109585
z: 0.11421289295
doppler_bin: 31
target_idx: 2
posX: -0.245889082551
posY: 2.02334618568
posZ: 0.521397054195
velX: 0.0743339061737
velY: -0.0249786879867
velZ: 0.331757694483
accX: 0.0
accY: 0.0
accZ: 0.0
---
header: 
  seq: 38508
  stamp: 
    secs: 1596613152
    nsecs: 601978471
  frame_id: "node1_radarinterface_radarscan"
range: 2.11066031456
angle: -0.156913951039
elev: 0.0163246132433
doppler: -0.0795030742884
snr: 153
noise: 494
frame_num: 3354
point_id: 35
x: -0.329790651798
y: 2.084451437
z: 0.0344541817904
doppler_bin: 31
target_idx: 2
posX: -0.245889082551
posY: 2.02334618568
posZ: 0.521397054195
velX: 0.0743339061737
velY: -0.0249786879867
velZ: 0.331757694483
accX: 0.0
accY: 0.0
accZ: 0.0
---
header: 
  seq: 38509
  stamp: 
    secs: 1596613152
    nsecs: 700857388
  frame_id: "node1_radarinterface_radarscan"
range: 2.34517812729
angle: -0.130134627223
elev: 0.271908074617
doppler: 0.0
snr: 117
noise: 471
frame_num: 3355
point_id: 5
x: -0.293147265911
y: 2.23991537094
z: 0.629844248295
doppler_bin: 32
target_idx: 2
posX: -0.255601406097
posY: 2.0205988884
posZ: 0.531399965286
velX: 0.0231306441128
velY: -0.0313207954168
velZ: 0.309951454401
accX: 0.0
accY: 0.0
accZ: 0.0
---
header: 
  seq: 38510
  stamp: 
    secs: 1596613152
    nsecs: 700914559
  frame_id: "node1_radarinterface_radarscan"
range: 1.95431506634
angle: -0.16486954689
elev: 0.311006247997
doppler: 0.0795030742884
snr: 142
noise: 540
frame_num: 3355
point_id: 11
x: -0.305361717939
y: 1.83532941341
z: 0.59805315733
doppler_bin: 33
target_idx: 2
posX: -0.255601406097
posY: 2.0205988884
posZ: 0.531399965286
velX: 0.0231306441128
velY: -0.0313207954168
velZ: 0.309951454401
accX: 0.0
accY: 0.0
accZ: 0.0
---
header: 
  seq: 38511
  stamp: 
    secs: 1596613152
    nsecs: 801320654
  frame_id: "node1_radarinterface_radarscan"
range: 2.03248763084
angle: -0.159229844809
elev: 0.170825079083
doppler: 0.0
snr: 129
noise: 452
frame_num: 3356
point_id: 5
x: -0.31757619977
y: 1.97756707668
z: 0.345513701439
doppler_bin: 32
target_idx: 2
posX: -0.252431422472
posY: 2.0233695507
posZ: 0.592713475227
velX: 0.0230957362801
velY: -0.0282739866525
velZ: 0.425165057182
accX: 0.0
accY: 0.0
accZ: 0.0
---
header: 
  seq: 38512
  stamp: 
    secs: 1596613152
    nsecs: 801413663
  frame_id: "node1_radarinterface_radarscan"
range: 2.26700544357
angle: -0.102781124413
elev: 0.418399482965
doppler: 0.0
snr: 146
noise: 459
frame_num: 3356
point_id: 7
x: -0.212531760335
y: 2.06052279472
z: 0.921080946922
doppler_bin: 32
target_idx: 2
posX: -0.252431422472
posY: 2.0233695507
posZ: 0.592713475227
velX: 0.0230957362801
velY: -0.0282739866525
velZ: 0.425165057182
accX: 0.0
accY: 0.0
accZ: 0.0
---
header: 
  seq: 38513
  stamp: 
    secs: 1596613152
    nsecs: 801527433
  frame_id: "node1_radarinterface_radarscan"
range: 2.34517812729
angle: -0.06872202456
elev: 0.42708465457
doppler: 0.0
snr: 129
noise: 456
frame_num: 3356
point_id: 8
x: -0.146573632956
y: 2.12948918343
z: 0.971417546272
doppler_bin: 32
target_idx: 2
posX: -0.252431422472
posY: 2.0233695507
posZ: 0.592713475227
velX: 0.0230957362801
velY: -0.0282739866525
velZ: 0.425165057182
accX: 0.0
accY: 0.0
accZ: 0.0
---
header: 
  seq: 38514
  stamp: 
    secs: 1596613152
    nsecs: 901624613
  frame_id: "node1_radarinterface_radarscan"
range: 2.03248763084
angle: -0.127233847976
elev: 0.172849237919
doppler: 0.0
snr: 131
noise: 447
frame_num: 3357
point_id: 5
x: -0.254060983658
y: 1.98601663113
z: 0.349567204714
doppler_bin: 32
target_idx: 2
posX: -0.255932629108
posY: 2.01276493073
posZ: 0.53748780489
velX: 0.00340322218835
velY: -0.0509659200907
velZ: 0.207440316677
accX: 0.0
accY: 0.0
accZ: 0.0
---
header: 
  seq: 38515
  stamp: 
    secs: 1596613152
    nsecs: 901732447
  frame_id: "node1_radarinterface_radarscan"
range: 1.87614250183
angle: -0.129823774099
elev: 0.263233572245
doppler: 0.0795030742884
snr: 127
noise: 487
frame_num: 3357
point_id: 11
x: -0.234517797828
y: 1.79627180099
z: 0.488179951906
doppler_bin: 33
target_idx: 2
posX: -0.255932629108
posY: 2.01276493073
posZ: 0.53748780489
velX: 0.00340322218835
velY: -0.0509659200907
velZ: 0.207440316677
accX: 0.0
accY: 0.0
accZ: 0.0
---
header: 
  seq: 38516
  stamp: 
    secs: 1596613153
    nsecs:   2245926
  frame_id: "node1_radarinterface_radarscan"
range: 2.03248763084
angle: -0.158949673176
elev: 0.160377308726
doppler: 0.0
snr: 170
noise: 443
frame_num: 3358
point_id: 3
x: -0.31757619977
y: 1.98111224174
z: 0.324569344521
doppler_bin: 32
target_idx: 2
posX: -0.255020409822
posY: 2.04410910606
posZ: 0.473087728024
velX: 0.00474547501653
velY: 0.0367624089122
velZ: -0.00506103038788
accX: 0.0
accY: 0.0
accZ: 0.0
---
header: 
  seq: 38517
  stamp: 
    secs: 1596613153
    nsecs:   2353373
  frame_id: "node1_radarinterface_radarscan"
range: 2.26700544357
angle: -0.0942813679576
elev: 0.0912597775459
doppler: 0.0
snr: 139
noise: 420
frame_num: 3358
point_id: 5
x: -0.212531760335
y: 2.24754548073
z: 0.206599354744
doppler_bin: 32
target_idx: 2
posX: -0.255020409822
posY: 2.04410910606
posZ: 0.473087728024
velX: 0.00474547501653
velY: 0.0367624089122
velZ: -0.00506103038788
accX: 0.0
accY: 0.0
accZ: 0.0
---
header: 
  seq: 38518
  stamp: 
    secs: 1596613153
    nsecs:   2371535
  frame_id: "node1_radarinterface_radarscan"
range: 2.03248763084
angle: -0.126373514533
elev: 0.128392621875
doppler: 0.0795030742884
snr: 158
noise: 495
frame_num: 3358
point_id: 11
x: -0.254060953856
y: 1.99968361855
z: 0.26024004817
doppler_bin: 33
target_idx: 2
posX: -0.255020409822
posY: 2.04410910606
posZ: 0.473087728024
velX: 0.00474547501653
velY: 0.0367624089122
velZ: -0.00506103038788
accX: 0.0
accY: 0.0
accZ: 0.0
---
header: 
  seq: 38519
  stamp: 
    secs: 1596613153
    nsecs: 102460896
  frame_id: "node1_radarinterface_radarscan"
range: 2.03248763084
angle: -0.125826746225
elev: 0.0888465940952
doppler: 0.0
snr: 146
noise: 456
frame_num: 3359
point_id: 3
x: -0.254060953856
y: 2.00846600533
z: 0.180342122912
doppler_bin: 32
target_idx: 2
posX: -0.23026996851
posY: 2.03758764267
posZ: 0.627719461918
velX: 0.0770437419415
velY: -0.0484190434217
velZ: 0.369676411152
accX: 0.0
accY: 0.0
accZ: 0.0
---
header: 
  seq: 38520
  stamp: 
    secs: 1596613153
    nsecs: 102551453
  frame_id: "node1_radarinterface_radarscan"
range: 2.18883275986
angle: -0.10373288393
elev: 0.438507437706
doppler: 0.0
snr: 186
noise: 439
frame_num: 3359
point_id: 5
x: -0.205203071237
y: 1.97108674049
z: 0.929353415966
doppler_bin: 32
target_idx: 2
posX: -0.23026996851
posY: 2.03758764267
posZ: 0.627719461918
velX: 0.0770437419415
velY: -0.0484190434217
velZ: 0.369676411152
accX: 0.0
accY: 0.0
accZ: 0.0
---
header: 
  seq: 38521
  stamp: 
    secs: 1596613153
    nsecs: 102569786
  frame_id: "node1_radarinterface_radarscan"
range: 2.34517812729
angle: -0.104814484715
elev: 0.459944218397
doppler: 0.0
snr: 221
noise: 431
frame_num: 3359
point_id: 7
x: -0.219860434532
y: 2.08992791176
z: 1.04102015495
doppler_bin: 32
target_idx: 2
posX: -0.23026996851
posY: 2.03758764267
posZ: 0.627719461918
velX: 0.0770437419415
velY: -0.0484190434217
velZ: 0.369676411152
accX: 0.0
accY: 0.0
accZ: 0.0
---
header: 
  seq: 38522
  stamp: 
    secs: 1596613153
    nsecs: 102589372
  frame_id: "node1_radarinterface_radarscan"
range: 2.42335057259
angle: -0.106244586408
elev: 0.486317098141
doppler: 0.0
snr: 138
noise: 428
frame_num: 3359
point_id: 8
x: -0.227189108729
y: 2.13030743599
z: 1.13260900974
doppler_bin: 32
target_idx: 2
posX: -0.23026996851
posY: 2.03758764267
posZ: 0.627719461918
velX: 0.0770437419415
velY: -0.0484190434217
velZ: 0.369676411152
accX: 0.0
accY: 0.0
accZ: 0.0
---
header: 
  seq: 38523
  stamp: 
    secs: 1596613153
    nsecs: 102621890
  frame_id: "node1_radarinterface_radarscan"
range: 2.42335057259
angle: -0.0679914131761
elev: 0.402862995863
doppler: -0.159006148577
snr: 160
noise: 410
frame_num: 3359
point_id: 25
x: -0.151459395885
y: 2.22419166565
z: 0.950083673
doppler_bin: 30
target_idx: 2
posX: -0.23026996851
posY: 2.03758764267
posZ: 0.627719461918
velX: 0.0770437419415
velY: -0.0484190434217
velZ: 0.369676411152
accX: 0.0
accY: 0.0
accZ: 0.0
---
header: 
  seq: 38524
  stamp: 
    secs: 1596613153
    nsecs: 102687266
  frame_id: "node1_radarinterface_radarscan"
range: 2.03248763084
angle: -0.159152701497
elev: 0.168016403913
doppler: -0.0795030742884
snr: 133
noise: 472
frame_num: 3359
point_id: 30
x: -0.317576169968
y: 1.97854185104
z: 0.339886844158
doppler_bin: 31
target_idx: 2
posX: -0.23026996851
posY: 2.03758764267
posZ: 0.627719461918
velX: 0.0770437419415
velY: -0.0484190434217
velZ: 0.369676411152
accX: 0.0
accY: 0.0
accZ: 0.0
---
header: 
  seq: 38525
  stamp: 
    secs: 1596613153
    nsecs: 102702933
  frame_id: "node1_radarinterface_radarscan"
range: 2.34517812729
angle: -0.102057568729
elev: 0.402215987444
doppler: -0.0795030742884
snr: 228
noise: 449
frame_num: 3359
point_id: 34
x: -0.219860464334
y: 2.14679408073
z: 0.918039798737
doppler_bin: 31
target_idx: 2
posX: -0.23026996851
posY: 2.03758764267
posZ: 0.627719461918
velX: 0.0770437419415
velY: -0.0484190434217
velZ: 0.369676411152
accX: 0.0
accY: 0.0
accZ: 0.0
---
header: 
  seq: 38526
  stamp: 
    secs: 1596613153
    nsecs: 198132246
  frame_id: "node1_radarinterface_radarscan"
range: 2.03248763084
angle: -0.161963075399
elev: 0.249820634723
doppler: 0.0
snr: 116
noise: 462
frame_num: 3360
point_id: 5
x: -0.31757619977
y: 1.943618536
z: 0.502492249012
doppler_bin: 32
target_idx: 2
posX: -0.229861587286
posY: 2.0180785656
posZ: 0.711091399193
velX: 0.0624919757247
velY: -0.143187463284
velZ: 0.502980947495
accX: 0.0
accY: 0.0
accZ: 0.0
---
header: 
  seq: 38527
  stamp: 
    secs: 1596613153
    nsecs: 198239729
  frame_id: "node1_radarinterface_radarscan"
range: 2.18883275986
angle: -0.103987127542
elev: 0.443673789501
doppler: 0.0
snr: 214
noise: 453
frame_num: 3360
point_id: 7
x: -0.205203071237
y: 1.96623277664
z: 0.939579308033
doppler_bin: 32
target_idx: 2
posX: -0.229861587286
posY: 2.0180785656
posZ: 0.711091399193
velX: 0.0624919757247
velY: -0.143187463284
velZ: 0.502980947495
accX: 0.0
accY: 0.0
accZ: 0.0
---
header: 
  seq: 38528
  stamp: 
    secs: 1596613153
    nsecs: 198255925
  frame_id: "node1_radarinterface_radarscan"
range: 2.26700544357
angle: -0.103657715023
elev: 0.436964035034
doppler: 0.0
snr: 248
noise: 445
frame_num: 3360
point_id: 8
x: -0.212531760335
y: 2.04297375679
z: 0.959375619888
doppler_bin: 32
target_idx: 2
posX: -0.229861587286
posY: 2.0180785656
posZ: 0.711091399193
velX: 0.0624919757247
velY: -0.143187463284
velZ: 0.502980947495
accX: 0.0
accY: 0.0
accZ: 0.0
---
header: 
  seq: 38529
  stamp: 
    secs: 1596613153
    nsecs: 198268805
  frame_id: "node1_radarinterface_radarscan"
range: 2.34517812729
angle: -0.102919459343
elev: 0.421401530504
doppler: 0.0
snr: 210
noise: 440
frame_num: 3360
point_id: 9
x: -0.219860449433
y: 2.12869000435
z: 0.959271132946
doppler_bin: 32
target_idx: 2
posX: -0.229861587286
posY: 2.0180785656
posZ: 0.711091399193
velX: 0.0624919757247
velY: -0.143187463284
velZ: 0.502980947495
accX: 0.0
accY: 0.0
accZ: 0.0
---
header: 
  seq: 38530
  stamp: 
    secs: 1596613153
    nsecs: 198282897
  frame_id: "node1_radarinterface_radarscan"
range: 2.18883275986
angle: -0.102616280317
elev: 0.414784759283
doppler: -0.159006148577
snr: 290
noise: 389
frame_num: 3360
point_id: 25
x: -0.205203071237
y: 1.99268865585
z: 0.882084190845
doppler_bin: 30
target_idx: 2
posX: -0.229861587286
posY: 2.0180785656
posZ: 0.711091399193
velX: 0.0624919757247
velY: -0.143187463284
velZ: 0.502980947495
accX: 0.0
accY: 0.0
accZ: 0.0
---
header: 
  seq: 38531
  stamp: 
    secs: 1596613153
    nsecs: 198297423
  frame_id: "node1_radarinterface_radarscan"
range: 2.26700544357
angle: -0.102522283792
elev: 0.412705034018
doppler: -0.159006148577
snr: 314
noise: 395
frame_num: 3360
point_id: 26
x: -0.212531760335
y: 2.06576180458
z: 0.90927028656
doppler_bin: 30
target_idx: 2
posX: -0.229861587286
posY: 2.0180785656
posZ: 0.711091399193
velX: 0.0624919757247
velY: -0.143187463284
velZ: 0.502980947495
accX: 0.0
accY: 0.0
accZ: 0.0
---
header: 
  seq: 38532
  stamp: 
    secs: 1596613153
    nsecs: 198312203
  frame_id: "node1_radarinterface_radarscan"
range: 2.18883275986
angle: -0.102945625782
elev: 0.421966195107
doppler: -0.0795030742884
snr: 278
noise: 436
frame_num: 3360
point_id: 34
x: -0.205203071237
y: 1.98626852036
z: 0.896447360516
doppler_bin: 31
target_idx: 2
posX: -0.229861587286
posY: 2.0180785656
posZ: 0.711091399193
velX: 0.0624919757247
velY: -0.143187463284
velZ: 0.502980947495
accX: 0.0
accY: 0.0
accZ: 0.0
---
header: 
  seq: 38533
  stamp: 
    secs: 1596613153
    nsecs: 198324333
  frame_id: "node1_radarinterface_radarscan"
range: 2.34517812729
angle: -0.102761350572
elev: 0.41796797514
doppler: -0.0795030742884
snr: 247
noise: 461
frame_num: 3360
point_id: 36
x: -0.219860464334
y: 2.13198852539
z: 0.951917648315
doppler_bin: 31
target_idx: 2
posX: -0.229861587286
posY: 2.0180785656
posZ: 0.711091399193
velX: 0.0624919757247
velY: -0.143187463284
velZ: 0.502980947495
accX: 0.0
accY: 0.0
accZ: 0.0
---
header: 
  seq: 38534
  stamp: 
    secs: 1596613153
    nsecs: 297966597
  frame_id: "node1_radarinterface_radarscan"
range: 1.87614250183
angle: -0.130842491984
elev: 0.290577709675
doppler: 0.0
snr: 233
noise: 469
frame_num: 3361
point_id: 5
x: -0.234517812729
y: 1.78212738037
z: 0.537525653839
doppler_bin: 32
target_idx: 2
posX: -0.237303227186
posY: 1.98958563805
posZ: 0.698918819427
velX: 0.0229325145483
velY: -0.199435800314
velZ: 0.375976204872
accX: 0.0
accY: 0.0
accZ: 0.0
---
header: 
  seq: 38535
  stamp: 
    secs: 1596613153
    nsecs: 298095703
  frame_id: "node1_radarinterface_radarscan"
range: 2.03248763084
angle: -0.12934088707
elev: 0.249085426331
doppler: 0.0
snr: 247
noise: 469
frame_num: 3361
point_id: 7
x: -0.254060953856
y: 1.9533084631
z: 0.501044213772
doppler_bin: 32
target_idx: 2
posX: -0.237303227186
posY: 1.98958563805
posZ: 0.698918819427
velX: 0.0229325145483
velY: -0.199435800314
velZ: 0.375976204872
accX: 0.0
accY: 0.0
accZ: 0.0
---
header: 
  seq: 38536
  stamp: 
    secs: 1596613153
    nsecs: 298157408
  frame_id: "node1_radarinterface_radarscan"
range: 2.11066031456
angle: -0.158159136772
elev: 0.126100793481
doppler: 0.0
snr: 166
noise: 459
frame_num: 3361
point_id: 8
x: -0.329790711403
y: 2.06776714325
z: 0.265451133251
doppler_bin: 32
target_idx: 2
posX: -0.237303227186
posY: 1.98958563805
posZ: 0.698918819427
velX: 0.0229325145483
velY: -0.199435800314
velZ: 0.375976204872
accX: 0.0
accY: 0.0
accZ: 0.0
---
header: 
  seq: 38537
  stamp: 
    secs: 1596613153
    nsecs: 298177841
  frame_id: "node1_radarinterface_radarscan"
range: 2.18883275986
angle: -0.108193993568
elev: 0.51924932003
doppler: 0.0
snr: 159
noise: 470
frame_num: 3361
point_id: 9
x: -0.205203071237
y: 1.88921523094
z: 1.08616125584
doppler_bin: 32
target_idx: 2
posX: -0.237303227186
posY: 1.98958563805
posZ: 0.698918819427
velX: 0.0229325145483
velY: -0.199435800314
velZ: 0.375976204872
accX: 0.0
accY: 0.0
accZ: 0.0
---
header: 
  seq: 38538
  stamp: 
    secs: 1596613153
    nsecs: 298194082
  frame_id: "node1_radarinterface_radarscan"
range: 2.34517812729
angle: -0.107269778848
elev: 0.504030704498
doppler: 0.0
snr: 148
noise: 483
frame_num: 3361
point_id: 11
x: -0.219860434532
y: 2.04173517227
z: 1.13262462616
doppler_bin: 32
target_idx: 2
posX: -0.237303227186
posY: 1.98958563805
posZ: 0.698918819427
velX: 0.0229325145483
velY: -0.199435800314
velZ: 0.375976204872
accX: 0.0
accY: 0.0
accZ: 0.0
---
header: 
  seq: 38539
  stamp: 
    secs: 1596613153
    nsecs: 298227255
  frame_id: "node1_radarinterface_radarscan"
range: 1.95431506634
angle: -0.128909900784
elev: 0.235660269856
doppler: -0.159006148577
snr: 317
noise: 413
frame_num: 3361
point_id: 25
x: -0.244289398193
y: 1.88453114033
z: 0.456303358078
doppler_bin: 30
target_idx: 2
posX: -0.237303227186
posY: 1.98958563805
posZ: 0.698918819427
velX: 0.0229325145483
velY: -0.199435800314
velZ: 0.375976204872
accX: 0.0
accY: 0.0
accZ: 0.0
---
header: 
  seq: 38540
  stamp: 
    secs: 1596613153
    nsecs: 298248595
  frame_id: "node1_radarinterface_radarscan"
range: 2.03248763084
angle: -0.128244385123
elev: 0.213107183576
doppler: -0.159006148577
snr: 288
noise: 415
frame_num: 3361
point_id: 26
x: -0.254060953856
y: 1.97019636631
z: 0.429866671562
doppler_bin: 30
target_idx: 2
posX: -0.237303227186
posY: 1.98958563805
posZ: 0.698918819427
velX: 0.0229325145483
velY: -0.199435800314
velZ: 0.375976204872
accX: 0.0
accY: 0.0
accZ: 0.0
---
header: 
  seq: 38541
  stamp: 
    secs: 1596613153
    nsecs: 298265720
  frame_id: "node1_radarinterface_radarscan"
range: 2.26700544357
angle: -0.104571849108
elev: 0.455255270004
doppler: -0.159006148577
snr: 195
noise: 460
frame_num: 3361
point_id: 29
x: -0.212531760335
y: 2.02498579025
z: 0.996783256531
doppler_bin: 30
target_idx: 2
posX: -0.237303227186
posY: 1.98958563805
posZ: 0.698918819427
velX: 0.0229325145483
velY: -0.199435800314
velZ: 0.375976204872
accX: 0.0
accY: 0.0
accZ: 0.0
---
header: 
  seq: 38542
  stamp: 
    secs: 1596613153
    nsecs: 298278557
  frame_id: "node1_radarinterface_radarscan"
range: 2.34517812729
angle: -0.106838360429
elev: 0.496688425541
doppler: -0.159006148577
snr: 152
noise: 469
frame_num: 3361
point_id: 30
x: -0.219860464334
y: 2.05004358292
z: 1.11751663685
doppler_bin: 30
target_idx: 2
posX: -0.237303227186
posY: 1.98958563805
posZ: 0.698918819427
velX: 0.0229325145483
velY: -0.199435800314
velZ: 0.375976204872
accX: 0.0
accY: 0.0
accZ: 0.0
---
header: 
  seq: 38543
  stamp: 
    secs: 1596613153
    nsecs: 298291996
  frame_id: "node1_radarinterface_radarscan"
range: 1.79796981812
angle: -0.131866648793
elev: 0.315375030041
doppler: -0.0795030742884
snr: 175
noise: 450
frame_num: 3361
point_id: 36
x: -0.224746227264
y: 1.69445443153
z: 0.55768173933
doppler_bin: 31
target_idx: 2
posX: -0.237303227186
posY: 1.98958563805
posZ: 0.698918819427
velX: 0.0229325145483
velY: -0.199435800314
velZ: 0.375976204872
accX: 0.0
accY: 0.0
accZ: 0.0
---
header: 
  seq: 38544
  stamp: 
    secs: 1596613153
    nsecs: 298307175
  frame_id: "node1_radarinterface_radarscan"
range: 1.87614250183
angle: -0.130197972059
elev: 0.273637622595
doppler: -0.0795030742884
snr: 284
noise: 468
frame_num: 3361
point_id: 37
x: -0.23451782763
y: 1.79105079174
z: 0.50700032711
doppler_bin: 31
target_idx: 2
posX: -0.237303227186
posY: 1.98958563805
posZ: 0.698918819427
velX: 0.0229325145483
velY: -0.199435800314
velZ: 0.375976204872
accX: 0.0
accY: 0.0
accZ: 0.0
---
header: 
  seq: 38545
  stamp: 
    secs: 1596613153
    nsecs: 298318805
  frame_id: "node1_radarinterface_radarscan"
range: 1.95431506634
angle: -0.129464194179
elev: 0.252782046795
doppler: -0.0795030742884
snr: 310
noise: 481
frame_num: 3361
point_id: 38
x: -0.244289398193
y: 1.87637221813
z: 0.488771378994
doppler_bin: 31
target_idx: 2
posX: -0.237303227186
posY: 1.98958563805
posZ: 0.698918819427
velX: 0.0229325145483
velY: -0.199435800314
velZ: 0.375976204872
accX: 0.0
accY: 0.0
accZ: 0.0
---
header: 
  seq: 38546
  stamp: 
    secs: 1596613153
    nsecs: 298330484
  frame_id: "node1_radarinterface_radarscan"
range: 2.11066031456
angle: -0.15809430182
elev: 0.122851319611
doppler: -0.0795030742884
snr: 191
noise: 481
frame_num: 3361
point_id: 40
x: -0.329790681601
y: 2.06862926483
z: 0.258645653725
doppler_bin: 31
target_idx: 2
posX: -0.237303227186
posY: 1.98958563805
posZ: 0.698918819427
velX: 0.0229325145483
velY: -0.199435800314
velZ: 0.375976204872
accX: 0.0
accY: 0.0
accZ: 0.0
---
header: 
  seq: 38547
  stamp: 
    secs: 1596613153
    nsecs: 298342324
  frame_id: "node1_radarinterface_radarscan"
range: 2.26700544357
angle: -0.105154566467
elev: 0.466406643391
doppler: -0.0795030742884
snr: 207
noise: 518
frame_num: 3361
point_id: 42
x: -0.212531760335
y: 2.01368165016
z: 1.01942622662
doppler_bin: 31
target_idx: 2
posX: -0.237303227186
posY: 1.98958563805
posZ: 0.698918819427
velX: 0.0229325145483
velY: -0.199435800314
velZ: 0.375976204872
accX: 0.0
accY: 0.0
accZ: 0.0
---
header: 
  seq: 38548
  stamp: 
    secs: 1596613153
    nsecs: 401395324
  frame_id: "node1_radarinterface_radarscan"
range: 1.87614250183
angle: -0.130295068026
elev: 0.276265412569
doppler: 0.0
snr: 217
noise: 503
frame_num: 3362
point_id: 3
x: -0.234517812729
y: 1.78970074654
z: 0.511745214462
doppler_bin: 32
target_idx: 2
posX: -0.227495878935
posY: 1.97505736351
posZ: 0.679805159569
velX: 0.0464555807412
velY: -0.190214663744
velZ: 0.246149361134
accX: 0.0
accY: 0.0
accZ: 0.0
---
header: 
  seq: 38549
  stamp: 
    secs: 1596613153
    nsecs: 401449584
  frame_id: "node1_radarinterface_radarscan"
range: 2.03248763084
angle: -0.129757329822
elev: 0.261337220669
doppler: 0.0
snr: 224
noise: 497
frame_num: 3362
point_id: 5
x: -0.254060953856
y: 1.94696891308
z: 0.525139093399
doppler_bin: 32
target_idx: 2
posX: -0.227495878935
posY: 1.97505736351
posZ: 0.679805159569
velX: 0.0464555807412
velY: -0.190214663744
velZ: 0.246149361134
accX: 0.0
accY: 0.0
accZ: 0.0
---
header: 
  seq: 38550
  stamp: 
    secs: 1596613153
    nsecs: 401544076
  frame_id: "node1_radarinterface_radarscan"
range: 2.18883275986
angle: -0.102501168847
elev: 0.412235945463
doppler: 0.0
snr: 160
noise: 490
frame_num: 3362
point_id: 7
x: -0.205203056335
y: 1.99494218826
z: 0.876975476742
doppler_bin: 32
target_idx: 2
posX: -0.227495878935
posY: 1.97505736351
posZ: 0.679805159569
velX: 0.0464555807412
velY: -0.190214663744
velZ: 0.246149361134
accX: 0.0
accY: 0.0
accZ: 0.0
---
header: 
  seq: 38551
  stamp: 
    secs: 1596613153
    nsecs: 401564615
  frame_id: "node1_radarinterface_radarscan"
range: 2.26700544357
angle: -0.0681651979685
elev: 0.408794730902
doppler: 0.0
snr: 176
noise: 494
frame_num: 3362
point_id: 8
x: -0.141687825322
y: 2.07537436485
z: 0.901142954826
doppler_bin: 32
target_idx: 2
posX: -0.227495878935
posY: 1.97505736351
posZ: 0.679805159569
velX: 0.0464555807412
velY: -0.190214663744
velZ: 0.246149361134
accX: 0.0
accY: 0.0
accZ: 0.0
---
header: 
  seq: 38552
  stamp: 
    secs: 1596613153
    nsecs: 401609597
  frame_id: "node1_radarinterface_radarscan"
range: 2.34517812729
angle: -0.0335635617375
elev: 0.372984111309
doppler: 0.0
snr: 130
noise: 496
frame_num: 3362
point_id: 9
x: -0.0732868164778
y: 2.18270325661
z: 0.854573488235
doppler_bin: 32
target_idx: 2
posX: -0.227495878935
posY: 1.97505736351
posZ: 0.679805159569
velX: 0.0464555807412
velY: -0.190214663744
velZ: 0.246149361134
accX: 0.0
accY: 0.0
accZ: 0.0
---
header: 
  seq: 38553
  stamp: 
    secs: 1596613153
    nsecs: 401637075
  frame_id: "node1_radarinterface_radarscan"
range: 2.18883275986
angle: -0.0713422298431
elev: 0.501624524593
doppler: -0.159006148577
snr: 177
noise: 435
frame_num: 3362
point_id: 25
x: -0.136802047491
y: 1.9142922163
z: 1.05250144005
doppler_bin: 30
target_idx: 2
posX: -0.227495878935
posY: 1.97505736351
posZ: 0.679805159569
velX: 0.0464555807412
velY: -0.190214663744
velZ: 0.246149361134
accX: 0.0
accY: 0.0
accZ: 0.0
---
header: 
  seq: 38554
  stamp: 
    secs: 1596613153
    nsecs: 401742759
  frame_id: "node1_radarinterface_radarscan"
range: 2.26700544357
angle: -0.0346523150802
elev: 0.446425437927
doppler: -0.159006148577
snr: 172
noise: 465
frame_num: 3362
point_id: 26
x: -0.0708439126611
y: 2.04360246658
z: 0.978766143322
doppler_bin: 30
target_idx: 2
posX: -0.227495878935
posY: 1.97505736351
posZ: 0.679805159569
velX: 0.0464555807412
velY: -0.190214663744
velZ: 0.246149361134
accX: 0.0
accY: 0.0
accZ: 0.0
---
header: 
  seq: 38555
  stamp: 
    secs: 1596613153
    nsecs: 401759692
  frame_id: "node1_radarinterface_radarscan"
range: 1.95431506634
angle: -0.129054889083
elev: 0.240269124508
doppler: -0.0795030742884
snr: 319
noise: 481
frame_num: 3362
point_id: 34
x: -0.244289383292
y: 1.88239002228
z: 0.465056687593
doppler_bin: 31
target_idx: 2
posX: -0.227495878935
posY: 1.97505736351
posZ: 0.679805159569
velX: 0.0464555807412
velY: -0.190214663744
velZ: 0.246149361134
accX: 0.0
accY: 0.0
accZ: 0.0
---
header: 
  seq: 38556
  stamp: 
    secs: 1596613153
    nsecs: 401776119
  frame_id: "node1_radarinterface_radarscan"
range: 2.11066031456
angle: -0.128371909261
elev: 0.217625439167
doppler: -0.0795030742884
snr: 210
noise: 475
frame_num: 3362
point_id: 36
x: -0.26383253932
y: 2.0439183712
z: 0.455716222525
doppler_bin: 31
target_idx: 2
posX: -0.227495878935
posY: 1.97505736351
posZ: 0.679805159569
velX: 0.0464555807412
velY: -0.190214663744
velZ: 0.246149361134
accX: 0.0
accY: 0.0
accZ: 0.0
---
header: 
  seq: 38557
  stamp: 
    secs: 1596613153
    nsecs: 401788971
  frame_id: "node1_radarinterface_radarscan"
range: 2.18883275986
angle: -0.104158103466
elev: 0.447102725506
doppler: -0.0795030742884
snr: 200
noise: 490
frame_num: 3362
point_id: 37
x: -0.205203071237
y: 1.96298182011
z: 0.946352481842
doppler_bin: 31
target_idx: 2
posX: -0.227495878935
posY: 1.97505736351
posZ: 0.679805159569
velX: 0.0464555807412
velY: -0.190214663744
velZ: 0.246149361134
accX: 0.0
accY: 0.0
accZ: 0.0
---
header: 
  seq: 38558
  stamp: 
    secs: 1596613153
    nsecs: 401801671
  frame_id: "node1_radarinterface_radarscan"
range: 2.26700544357
angle: -0.0683897808194
elev: 0.416298449039
doppler: -0.0795030742884
snr: 200
noise: 512
frame_num: 3362
point_id: 38
x: -0.141687840223
y: 2.06853818893
z: 0.916726708412
doppler_bin: 31
target_idx: 2
posX: -0.227495878935
posY: 1.97505736351
posZ: 0.679805159569
velX: 0.0464555807412
velY: -0.190214663744
velZ: 0.246149361134
accX: 0.0
accY: 0.0
accZ: 0.0
---
header: 
  seq: 38559
  stamp: 
    secs: 1596613153
    nsecs: 503876873
  frame_id: "node1_radarinterface_radarscan"
range: 1.87614250183
angle: -0.159235954285
elev: 0.171045765281
doppler: 0.0
snr: 146
noise: 512
frame_num: 3363
point_id: 3
x: -0.293147265911
y: 1.82537531853
z: 0.319343745708
doppler_bin: 32
target_idx: 2
posX: -0.234042063355
posY: 1.99666488171
posZ: 0.581175148487
velX: 0.0160487666726
velY: -0.064655482769
velZ: -0.0964291244745
accX: 0.0
accY: 0.0
accZ: 0.0
---
header: 
  seq: 38560
  stamp: 
    secs: 1596613153
    nsecs: 504005741
  frame_id: "node1_radarinterface_radarscan"
range: 2.03248763084
angle: -0.158357590437
elev: 0.135551452637
doppler: 0.0
snr: 154
noise: 495
frame_num: 3363
point_id: 5
x: -0.31757619977
y: 1.98864555359
z: 0.274663716555
doppler_bin: 32
target_idx: 2
posX: -0.234042063355
posY: 1.99666488171
posZ: 0.581175148487
velX: 0.0160487666726
velY: -0.064655482769
velZ: -0.0964291244745
accX: 0.0
accY: 0.0
accZ: 0.0
---
header: 
  seq: 38561
  stamp: 
    secs: 1596613153
    nsecs: 504038777
  frame_id: "node1_radarinterface_radarscan"
range: 1.95431506634
angle: -0.12673035264
elev: 0.148518383503
doppler: -0.0795030742884
snr: 209
noise: 508
frame_num: 3363
point_id: 29
x: -0.244289398193
y: 1.91730058193
z: 0.289185851812
doppler_bin: 31
target_idx: 2
posX: -0.234042063355
posY: 1.99666488171
posZ: 0.581175148487
velX: 0.0160487666726
velY: -0.064655482769
velZ: -0.0964291244745
accX: 0.0
accY: 0.0
accZ: 0.0
---
header: 
  seq: 38562
  stamp: 
    secs: 1596613153
    nsecs: 504075606
  frame_id: "node1_radarinterface_radarscan"
range: 2.03248763084
angle: -0.158534198999
elev: 0.143424332142
doppler: -0.0795030742884
snr: 172
noise: 503
frame_num: 3363
point_id: 30
x: -0.31757619977
y: 1.98639261723
z: 0.290509790182
doppler_bin: 31
target_idx: 2
posX: -0.234042063355
posY: 1.99666488171
posZ: 0.581175148487
velX: 0.0160487666726
velY: -0.064655482769
velZ: -0.0964291244745
accX: 0.0
accY: 0.0
accZ: 0.0
---
header: 
  seq: 38563
  stamp: 
    secs: 1596613153
    nsecs: 602195785
  frame_id: "node1_radarinterface_radarscan"
range: 1.95431506634
angle: -0.160671845078
elev: 0.216404229403
doppler: 0.0
snr: 129
noise: 455
frame_num: 3364
point_id: 3
x: -0.305361717939
y: 1.88414788246
z: 0.419628798962
doppler_bin: 32
target_idx: 2
posX: -0.258000105619
posY: 1.99047100544
posZ: 0.543477714062
velX: -0.0720379650593
velY: -0.0582469962537
velZ: -0.213978588581
accX: 0.0
accY: 0.0
accZ: 0.0
---
header: 
  seq: 38564
  stamp: 
    secs: 1596613153
    nsecs: 602270848
  frame_id: "node1_radarinterface_radarscan"
range: 1.95431506634
angle: -0.159138262272
elev: 0.167485237122
doppler: -0.159006148577
snr: 133
noise: 438
frame_num: 3364
point_id: 8
x: -0.305361717939
y: 1.90261983871
z: 0.325790792704
doppler_bin: 30
target_idx: 2
posX: -0.258000105619
posY: 1.99047100544
posZ: 0.543477714062
velX: -0.0720379650593
velY: -0.0582469962537
velZ: -0.213978588581
accX: 0.0
accY: 0.0
accZ: 0.0
---
header: 
  seq: 38565
  stamp: 
    secs: 1596613153
    nsecs: 602317641
  frame_id: "node1_radarinterface_radarscan"
range: 2.03248763084
angle: -0.16020809114
elev: 0.202937871218
doppler: -0.159006148577
snr: 132
noise: 443
frame_num: 3364
point_id: 9
x: -0.31757619977
y: 1.96528458595
z: 0.409643381834
doppler_bin: 30
target_idx: 2
posX: -0.258000105619
posY: 1.99047100544
posZ: 0.543477714062
velX: -0.0720379650593
velY: -0.0582469962537
velZ: -0.213978588581
accX: 0.0
accY: 0.0
accZ: 0.0
---
header: 
  seq: 38566
  stamp: 
    secs: 1596613154
    nsecs:    870825
  frame_id: "node1_radarinterface_radarscan"
range: 1.87614250183
angle: -0.127617374063
elev: 0.1892041713
doppler: 0.0795030742884
snr: 195
noise: 468
frame_num: 3368
point_id: 7
x: -0.234517812729
y: 1.82767665386
z: 0.352859854698
doppler_bin: 33
target_idx: 2
posX: -0.252950787544
posY: 1.98691773415
posZ: 0.451003730297
velX: -0.0440895706415
velY: 0.004180572927
velZ: -0.425006181002
accX: 0.0
accY: 0.0
accZ: 0.0
---
header: 
  seq: 38567
  stamp: 
    secs: 1596613154
    nsecs:    972182
  frame_id: "node1_radarinterface_radarscan"
range: 1.95431506634
angle: -0.127746775746
elev: 0.194394722581
doppler: 0.0795030742884
snr: 192
noise: 484
frame_num: 3368
point_id: 8
x: -0.244289398193
y: 1.90188026428
z: 0.377520292997
doppler_bin: 33
target_idx: 2
posX: -0.252950787544
posY: 1.98691773415
posZ: 0.451003730297
velX: -0.0440895706415
velY: 0.004180572927
velZ: -0.425006181002
accX: 0.0
accY: 0.0
accZ: 0.0
---
header: 
  seq: 38568
  stamp: 
    secs: 1596613154
    nsecs:    992027
  frame_id: "node1_radarinterface_radarscan"
range: 2.03248763084
angle: -0.0959724336863
elev: 0.208491921425
doppler: 0.0795030742884
snr: 122
noise: 497
frame_num: 3368
point_id: 9
x: -0.190545722842
y: 1.97932183743
z: 0.420693874359
doppler_bin: 33
target_idx: 2
posX: -0.252950787544
posY: 1.98691773415
posZ: 0.451003730297
velX: -0.0440895706415
velY: 0.004180572927
velZ: -0.425006181002
accX: 0.0
accY: 0.0
accZ: 0.0
---
header: 
  seq: 38569
  stamp: 
    secs: 1596613154
    nsecs:   1022482
  frame_id: "node1_radarinterface_radarscan"
range: 1.95431506634
angle: -0.127982541919
elev: 0.203490450978
doppler: 0.159006148577
snr: 169
noise: 440
frame_num: 3368
point_id: 11
x: -0.244289398193
y: 1.89833831787
z: 0.394945561886
doppler_bin: 34
target_idx: 2
posX: -0.252950787544
posY: 1.98691773415
posZ: 0.451003730297
velX: -0.0440895706415
velY: 0.004180572927
velZ: -0.425006181002
accX: 0.0
accY: 0.0
accZ: 0.0
---
header: 
  seq: 38570
  stamp: 
    secs: 1596613154
    nsecs: 102421223
  frame_id: "node1_radarinterface_radarscan"
range: 1.95431506634
angle: -0.168224364519
elev: 0.367539077997
doppler: 0.0795030742884
snr: 115
noise: 482
frame_num: 3369
point_id: 11
x: -0.305361717939
y: 1.79804956913
z: 0.702224373817
doppler_bin: 33
target_idx: 2
posX: -0.264278948307
posY: 1.97995460033
posZ: 0.429382801056
velX: -0.072572901845
velY: 0.00601766724139
velZ: -0.432069003582
accX: 0.0
accY: 0.0
accZ: 0.0
---
header: 
  seq: 38571
  stamp: 
    secs: 1596613154
    nsecs: 297052790
  frame_id: "node1_radarinterface_radarscan"
range: 1.95431506634
angle: -0.128610208631
elev: 0.225807368755
doppler: 0.0795030742884
snr: 145
noise: 470
frame_num: 3371
point_id: 5
x: -0.244289398193
y: 1.88897144794
z: 0.437558054924
doppler_bin: 33
target_idx: 2
posX: -0.264138430357
posY: 1.97618973255
posZ: 0.379204630852
velX: -0.0636957138777
velY: 0.00980150979012
velZ: -0.502958297729
accX: 0.0
accY: 0.0
accZ: 0.0
---
header: 
  seq: 38572
  stamp: 
    secs: 1596613154
    nsecs: 297138564
  frame_id: "node1_radarinterface_radarscan"
range: 1.95431506634
angle: -0.127160951495
elev: 0.169552922249
doppler: -0.0795030742884
snr: 155
noise: 476
frame_num: 3371
point_id: 9
x: -0.244289368391
y: 1.91073775291
z: 0.329774439335
doppler_bin: 31
target_idx: 2
posX: -0.264138430357
posY: 1.97618973255
posZ: 0.379204630852
velX: -0.0636957138777
velY: 0.00980150979012
velZ: -0.502958297729
accX: 0.0
accY: 0.0
accZ: 0.0
---
header: 
  seq: 38573
  stamp: 
    secs: 1596613154
    nsecs: 400910209
  frame_id: "node1_radarinterface_radarscan"
range: 1.87614250183
angle: -0.13294711709
elev: 0.339266955853
doppler: 0.0
snr: 150
noise: 421
frame_num: 3372
point_id: 0
x: -0.234517797828
y: 1.7535879612
z: 0.624372601509
doppler_bin: 32
target_idx: 2
posX: -0.25880548358
posY: 1.92564594746
posZ: 0.509351372719
velX: -0.0536947660148
velY: -0.0523005202413
velZ: -0.154694795609
accX: 0.0
accY: 0.0
accZ: 0.0
---
header: 
  seq: 38574
  stamp: 
    secs: 1596613154
    nsecs: 400983301
  frame_id: "node1_radarinterface_radarscan"
range: 1.95431506634
angle: -0.133297964931
elev: 0.346604704857
doppler: 0.0795030742884
snr: 146
noise: 453
frame_num: 3372
point_id: 5
x: -0.244289383292
y: 1.82178914547
z: 0.663893342018
doppler_bin: 33
target_idx: 2
posX: -0.25880548358
posY: 1.92564594746
posZ: 0.509351372719
velX: -0.0536947660148
velY: -0.0523005202413
velZ: -0.154694795609
accX: 0.0
accY: 0.0
accZ: 0.0
---
header: 
  seq: 38575
  stamp: 
    secs: 1596613154
    nsecs: 401390102
  frame_id: "node1_radarinterface_radarscan"
range: 1.87614250183
angle: -0.132564738393
elev: 0.331045717001
doppler: -0.159006148577
snr: 130
noise: 428
frame_num: 3372
point_id: 7
x: -0.234517812729
y: 1.75870633125
z: 0.609806597233
doppler_bin: 30
target_idx: 2
posX: -0.25880548358
posY: 1.92564594746
posZ: 0.509351372719
velX: -0.0536947660148
velY: -0.0523005202413
velZ: -0.154694795609
accX: 0.0
accY: 0.0
accZ: 0.0
---
header: 
  seq: 38576
  stamp: 
    secs: 1596613154
    nsecs: 401485924
  frame_id: "node1_radarinterface_radarscan"
range: 1.95431506634
angle: -0.131201431155
elev: 0.299539893866
doppler: -0.159006148577
snr: 165
noise: 422
frame_num: 3372
point_id: 8
x: -0.244289383292
y: 1.8512455225
z: 0.576680481434
doppler_bin: 30
target_idx: 2
posX: -0.25880548358
posY: 1.92564594746
posZ: 0.509351372719
velX: -0.0536947660148
velY: -0.0523005202413
velZ: -0.154694795609
accX: 0.0
accY: 0.0
accZ: 0.0
---
header: 
  seq: 38577
  stamp: 
    secs: 1596613154
    nsecs: 401525026
  frame_id: "node1_radarinterface_radarscan"
range: 2.03248763084
angle: -0.12935629487
elev: 0.249550640583
doppler: -0.159006148577
snr: 134
noise: 416
frame_num: 3372
point_id: 9
x: -0.254060953856
y: 1.95307314396
z: 0.501960515976
doppler_bin: 30
target_idx: 2
posX: -0.25880548358
posY: 1.92564594746
posZ: 0.509351372719
velX: -0.0536947660148
velY: -0.0523005202413
velZ: -0.154694795609
accX: 0.0
accY: 0.0
accZ: 0.0
---
header: 
  seq: 38578
  stamp: 
    secs: 1596613154
    nsecs: 401592728
  frame_id: "node1_radarinterface_radarscan"
range: 1.95431506634
angle: -0.131907120347
elev: 0.316308617592
doppler: -0.0795030742884
snr: 194
noise: 470
frame_num: 3372
point_id: 15
x: -0.244289383292
y: 1.84122657776
z: 0.607910096645
doppler_bin: 31
target_idx: 2
posX: -0.25880548358
posY: 1.92564594746
posZ: 0.509351372719
velX: -0.0536947660148
velY: -0.0523005202413
velZ: -0.154694795609
accX: 0.0
accY: 0.0
accZ: 0.0
---
header: 
  seq: 38579
  stamp: 
    secs: 1596613154
    nsecs: 500859769
  frame_id: "node1_radarinterface_radarscan"
range: 1.95431506634
angle: -0.128662511706
elev: 0.227560803294
doppler: 0.0
snr: 219
noise: 468
frame_num: 3373
point_id: 3
x: -0.244289368391
y: 1.88819479942
z: 0.440897166729
doppler_bin: 32
target_idx: 2
posX: -0.259512484074
posY: 1.91773343086
posZ: 0.444762825966
velX: -0.0530974082649
velY: -0.0146292410791
velZ: -0.273171782494
accX: 0.0
accY: 0.0
accZ: 0.0
---
header: 
  seq: 38580
  stamp: 
    secs: 1596613154
    nsecs: 500943286
  frame_id: "node1_radarinterface_radarscan"
range: 2.11066031456
angle: -0.126700758934
elev: 0.146957442164
doppler: 0.0
snr: 112
noise: 464
frame_num: 3373
point_id: 5
x: -0.263832569122
y: 2.07117366791
z: 0.309062004089
doppler_bin: 32
target_idx: 2
posX: -0.259512484074
posY: 1.91773343086
posZ: 0.444762825966
velX: -0.0530974082649
velY: -0.0146292410791
velZ: -0.273171782494
accX: 0.0
accY: 0.0
accZ: 0.0
---
header: 
  seq: 38581
  stamp: 
    secs: 1596613154
    nsecs: 500956387
  frame_id: "node1_radarinterface_radarscan"
range: 2.03248763084
angle: -0.126904129982
elev: 0.15736065805
doppler: 0.0795030742884
snr: 211
noise: 495
frame_num: 3373
point_id: 12
x: -0.254060953856
y: 1.99123263359
z: 0.318515241146
doppler_bin: 33
target_idx: 2
posX: -0.259512484074
posY: 1.91773343086
posZ: 0.444762825966
velX: -0.0530974082649
velY: -0.0146292410791
velZ: -0.273171782494
accX: 0.0
accY: 0.0
accZ: 0.0
---
header: 
  seq: 38582
  stamp: 
    secs: 1596613154
    nsecs: 500970019
  frame_id: "node1_radarinterface_radarscan"
range: 2.03248763084
angle: -0.127280265093
elev: 0.174914509058
doppler: 0.159006148577
snr: 184
noise: 430
frame_num: 3373
point_id: 15
x: -0.254060983658
y: 1.98528456688
z: 0.353701531887
doppler_bin: 34
target_idx: 2
posX: -0.259512484074
posY: 1.91773343086
posZ: 0.444762825966
velX: -0.0530974082649
velY: -0.0146292410791
velZ: -0.273171782494
accX: 0.0
accY: 0.0
accZ: 0.0
---
header: 
  seq: 38583
  stamp: 
    secs: 1596613154
    nsecs: 501034203
  frame_id: "node1_radarinterface_radarscan"
range: 1.87614250183
angle: -0.128878772259
elev: 0.234658136964
doppler: -0.159006148577
snr: 205
noise: 473
frame_num: 3373
point_id: 17
x: -0.234517797828
y: 1.80959153175
z: 0.436222851276
doppler_bin: 30
target_idx: 2
posX: -0.259512484074
posY: 1.91773343086
posZ: 0.444762825966
velX: -0.0530974082649
velY: -0.0146292410791
velZ: -0.273171782494
accX: 0.0
accY: 0.0
accZ: 0.0
---
header: 
  seq: 38584
  stamp: 
    secs: 1596613154
    nsecs: 501047033
  frame_id: "node1_radarinterface_radarscan"
range: 1.95431506634
angle: -0.128668576479
elev: 0.227763101459
doppler: -0.159006148577
snr: 218
noise: 475
frame_num: 3373
point_id: 18
x: -0.244289383292
y: 1.88810491562
z: 0.441282302141
doppler_bin: 30
target_idx: 2
posX: -0.259512484074
posY: 1.91773343086
posZ: 0.444762825966
velX: -0.0530974082649
velY: -0.0146292410791
velZ: -0.273171782494
accX: 0.0
accY: 0.0
accZ: 0.0
---
header: 
  seq: 38585
  stamp: 
    secs: 1596613154
    nsecs: 501060603
  frame_id: "node1_radarinterface_radarscan"
range: 1.79796981812
angle: -0.130291163921
elev: 0.276160359383
doppler: -0.0795030742884
snr: 139
noise: 484
frame_num: 3373
point_id: 25
x: -0.224746212363
y: 1.71518170834
z: 0.490240752697
doppler_bin: 31
target_idx: 2
posX: -0.259512484074
posY: 1.91773343086
posZ: 0.444762825966
velX: -0.0530974082649
velY: -0.0146292410791
velZ: -0.273171782494
accX: 0.0
accY: 0.0
accZ: 0.0
---
header: 
  seq: 38586
  stamp: 
    secs: 1596613154
    nsecs: 501150938
  frame_id: "node1_radarinterface_radarscan"
range: 1.87614250183
angle: -0.129689186811
elev: 0.259376674891
doppler: -0.0795030742884
snr: 212
noise: 499
frame_num: 3373
point_id: 26
x: -0.234517812729
y: 1.79815709591
z: 0.481189519167
doppler_bin: 31
target_idx: 2
posX: -0.259512484074
posY: 1.91773343086
posZ: 0.444762825966
velX: -0.0530974082649
velY: -0.0146292410791
velZ: -0.273171782494
accX: 0.0
accY: 0.0
accZ: 0.0
---
header: 
  seq: 38587
  stamp: 
    secs: 1596613154
    nsecs: 501162742
  frame_id: "node1_radarinterface_radarscan"
range: 2.03248763084
angle: -0.128318160772
elev: 0.21573369205
doppler: -0.0795030742884
snr: 180
noise: 499
frame_num: 3373
point_id: 28
x: -0.254060953856
y: 1.96905100346
z: 0.435082793236
doppler_bin: 31
target_idx: 2
posX: -0.259512484074
posY: 1.91773343086
posZ: 0.444762825966
velX: -0.0530974082649
velY: -0.0146292410791
velZ: -0.273171782494
accX: 0.0
accY: 0.0
accZ: 0.0
---
header: 
  seq: 38588
  stamp: 
    secs: 1596613154
    nsecs: 602143143
  frame_id: "node1_radarinterface_radarscan"
range: 1.87614250183
angle: -0.128650784492
elev: 0.227168753743
doppler: 0.0
snr: 180
noise: 457
frame_num: 3374
point_id: 3
x: -0.23451782763
y: 1.81283426285
z: 0.422544658184
doppler_bin: 32
target_idx: 2
posX: -0.24662707746
posY: 1.92640423775
posZ: 0.387639284134
velX: -0.0100483447313
velY: 0.0651100799441
velZ: -0.36630153656
accX: 0.0
accY: 0.0
accZ: 0.0
---
header: 
  seq: 38589
  stamp: 
    secs: 1596613154
    nsecs: 602219434
  frame_id: "node1_radarinterface_radarscan"
range: 2.03248763084
angle: -0.0940121486783
elev: 0.0513473637402
doppler: 0.0
snr: 148
noise: 470
frame_num: 3374
point_id: 5
x: -0.190545707941
y: 2.02084541321
z: 0.10431702435
doppler_bin: 32
target_idx: 2
posX: -0.24662707746
posY: 1.92640423775
posZ: 0.387639284134
velX: -0.0100483447313
velY: 0.0651100799441
velZ: -0.36630153656
accX: 0.0
accY: 0.0
accZ: 0.0
---
header: 
  seq: 38590
  stamp: 
    secs: 1596613154
    nsecs: 602232554
  frame_id: "node1_radarinterface_radarscan"
range: 1.95431506634
angle: -0.127184420824
elev: 0.170621201396
doppler: 0.0795030742884
snr: 196
noise: 488
frame_num: 3374
point_id: 7
x: -0.244289383292
y: 1.91038155556
z: 0.331832081079
doppler_bin: 33
target_idx: 2
posX: -0.24662707746
posY: 1.92640423775
posZ: 0.387639284134
velX: -0.0100483447313
velY: 0.0651100799441
velZ: -0.36630153656
accX: 0.0
accY: 0.0
accZ: 0.0
---
header: 
  seq: 38591
  stamp: 
    secs: 1596613154
    nsecs: 602257722
  frame_id: "node1_radarinterface_radarscan"
range: 2.03248763084
angle: -0.126910343766
elev: 0.157667279243
doppler: 0.0795030742884
snr: 209
noise: 485
frame_num: 3374
point_id: 8
x: -0.254060953856
y: 1.99113404751
z: 0.31913074851
doppler_bin: 33
target_idx: 2
posX: -0.24662707746
posY: 1.92640423775
posZ: 0.387639284134
velX: -0.0100483447313
velY: 0.0651100799441
velZ: -0.36630153656
accX: 0.0
accY: 0.0
accZ: 0.0
---
header: 
  seq: 38592
  stamp: 
    secs: 1596613154
    nsecs: 602282188
  frame_id: "node1_radarinterface_radarscan"
range: 2.11066031456
angle: -0.0948330536485
elev: 0.14109416306
doppler: 0.0795030742884
snr: 156
noise: 481
frame_num: 3374
point_id: 9
x: -0.197874411941
y: 2.08029651642
z: 0.296814739704
doppler_bin: 33
target_idx: 2
posX: -0.24662707746
posY: 1.92640423775
posZ: 0.387639284134
velX: -0.0100483447313
velY: 0.0651100799441
velZ: -0.36630153656
accX: 0.0
accY: 0.0
accZ: 0.0
---
header: 
  seq: 38593
  stamp: 
    secs: 1596613154
    nsecs: 602298275
  frame_id: "node1_radarinterface_radarscan"
range: 1.95431506634
angle: -0.128040969372
elev: 0.205678135157
doppler: 0.159006148577
snr: 213
noise: 455
frame_num: 3374
point_id: 12
x: -0.244289398193
y: 1.89746248722
z: 0.399131804705
doppler_bin: 34
target_idx: 2
posX: -0.24662707746
posY: 1.92640423775
posZ: 0.387639284134
velX: -0.0100483447313
velY: 0.0651100799441
velZ: -0.36630153656
accX: 0.0
accY: 0.0
accZ: 0.0
---
header: 
  seq: 38594
  stamp: 
    secs: 1596613154
    nsecs: 602323744
  frame_id: "node1_radarinterface_radarscan"
range: 1.87614250183
angle: -0.127669528127
elev: 0.19131398201
doppler: -0.159006148577
snr: 169
noise: 474
frame_num: 3374
point_id: 17
x: -0.23451782763
y: 1.82692193985
z: 0.356746733189
doppler_bin: 30
target_idx: 2
posX: -0.24662707746
posY: 1.92640423775
posZ: 0.387639284134
velX: -0.0100483447313
velY: 0.0651100799441
velZ: -0.36630153656
accX: 0.0
accY: 0.0
accZ: 0.0
---
header: 
  seq: 38595
  stamp: 
    secs: 1596613154
    nsecs: 602373548
  frame_id: "node1_radarinterface_radarscan"
range: 1.95431506634
angle: -0.0955610498786
elev: 0.187125995755
doppler: -0.159006148577
snr: 179
noise: 475
frame_num: 3374
point_id: 18
x: -0.183217033744
y: 1.91143763065
z: 0.363572627306
doppler_bin: 30
target_idx: 2
posX: -0.24662707746
posY: 1.92640423775
posZ: 0.387639284134
velX: -0.0100483447313
velY: 0.0651100799441
velZ: -0.36630153656
accX: 0.0
accY: 0.0
accZ: 0.0
---
header: 
  seq: 38596
  stamp: 
    secs: 1596613154
    nsecs: 602397514
  frame_id: "node1_radarinterface_radarscan"
range: 1.79796981812
angle: -0.128384366632
elev: 0.218061491847
doppler: -0.0795030742884
snr: 124
noise: 479
frame_num: 3374
point_id: 21
x: -0.224746242166
y: 1.74094462395
z: 0.388968169689
doppler_bin: 31
target_idx: 2
posX: -0.24662707746
posY: 1.92640423775
posZ: 0.387639284134
velX: -0.0100483447313
velY: 0.0651100799441
velZ: -0.36630153656
accX: 0.0
accY: 0.0
accZ: 0.0
---
header: 
  seq: 38597
  stamp: 
    secs: 1596613154
    nsecs: 602413500
  frame_id: "node1_radarinterface_radarscan"
range: 2.11066031456
angle: -0.0955436304212
elev: 0.186163440347
doppler: -0.0795030742884
snr: 127
noise: 483
frame_num: 3374
point_id: 25
x: -0.197874397039
y: 2.06473135948
z: 0.390662103891
doppler_bin: 31
target_idx: 2
posX: -0.24662707746
posY: 1.92640423775
posZ: 0.387639284134
velX: -0.0100483447313
velY: 0.0651100799441
velZ: -0.36630153656
accX: 0.0
accY: 0.0
accZ: 0.0
---
header: 
  seq: 38598
  stamp: 
    secs: 1596613154
    nsecs: 702157554
  frame_id: "node1_radarinterface_radarscan"
range: 1.95431506634
angle: -0.0945203080773
elev: 0.115573838353
doppler: 0.397515356541
snr: 161
noise: 426
frame_num: 3375
point_id: 12
x: -0.183217033744
y: 1.9326120615
z: 0.225365191698
doppler_bin: 37
target_idx: 2
posX: -0.244732990861
posY: 1.93806111813
posZ: 0.343304693699
velX: -0.00168488454074
velY: 0.12047560513
velZ: -0.415640950203
accX: 0.0
accY: 0.0
accZ: 0.0
---
header: 
  seq: 38599
  stamp: 
    secs: 1596613154
    nsecs: 797977631
  frame_id: "node1_radarinterface_radarscan"
range: 1.95431506634
angle: -0.064358599484
elev: 0.238082781434
doppler: 0.0
snr: 167
noise: 495
frame_num: 3376
point_id: 5
x: -0.122144691646
y: 1.89525568485
z: 0.460905522108
doppler_bin: 32
target_idx: 2
posX: -0.179943740368
posY: 1.95204401016
posZ: 0.406618028879
velX: 0.203932777047
velY: 0.163715392351
velZ: -0.163363724947
accX: 0.0
accY: 0.0
accZ: 0.0
---
header: 
  seq: 38600
  stamp: 
    secs: 1596613154
    nsecs: 798107956
  frame_id: "node1_radarinterface_radarscan"
range: 2.11066031456
angle: -0.0645439401269
elev: 0.249624714255
doppler: 0.0
snr: 121
noise: 487
frame_num: 3376
point_id: 7
x: -0.13191626966
y: 2.0409822464
z: 0.521418213844
doppler_bin: 32
target_idx: 2
posX: -0.179943740368
posY: 1.95204401016
posZ: 0.406618028879
velX: 0.203932777047
velY: 0.163715392351
velZ: -0.163363724947
accX: 0.0
accY: 0.0
accZ: 0.0
---
header: 
  seq: 38601
  stamp: 
    secs: 1596613154
    nsecs: 798162457
  frame_id: "node1_radarinterface_radarscan"
range: 2.42335057259
angle: -0.0942765772343
elev: 0.0907047614455
doppler: 0.0
snr: 120
noise: 471
frame_num: 3376
point_id: 8
x: -0.227189108729
y: 2.40267133713
z: 0.21950815618
doppler_bin: 32
target_idx: 2
posX: -0.179943740368
posY: 1.95204401016
posZ: 0.406618028879
velX: 0.203932777047
velY: 0.163715392351
velZ: -0.163363724947
accX: 0.0
accY: 0.0
accZ: 0.0
---
header: 
  seq: 38602
  stamp: 
    secs: 1596613154
    nsecs: 798190755
  frame_id: "node1_radarinterface_radarscan"
range: 1.95431506634
angle: -0.0646675601602
elev: 0.257005780935
doppler: 0.0795030742884
snr: 224
noise: 511
frame_num: 3376
point_id: 15
x: -0.122144684196
y: 1.88617551327
z: 0.496759176254
doppler_bin: 33
target_idx: 2
posX: -0.179943740368
posY: 1.95204401016
posZ: 0.406618028879
velX: 0.203932777047
velY: 0.163715392351
velZ: -0.163363724947
accX: 0.0
accY: 0.0
accZ: 0.0
---
header: 
  seq: 38603
  stamp: 
    secs: 1596613154
    nsecs: 798219895
  frame_id: "node1_radarinterface_radarscan"
range: 2.11066031456
angle: -0.0971782654524
elev: 0.260575085878
doppler: 0.0795030742884
snr: 171
noise: 511
frame_num: 3376
point_id: 17
x: -0.197874411941
y: 2.02978658676
z: 0.543782651424
doppler_bin: 33
target_idx: 2
posX: -0.179943740368
posY: 1.95204401016
posZ: 0.406618028879
velX: 0.203932777047
velY: 0.163715392351
velZ: -0.163363724947
accX: 0.0
accY: 0.0
accZ: 0.0
---
header: 
  seq: 38604
  stamp: 
    secs: 1596613154
    nsecs: 798279230
  frame_id: "node1_radarinterface_radarscan"
range: 2.42335057259
angle: -0.0957673192024
elev: 0.198146298528
doppler: 0.0795030742884
snr: 125
noise: 504
frame_num: 3376
point_id: 18
x: -0.227189108729
y: 2.36504626274
z: 0.477041989565
doppler_bin: 33
target_idx: 2
posX: -0.179943740368
posY: 1.95204401016
posZ: 0.406618028879
velX: 0.203932777047
velY: 0.163715392351
velZ: -0.163363724947
accX: 0.0
accY: 0.0
accZ: 0.0
---
header: 
  seq: 38605
