header: 
  seq: 8301
  stamp: 
    secs: 1596615770
    nsecs: 419545321
  frame_id: "node1_radarinterface_radarscan"
range: 2.34517812729
angle: -0.0321693345904
elev: 0.238939210773
doppler: 0.0
snr: 168
noise: 441
frame_num: 788
point_id: 2
x: -0.0732868164778
y: 2.27737164497
z: 0.555038273335
doppler_bin: 32
target_idx: 5
posX: -0.0332112982869
posY: 2.58245038986
posZ: 0.445796877146
velX: -0.181125625968
velY: -0.0506488084793
velZ: 0.156230166554
accX: 0.0
accY: 0.0
accZ: 0.0
---
header: 
  seq: 8302
  stamp: 
    secs: 1596615770
    nsecs: 419574712
  frame_id: "node1_radarinterface_radarscan"
range: 2.5015232563
angle: -0.0313268937171
elev: 0.0677087754011
doppler: 0.0
snr: 147
noise: 449
frame_num: 788
point_id: 4
x: -0.0781726017594
y: 2.49456691742
z: 0.169245690107
doppler_bin: 32
target_idx: 5
posX: -0.0332112982869
posY: 2.58245038986
posZ: 0.445796877146
velX: -0.181125625968
velY: -0.0506488084793
velZ: 0.156230166554
accX: 0.0
accY: 0.0
accZ: 0.0
---
header: 
  seq: 8303
  stamp: 
    secs: 1596615770
    nsecs: 419580940
  frame_id: "node1_radarinterface_radarscan"
range: 2.42335057259
angle: 0.0
elev: 0.127071633935
doppler: -0.159006148577
snr: 187
noise: 440
frame_num: 788
point_id: 42
x: 0.0
y: 2.40381169319
z: 0.307111054659
doppler_bin: 30
target_idx: 5
posX: -0.0332112982869
posY: 2.58245038986
posZ: 0.445796877146
velX: -0.181125625968
velY: -0.0506488084793
velZ: 0.156230166554
accX: 0.0
accY: 0.0
accZ: 0.0
---
header: 
  seq: 8304
  stamp: 
    secs: 1596615770
    nsecs: 419584858
  frame_id: "node1_radarinterface_radarscan"
range: 2.42335057259
angle: -0.0315982326865
elev: 0.147483766079
doppler: -0.0795030742884
snr: 210
noise: 494
frame_num: 788
point_id: 45
x: -0.0757297053933
y: 2.39584589005
z: 0.356110602617
doppler_bin: 31
target_idx: 5
posX: -0.0332112982869
posY: 2.58245038986
posZ: 0.445796877146
velX: -0.181125625968
velY: -0.0506488084793
velZ: 0.156230166554
accX: 0.0
accY: 0.0
accZ: 0.0
---
header: 
  seq: 8305
  stamp: 
    secs: 1596615770
    nsecs: 419601177
  frame_id: "node1_radarinterface_radarscan"
range: 2.57969594002
angle: -0.031390953809
elev: 0.0930573493242
doppler: -0.0795030742884
snr: 155
noise: 483
frame_num: 788
point_id: 47
x: -0.0806155055761
y: 2.56726908684
z: 0.239713340998
doppler_bin: 31
target_idx: 5
posX: -0.0332112982869
posY: 2.58245038986
posZ: 0.445796877146
velX: -0.181125625968
velY: -0.0506488084793
velZ: 0.156230166554
accX: 0.0
accY: 0.0
accZ: 0.0
---
header: 
  seq: 8306
  stamp: 
    secs: 1596615770
    nsecs: 518662703
  frame_id: "node1_radarinterface_radarscan"
range: 2.26700544357
angle: -0.0323874913156
elev: 0.265172153711
doppler: 0.0
snr: 122
noise: 435
frame_num: 789
point_id: 3
x: -0.0708439201117
y: 2.18662047386
z: 0.594126403332
doppler_bin: 32
target_idx: 5
posX: -0.039781883359
posY: 2.51561808586
posZ: 0.595251500607
velX: -0.166765391827
velY: -0.175509378314
velZ: 0.531855881214
accX: 0.0
accY: 0.0
accZ: 0.0
---
header: 
  seq: 8307
  stamp: 
    secs: 1596615770
    nsecs: 518705946
  frame_id: "node1_radarinterface_radarscan"
range: 2.34517812729
angle: -0.0323516428471
elev: 0.261062264442
doppler: 0.0
snr: 205
noise: 424
frame_num: 789
point_id: 4
x: -0.0732868164778
y: 2.26452922821
z: 0.60530680418
doppler_bin: 32
target_idx: 5
posX: -0.039781883359
posY: 2.51561808586
posZ: 0.595251500607
velX: -0.166765391827
velY: -0.175509378314
velZ: 0.531855881214
accX: 0.0
accY: 0.0
accZ: 0.0
---
header: 
  seq: 8308
  stamp: 
    secs: 1596615770
    nsecs: 518727319
  frame_id: "node1_radarinterface_radarscan"
range: 2.42335057259
angle: -0.0323644317687
elev: 0.26253670454
doppler: 0.0
snr: 216
noise: 421
frame_num: 789
point_id: 5
x: -0.0757297053933
y: 2.33908843994
z: 0.628934979439
doppler_bin: 32
target_idx: 5
posX: -0.039781883359
posY: 2.51561808586
posZ: 0.595251500607
velX: -0.166765391827
velY: -0.175509378314
velZ: 0.531855881214
accX: 0.0
accY: 0.0
accZ: 0.0
---
header: 
  seq: 8309
  stamp: 
    secs: 1596615770
    nsecs: 518744405
  frame_id: "node1_radarinterface_radarscan"
range: 2.57969594002
angle: 0.0
elev: 0.508213937283
doppler: 0.0
snr: 149
noise: 430
frame_num: 789
point_id: 7
x: 0.0
y: 2.2536611557
z: 1.25532567501
doppler_bin: 32
target_idx: 5
posX: -0.039781883359
posY: 2.51561808586
posZ: 0.595251500607
velX: -0.166765391827
velY: -0.175509378314
velZ: 0.531855881214
accX: 0.0
accY: 0.0
accZ: 0.0
---
header: 
  seq: 8310
  stamp: 
    secs: 1596615770
    nsecs: 518769175
  frame_id: "node1_radarinterface_radarscan"
range: 2.34517812729
angle: -0.0324713252485
elev: 0.274515330791
doppler: 0.0795030742884
snr: 152
noise: 471
frame_num: 789
point_id: 11
x: -0.0732868164778
y: 2.25617694855
z: 0.635731935501
doppler_bin: 33
target_idx: 5
posX: -0.039781883359
posY: 2.51561808586
posZ: 0.595251500607
velX: -0.166765391827
velY: -0.175509378314
velZ: 0.531855881214
accX: 0.0
accY: 0.0
accZ: 0.0
---
header: 
  seq: 8311
  stamp: 
    secs: 1596615770
    nsecs: 518776389
  frame_id: "node1_radarinterface_radarscan"
range: 2.5015232563
angle: 0.0321619361639
elev: 0.237993493676
doppler: 0.0795030742884
snr: 129
noise: 475
frame_num: 789
point_id: 13
x: 0.0781725943089
y: 2.4297554493
z: 0.589742004871
doppler_bin: 33
target_idx: 5
posX: -0.039781883359
posY: 2.51561808586
posZ: 0.595251500607
velX: -0.166765391827
velY: -0.175509378314
velZ: 0.531855881214
accX: 0.0
accY: 0.0
accZ: 0.0
---
header: 
  seq: 8312
  stamp: 
    secs: 1596615770
    nsecs: 518784160
  frame_id: "node1_radarinterface_radarscan"
range: 2.57969594002
angle: 0.0
elev: 0.485407680273
doppler: 0.0795030742884
snr: 113
noise: 481
frame_num: 789
point_id: 14
x: 0.0
y: 2.28170180321
z: 1.20360612869
doppler_bin: 33
target_idx: 5
posX: -0.039781883359
posY: 2.51561808586
posZ: 0.595251500607
velX: -0.166765391827
velY: -0.175509378314
velZ: 0.531855881214
accX: 0.0
accY: 0.0
accZ: 0.0
---
header: 
  seq: 8313
  stamp: 
    secs: 1596615770
    nsecs: 518806377
  frame_id: "node1_radarinterface_radarscan"
range: 2.42335057259
angle: 0.0
elev: 0.224427223206
doppler: -0.159006148577
snr: 208
noise: 420
frame_num: 789
point_id: 34
x: 0.0
y: 2.36257719994
z: 0.539311766624
doppler_bin: 30
target_idx: 5
posX: -0.039781883359
posY: 2.51561808586
posZ: 0.595251500607
velX: -0.166765391827
velY: -0.175509378314
velZ: 0.531855881214
accX: 0.0
accY: 0.0
accZ: 0.0
---
header: 
  seq: 8314
  stamp: 
    secs: 1596615770
    nsecs: 518814902
  frame_id: "node1_radarinterface_radarscan"
range: 2.42335057259
angle: 0.0
elev: 0.238295689225
doppler: -0.0795030742884
snr: 248
noise: 454
frame_num: 789
point_id: 41
x: 0.0
y: 2.3548707962
z: 0.572024226189
doppler_bin: 31
target_idx: 5
posX: -0.039781883359
posY: 2.51561808586
posZ: 0.595251500607
velX: -0.166765391827
velY: -0.175509378314
velZ: 0.531855881214
accX: 0.0
accY: 0.0
accZ: 0.0
---
header: 
  seq: 8315
  stamp: 
    secs: 1596615770
    nsecs: 619473284
  frame_id: "node1_radarinterface_radarscan"
range: 2.57969594002
angle: 0.0
elev: 0.313570946455
doppler: 0.0
snr: 127
noise: 446
frame_num: 790
point_id: 7
x: 0.0
y: 2.45390510559
z: 0.795726358891
doppler_bin: 32
target_idx: 5
posX: -0.0596682652831
posY: 2.47762298584
posZ: 0.622197508812
velX: -0.193068012595
velY: -0.218563094735
velZ: 0.527792096138
accX: 0.0
accY: 0.0
accZ: 0.0
---
header: 
  seq: 8316
  stamp: 
    secs: 1596615770
    nsecs: 619520068
  frame_id: "node1_radarinterface_radarscan"
range: 2.57969594002
angle: 0.0
elev: 0.252673923969
doppler: -0.159006148577
snr: 164
noise: 408
frame_num: 790
point_id: 23
x: 0.0
y: 2.49778389931
z: 0.644908189774
doppler_bin: 30
target_idx: 5
posX: -0.0596682652831
posY: 2.47762298584
posZ: 0.622197508812
velX: -0.193068012595
velY: -0.218563094735
velZ: 0.527792096138
accX: 0.0
accY: 0.0
accZ: 0.0
---
header: 
  seq: 8317
  stamp: 
    secs: 1596615770
    nsecs: 619527643
  frame_id: "node1_radarinterface_radarscan"
range: 2.57969594002
angle: 0.0
elev: 0.218297898769
doppler: -0.0795030742884
snr: 215
noise: 432
frame_num: 790
point_id: 31
x: 0.0
y: 2.51847314835
z: 0.558680176735
doppler_bin: 31
target_idx: 5
posX: -0.0596682652831
posY: 2.47762298584
posZ: 0.622197508812
velX: -0.193068012595
velY: -0.218563094735
velZ: 0.527792096138
accX: 0.0
accY: 0.0
accZ: 0.0
---
header: 
  seq: 8318
  stamp: 
    secs: 1596615770
    nsecs: 619533035
  frame_id: "node1_radarinterface_radarscan"
range: 2.65786838531
angle: 0.0
elev: 0.52991938591
doppler: -0.0795030742884
snr: 150
noise: 462
frame_num: 790
point_id: 32
x: 0.0
y: 2.29333591461
z: 1.34345626831
doppler_bin: 31
target_idx: 5
posX: -0.0596682652831
posY: 2.47762298584
posZ: 0.622197508812
velX: -0.193068012595
velY: -0.218563094735
velZ: 0.527792096138
accX: 0.0
accY: 0.0
accZ: 0.0
---
header: 
  seq: 8319
  stamp: 
    secs: 1596615770
    nsecs: 720353837
  frame_id: "node1_radarinterface_radarscan"
range: 2.57969594002
angle: -0.0691905170679
elev: 0.441705107689
doppler: 0.0
snr: 135
noise: 453
frame_num: 791
point_id: 7
x: -0.161230996251
y: 2.3265273571
z: 1.10277235508
doppler_bin: 32
target_idx: 5
posX: -0.0858267992735
posY: 2.44777131081
posZ: 0.635792016983
velX: -0.233610376716
velY: -0.222050905228
velZ: 0.489566147327
accX: 0.0
accY: 0.0
accZ: 0.0
---
header: 
  seq: 8320
  stamp: 
    secs: 1596615770
    nsecs: 720411267
  frame_id: "node1_radarinterface_radarscan"
range: 2.57969594002
angle: -0.034402154386
elev: 0.430990070105
doppler: 0.0795030742884
snr: 125
noise: 499
frame_num: 791
point_id: 16
x: -0.0806154981256
y: 2.34240245819
z: 1.07772099972
doppler_bin: 33
target_idx: 5
posX: -0.0858267992735
posY: 2.44777131081
posZ: 0.635792016983
velX: -0.233610376716
velY: -0.222050905228
velZ: 0.489566147327
accX: 0.0
accY: 0.0
accZ: 0.0
---
header: 
  seq: 8321
  stamp: 
    secs: 1596615770
    nsecs: 720429870
  frame_id: "node1_radarinterface_radarscan"
range: 2.26700544357
angle: -0.0318035408854
elev: 0.185952439904
doppler: -0.159006148577
snr: 154
noise: 406
frame_num: 791
point_id: 26
x: -0.0708439126611
y: 2.22679710388
z: 0.419129937887
doppler_bin: 30
target_idx: 5
posX: -0.0858267992735
posY: 2.44777131081
posZ: 0.635792016983
velX: -0.233610376716
velY: -0.222050905228
velZ: 0.489566147327
accX: 0.0
accY: 0.0
accZ: 0.0
---
header: 
  seq: 8322
  stamp: 
    secs: 1596615770
    nsecs: 720470185
  frame_id: "node1_radarinterface_radarscan"
range: 2.34517812729
angle: -0.0315990932286
elev: 0.14766676724
doppler: -0.159006148577
snr: 220
noise: 399
frame_num: 791
point_id: 27
x: -0.0732868164778
y: 2.31849765778
z: 0.345047682524
doppler_bin: 30
target_idx: 5
posX: -0.0858267992735
posY: 2.44777131081
posZ: 0.635792016983
velX: -0.233610376716
velY: -0.222050905228
velZ: 0.489566147327
accX: 0.0
accY: 0.0
accZ: 0.0
---
header: 
  seq: 8323
  stamp: 
    secs: 1596615770
    nsecs: 720498105
  frame_id: "node1_radarinterface_radarscan"
range: 2.42335057259
angle: -0.0313373319805
elev: 0.0724539607763
doppler: -0.159006148577
snr: 204
noise: 400
frame_num: 791
point_id: 28
x: -0.0757297053933
y: 2.41580605507
z: 0.175427764654
doppler_bin: 30
target_idx: 5
posX: -0.0858267992735
posY: 2.44777131081
posZ: 0.635792016983
velX: -0.233610376716
velY: -0.222050905228
velZ: 0.489566147327
accX: 0.0
accY: 0.0
accZ: 0.0
---
header: 
  seq: 8324
  stamp: 
    secs: 1596615770
    nsecs: 720513972
  frame_id: "node1_radarinterface_radarscan"
range: 2.65786838531
angle: -0.0688582807779
elev: 0.43140527606
doppler: -0.159006148577
snr: 145
noise: 434
frame_num: 791
point_id: 30
x: -0.166116774082
y: 2.40863037109
z: 1.11138164997
doppler_bin: 30
target_idx: 5
posX: -0.0858267992735
posY: 2.44777131081
posZ: 0.635792016983
velX: -0.233610376716
velY: -0.222050905228
velZ: 0.489566147327
accX: 0.0
accY: 0.0
accZ: 0.0
---
header: 
  seq: 8325
  stamp: 
    secs: 1596615770
    nsecs: 720529720
  frame_id: "node1_radarinterface_radarscan"
range: 2.34517812729
angle: -0.0316564887762
elev: 0.159389913082
doppler: -0.0795030742884
snr: 273
noise: 423
frame_num: 791
point_id: 41
x: -0.0732868164778
y: 2.31429123878
z: 0.372217029333
doppler_bin: 31
target_idx: 5
posX: -0.0858267992735
posY: 2.44777131081
posZ: 0.635792016983
velX: -0.233610376716
velY: -0.222050905228
velZ: 0.489566147327
accX: 0.0
accY: 0.0
accZ: 0.0
---
header: 
  seq: 8326
  stamp: 
    secs: 1596615770
    nsecs: 720546014
  frame_id: "node1_radarinterface_radarscan"
range: 2.73604106903
angle: -0.0967025607824
elev: 0.241500452161
doppler: -0.0795030742884
snr: 113
noise: 500
frame_num: 791
point_id: 46
x: -0.256503850222
y: 2.6442296505
z: 0.654351055622
doppler_bin: 31
target_idx: 5
posX: -0.0858267992735
posY: 2.44777131081
posZ: 0.635792016983
velX: -0.233610376716
velY: -0.222050905228
velZ: 0.489566147327
accX: 0.0
accY: 0.0
accZ: 0.0
---
header: 
  seq: 8327
  stamp: 
    secs: 1596615770
    nsecs: 819532557
  frame_id: "node1_radarinterface_radarscan"
range: 2.42335057259
angle: -0.0316440761089
elev: 0.156931713223
doppler: 0.0
snr: 191
noise: 429
frame_num: 792
point_id: 6
x: -0.0757297053933
y: 2.3923728466
z: 0.378741502762
doppler_bin: 32
target_idx: 5
posX: -0.106409594417
posY: 2.44804167747
posZ: 0.567207217216
velX: -0.244615480304
velY: -0.117756620049
velZ: 0.226543724537
accX: 0.0
accY: 0.0
accZ: 0.0
---
header: 
  seq: 8328
  stamp: 
    secs: 1596615770
    nsecs: 819596527
  frame_id: "node1_radarinterface_radarscan"
range: 2.5015232563
angle: -0.0640350431204
elev: 0.216312915087
doppler: 0.0
snr: 122
noise: 432
frame_num: 792
point_id: 7
x: -0.156345203519
y: 2.43821883202
z: 0.536901772022
doppler_bin: 32
target_idx: 5
posX: -0.106409594417
posY: 2.44804167747
posZ: 0.567207217216
velX: -0.244615480304
velY: -0.117756620049
velZ: 0.226543724537
accX: 0.0
accY: 0.0
accZ: 0.0
---
header: 
  seq: 8329
  stamp: 
    secs: 1596615770
    nsecs: 819625349
  frame_id: "node1_radarinterface_radarscan"
range: 2.57969594002
angle: -0.0321195013821
elev: 0.232486635447
doppler: 0.0
snr: 137
noise: 440
frame_num: 792
point_id: 8
x: -0.0806154981256
y: 2.50899815559
z: 0.594356715679
doppler_bin: 32
target_idx: 5
posX: -0.106409594417
posY: 2.44804167747
posZ: 0.567207217216
velX: -0.244615480304
velY: -0.117756620049
velZ: 0.226543724537
accX: 0.0
accY: 0.0
accZ: 0.0
---
header: 
  seq: 8330
  stamp: 
    secs: 1596615770
    nsecs: 819669173
  frame_id: "node1_radarinterface_radarscan"
range: 2.65786838531
angle: -0.0625921338797
elev: 0.0404929481447
doppler: 0.0
snr: 124
noise: 457
frame_num: 792
point_id: 9
x: -0.166116774082
y: 2.65048933029
z: 0.107595518231
doppler_bin: 32
target_idx: 5
posX: -0.106409594417
posY: 2.44804167747
posZ: 0.567207217216
velX: -0.244615480304
velY: -0.117756620049
velZ: 0.226543724537
accX: 0.0
accY: 0.0
accZ: 0.0
---
header: 
  seq: 8331
  stamp: 
    secs: 1596615770
    nsecs: 819704641
  frame_id: "node1_radarinterface_radarscan"
range: 2.42335057259
angle: -0.0315728075802
elev: 0.14196279645
doppler: 0.0795030742884
snr: 216
noise: 457
frame_num: 792
point_id: 16
x: -0.0757296979427
y: 2.39777636528
z: 0.342871248722
doppler_bin: 33
target_idx: 5
posX: -0.106409594417
posY: 2.44804167747
posZ: 0.567207217216
velX: -0.244615480304
velY: -0.117756620049
velZ: 0.226543724537
accX: 0.0
accY: 0.0
accZ: 0.0
---
header: 
  seq: 8332
  stamp: 
    secs: 1596615770
    nsecs: 819740705
  frame_id: "node1_radarinterface_radarscan"
range: 2.5015232563
angle: 0.0
elev: 0.0749693363905
doppler: 0.0795030742884
snr: 160
noise: 458
frame_num: 792
point_id: 17
x: 0.0
y: 2.49449682236
z: 0.187361910939
doppler_bin: 33
target_idx: 5
posX: -0.106409594417
posY: 2.44804167747
posZ: 0.567207217216
velX: -0.244615480304
velY: -0.117756620049
velZ: 0.226543724537
accX: 0.0
accY: 0.0
accZ: 0.0
---
header: 
  seq: 8333
  stamp: 
    secs: 1596615770
    nsecs: 819788067
  frame_id: "node1_radarinterface_radarscan"
range: 2.65786838531
angle: -0.0637888237834
elev: 0.198008462787
doppler: 0.0795030742884
snr: 128
noise: 468
frame_num: 792
point_id: 19
x: -0.166116774082
y: 2.60063433647
z: 0.522848129272
doppler_bin: 33
target_idx: 5
posX: -0.106409594417
posY: 2.44804167747
posZ: 0.567207217216
velX: -0.244615480304
velY: -0.117756620049
velZ: 0.226543724537
accX: 0.0
accY: 0.0
accZ: 0.0
---
header: 
  seq: 8334
  stamp: 
    secs: 1596615770
    nsecs: 819833900
  frame_id: "node1_radarinterface_radarscan"
range: 2.42335057259
angle: -0.031456399709
elev: 0.113176018
doppler: -0.159006148577
snr: 210
noise: 417
frame_num: 792
point_id: 31
x: -0.0757297053933
y: 2.40665578842
z: 0.2736800313
doppler_bin: 30
target_idx: 5
posX: -0.106409594417
posY: 2.44804167747
posZ: 0.567207217216
velX: -0.244615480304
velY: -0.117756620049
velZ: 0.226543724537
accX: 0.0
accY: 0.0
accZ: 0.0
---
header: 
  seq: 8335
  stamp: 
    secs: 1596615770
    nsecs: 819848010
  frame_id: "node1_radarinterface_radarscan"
range: 2.57969594002
angle: -0.0652562007308
elev: 0.289301097393
doppler: -0.0795030742884
snr: 195
noise: 459
frame_num: 792
point_id: 43
x: -0.161230996251
y: 2.46723008156
z: 0.735941946507
doppler_bin: 31
target_idx: 5
posX: -0.106409594417
posY: 2.44804167747
posZ: 0.567207217216
velX: -0.244615480304
velY: -0.117756620049
velZ: 0.226543724537
accX: 0.0
accY: 0.0
accZ: 0.0
---
header: 
  seq: 8336
  stamp: 
    secs: 1596615770
    nsecs: 919426257
  frame_id: "node1_radarinterface_radarscan"
range: 2.42335057259
angle: -0.0633562356234
elev: 0.160511896014
doppler: 0.0
snr: 149
noise: 442
frame_num: 793
point_id: 5
x: -0.151459395885
y: 2.3874001503
z: 0.387308478355
doppler_bin: 32
target_idx: 5
posX: -0.107550442219
posY: 2.43155026436
posZ: 0.568324506283
velX: -0.180542513728
velY: -0.101903900504
velZ: 0.175926551223
accX: 0.0
accY: 0.0
accZ: 0.0
---
header: 
  seq: 8337
  stamp: 
    secs: 1596615770
    nsecs: 919518862
  frame_id: "node1_radarinterface_radarscan"
range: 2.5015232563
angle: -0.0327515304089
elev: 0.303405821323
doppler: 0.0795030742884
snr: 147
noise: 474
frame_num: 793
point_id: 13
x: -0.0781725943089
y: 2.38598442078
z: 0.747385561466
doppler_bin: 33
target_idx: 5
posX: -0.107550442219
posY: 2.43155026436
posZ: 0.568324506283
velX: -0.180542513728
velY: -0.101903900504
velZ: 0.175926551223
accX: 0.0
accY: 0.0
accZ: 0.0
---
header: 
  seq: 8338
  stamp: 
    secs: 1596615770
    nsecs: 919567022
  frame_id: "node1_radarinterface_radarscan"
range: 2.34517812729
angle: -0.0315551459789
elev: 0.13799251616
doppler: -0.159006148577
snr: 191
noise: 407
frame_num: 793
point_id: 19
x: -0.0732868239284
y: 2.32172894478
z: 0.322590947151
doppler_bin: 30
target_idx: 5
posX: -0.107550442219
posY: 2.43155026436
posZ: 0.568324506283
velX: -0.180542513728
velY: -0.101903900504
velZ: 0.175926551223
accX: 0.0
accY: 0.0
accZ: 0.0
---
header: 
  seq: 8339
  stamp: 
    secs: 1596615770
    nsecs: 919598072
  frame_id: "node1_radarinterface_radarscan"
range: 2.26700544357
angle: -0.031845189631
elev: 0.192778035998
doppler: -0.0795030742884
snr: 172
noise: 436
frame_num: 793
point_id: 26
x: -0.0708439201117
y: 2.22388267517
z: 0.434326976538
doppler_bin: 31
target_idx: 5
posX: -0.107550442219
posY: 2.43155026436
posZ: 0.568324506283
velX: -0.180542513728
velY: -0.101903900504
velZ: 0.175926551223
accX: 0.0
accY: 0.0
accZ: 0.0
---
header: 
  seq: 8340
  stamp: 
    secs: 1596615771
    nsecs: 120304235
  frame_id: "node1_radarinterface_radarscan"
range: 2.34517812729
angle: -0.0629581436515
elev: 0.11513594538
doppler: 0.0795030742884
snr: 139
noise: 476
frame_num: 795
point_id: 10
x: -0.146573632956
y: 2.32503557205
z: 0.269418120384
doppler_bin: 33
target_idx: 5
posX: -0.131067320704
posY: 2.43066430092
posZ: 0.500879824162
velX: -0.148421019316
velY: -0.0238349735737
velZ: -0.1024954319
accX: 0.0
accY: 0.0
accZ: 0.0
---
header: 
  seq: 8341
  stamp: 
    secs: 1596615771
    nsecs: 120387313
  frame_id: "node1_radarinterface_radarscan"
range: 2.5015232563
angle: -0.0626005381346
elev: -0.043676238507
doppler: -0.0795030742884
snr: 131
noise: 401
frame_num: 795
point_id: 31
x: -0.156345203519
y: 2.49424242973
z: -0.109222389758
doppler_bin: 31
target_idx: 5
posX: -0.131067320704
posY: 2.43066430092
posZ: 0.500879824162
velX: -0.148421019316
velY: -0.0238349735737
velZ: -0.1024954319
accX: 0.0
accY: 0.0
accZ: 0.0
---
header: 
  seq: 8342
  stamp: 
    secs: 1596615771
    nsecs: 219350772
  frame_id: "node1_radarinterface_radarscan"
range: 2.42335057259
angle: -0.0312551409006
elev: -0.00182797620073
doppler: 0.0795030742884
snr: 160
noise: 471
frame_num: 796
point_id: 13
x: -0.0757297053933
y: 2.42216300964
z: -0.00442982465029
doppler_bin: 33
target_idx: 5
posX: -0.0919032543898
posY: 2.47255325317
posZ: 0.321134090424
velX: 0.0174645036459
velY: 0.0995578989387
velZ: -0.570544183254
accX: 0.0
accY: 0.0
accZ: 0.0
---
header: 
  seq: 8343
  stamp: 
    secs: 1596615771
    nsecs: 219448307
  frame_id: "node1_radarinterface_radarscan"
range: 2.5015232563
angle: -0.0315047129989
elev: -0.125946894288
doppler: 0.0795030742884
snr: 145
noise: 471
frame_num: 796
point_id: 14
x: -0.0781725943089
y: 2.48047757149
z: -0.314226806164
doppler_bin: 33
target_idx: 5
posX: -0.0919032543898
posY: 2.47255325317
posZ: 0.321134090424
velX: 0.0174645036459
velY: 0.0995578989387
velZ: -0.570544183254
accX: 0.0
accY: 0.0
accZ: 0.0
---
header: 
  seq: 8344
  stamp: 
    secs: 1596615771
    nsecs: 219466986
  frame_id: "node1_radarinterface_radarscan"
range: 2.34517812729
angle: -0.0316110253334
elev: 0.150182321668
doppler: -0.0795030742884
snr: 174
noise: 407
frame_num: 796
point_id: 28
x: -0.0732868164778
y: 2.31762194633
z: 0.350881814957
doppler_bin: 31
target_idx: 5
posX: -0.0919032543898
posY: 2.47255325317
posZ: 0.321134090424
velX: 0.0174645036459
velY: 0.0995578989387
velZ: -0.570544183254
accX: 0.0
accY: 0.0
accZ: 0.0
---
header: 
  seq: 8345
  stamp: 
    secs: 1596615771
    nsecs: 219481450
  frame_id: "node1_radarinterface_radarscan"
range: 2.57969594002
angle: 0.0
elev: -0.0595037825406
doppler: -0.0795030742884
snr: 141
noise: 410
frame_num: 796
point_id: 31
x: 0.0
y: 2.57513022423
z: -0.153411105275
doppler_bin: 31
target_idx: 5
posX: -0.0919032543898
posY: 2.47255325317
posZ: 0.321134090424
velX: 0.0174645036459
velY: 0.0995578989387
velZ: -0.570544183254
accX: 0.0
accY: 0.0
accZ: 0.0
---
header: 
  seq: 8346
  stamp: 
    secs: 1596615771
    nsecs: 319324950
  frame_id: "node1_radarinterface_radarscan"
range: 2.42335057259
angle: -0.0629419311881
elev: 0.112889580429
doppler: 0.0795030742884
snr: 123
noise: 477
frame_num: 797
point_id: 11
x: -0.151459425688
y: 2.40315723419
z: 0.272990345955
doppler_bin: 33
target_idx: 5
posX: -0.0895511657
posY: 2.45075130463
posZ: 0.346379041672
velX: 0.0388687103987
velY: 0.0524223521352
velZ: -0.451845049858
accX: 0.0
accY: 0.0
accZ: 0.0
---
header: 
  seq: 8347
  stamp: 
    secs: 1596615771
    nsecs: 418905572
  frame_id: "node1_radarinterface_radarscan"
range: 2.34517812729
angle: -0.0637288540602
elev: 0.193268820643
doppler: 0.0795030742884
snr: 138
noise: 448
frame_num: 798
point_id: 9
x: -0.146573647857
y: 2.29684281349
z: 0.450433373451
doppler_bin: 33
target_idx: 5
posX: -0.0637545362115
posY: 2.44894742966
posZ: 0.312478542328
velX: 0.121409058571
velY: 0.0572505518794
velZ: -0.486819148064
accX: 0.0
accY: 0.0
accZ: 0.0
---
header: 
  seq: 8348
  stamp: 
    secs: 1596615771
    nsecs: 418966832
  frame_id: "node1_radarinterface_radarscan"
range: 2.5015232563
angle: 0.0313339866698
elev: 0.0709684416652
doppler: 0.0795030742884
snr: 144
noise: 446
frame_num: 798
point_id: 11
x: 0.0781725943089
y: 2.49400162697
z: 0.177380219102
doppler_bin: 33
target_idx: 5
posX: -0.0637545362115
posY: 2.44894742966
posZ: 0.312478542328
velX: 0.121409058571
velY: 0.0572505518794
velZ: -0.486819148064
accX: 0.0
accY: 0.0
accZ: 0.0
---
header: 
  seq: 8349
  stamp: 
    secs: 1596615771
    nsecs: 419038078
  frame_id: "node1_radarinterface_radarscan"
range: 2.42335057259
angle: 0.0
elev: 0.147068738937
doppler: -0.0795030742884
snr: 187
noise: 397
frame_num: 798
point_id: 25
x: 0.0
y: 2.39719009399
z: 0.355115741491
doppler_bin: 31
target_idx: 5
posX: -0.0637545362115
posY: 2.44894742966
posZ: 0.312478542328
velX: 0.121409058571
velY: 0.0572505518794
velZ: -0.486819148064
accX: 0.0
accY: 0.0
accZ: 0.0
---
header: 
  seq: 8350
  stamp: 
    secs: 1596615771
    nsecs: 419056657
  frame_id: "node1_radarinterface_radarscan"
range: 2.5015232563
angle: 0.0
elev: 0.0870554149151
doppler: -0.0795030742884
snr: 163
noise: 400
frame_num: 798
point_id: 26
x: 0.0
y: 2.4920501709
z: 0.217496186495
doppler_bin: 31
target_idx: 5
posX: -0.0637545362115
posY: 2.44894742966
posZ: 0.312478542328
velX: 0.121409058571
velY: 0.0572505518794
velZ: -0.486819148064
accX: 0.0
accY: 0.0
accZ: 0.0
---
header: 
  seq: 8351
  stamp: 
    secs: 1596615771
    nsecs: 520415063
  frame_id: "node1_radarinterface_radarscan"
range: 2.34517812729
angle: -0.0327659845352
elev: 0.304811269045
doppler: 0.0795030742884
snr: 125
noise: 451
frame_num: 799
point_id: 12
x: -0.0732868164778
y: 2.23587322235
z: 0.703818798065
doppler_bin: 33
target_idx: 5
posX: -0.0802603885531
posY: 2.45768356323
posZ: 0.175146266818
velX: 0.0722220540047
velY: 0.0645725503564
velZ: -0.752574026585
accX: 0.0
accY: 0.0
accZ: 0.0
---
header: 
  seq: 8352
  stamp: 
    secs: 1596615771
    nsecs: 520510186
  frame_id: "node1_radarinterface_radarscan"
range: 2.42335057259
angle: -0.0625436007977
elev: -0.00952121429145
doppler: 0.0795030742884
snr: 153
noise: 448
frame_num: 799
point_id: 13
x: -0.151459410787
y: 2.41850280762
z: -0.0230728909373
doppler_bin: 33
target_idx: 5
posX: -0.0802603885531
posY: 2.45768356323
posZ: 0.175146266818
velX: 0.0722220540047
velY: 0.0645725503564
velZ: -0.752574026585
accX: 0.0
accY: 0.0
accZ: 0.0
---
header: 
  seq: 8353
  stamp: 
    secs: 1596615771
    nsecs: 520565203
  frame_id: "node1_radarinterface_radarscan"
range: 2.5015232563
angle: -0.0632013827562
elev: -0.14461748302
doppler: 0.0795030742884
snr: 132
noise: 448
frame_num: 799
point_id: 14
x: -0.15634521842
y: 2.47046804428
z: -0.360504299402
doppler_bin: 33
target_idx: 5
posX: -0.0802603885531
posY: 2.45768356323
posZ: 0.175146266818
velX: 0.0722220540047
velY: 0.0645725503564
velZ: -0.752574026585
accX: 0.0
accY: 0.0
accZ: 0.0
---
header: 
  seq: 8354
  stamp: 
    secs: 1596615771
    nsecs: 520591081
  frame_id: "node1_radarinterface_radarscan"
range: 2.42335057259
angle: -0.0312821567059
elev: -0.0415952168405
doppler: -0.0795030742884
snr: 189
noise: 407
frame_num: 799
point_id: 28
x: -0.0757297053933
y: 2.42006969452
z: -0.1007707268
doppler_bin: 31
target_idx: 5
posX: -0.0802603885531
posY: 2.45768356323
posZ: 0.175146266818
velX: 0.0722220540047
velY: 0.0645725503564
velZ: -0.752574026585
accX: 0.0
accY: 0.0
accZ: 0.0
---
header: 
  seq: 8355
  stamp: 
    secs: 1596615771
    nsecs: 618853656
  frame_id: "node1_radarinterface_radarscan"
range: 2.34517812729
angle: -0.0315372385085
elev: 0.133843183517
doppler: 0.0795030742884
snr: 148
noise: 477
frame_num: 800
point_id: 11
x: -0.0732868164778
y: 2.32304811478
z: 0.312949776649
doppler_bin: 33
target_idx: 5
posX: -0.0629090890288
posY: 2.45037078857
posZ: 0.181587666273
velX: 0.117595262825
velY: 0.0471160747111
velZ: -0.638839244843
accX: 0.0
accY: 0.0
accZ: 0.0
---
header: 
  seq: 8356
  stamp: 
    secs: 1596615771
    nsecs: 618965127
  frame_id: "node1_radarinterface_radarscan"
range: 2.42335057259
angle: -0.0313360355794
elev: 0.071881338954
doppler: 0.0795030742884
snr: 140
noise: 478
frame_num: 800
point_id: 12
x: -0.0757297053933
y: 2.41590595245
z: 0.174043715
doppler_bin: 33
target_idx: 5
posX: -0.0629090890288
posY: 2.45037078857
posZ: 0.181587666273
velX: 0.117595262825
velY: 0.0471160747111
velZ: -0.638839244843
accX: 0.0
accY: 0.0
accZ: 0.0
---
header: 
  seq: 8357
  stamp: 
    secs: 1596615771
    nsecs: 619010083
  frame_id: "node1_radarinterface_radarscan"
range: 2.42335057259
angle: -0.0313103571534
elev: 0.0594150237739
doppler: -0.0795030742884
snr: 166
noise: 425
frame_num: 800
point_id: 19
x: -0.0757297128439
y: 2.41788887978
z: 0.143898740411
doppler_bin: 31
target_idx: 5
posX: -0.0629090890288
posY: 2.45037078857
posZ: 0.181587666273
velX: 0.117595262825
velY: 0.0471160747111
velZ: -0.638839244843
accX: 0.0
accY: 0.0
accZ: 0.0
---
header: 
  seq: 8358
  stamp: 
    secs: 1596615771
    nsecs: 717963717
  frame_id: "node1_radarinterface_radarscan"
range: 2.34517812729
angle: -0.0315599776804
elev: 0.139090433717
doppler: 0.0795030742884
snr: 165
noise: 468
frame_num: 801
point_id: 11
x: -0.0732868164778
y: 2.32137298584
z: 0.325141102076
doppler_bin: 33
target_idx: 5
posX: -0.0519181191921
posY: 2.44951748848
posZ: 0.222418725491
velX: 0.134964033961
velY: 0.0464914739132
velZ: -0.451138794422
accX: 0.0
accY: 0.0
accZ: 0.0
---
header: 
  seq: 8359
  stamp: 
    secs: 1596615771
    nsecs: 718020017
  frame_id: "node1_radarinterface_radarscan"
range: 2.42335057259
angle: -0.0312553755939
elev: 0.00427660811692
doppler: 0.0795030742884
snr: 165
noise: 472
frame_num: 801
point_id: 12
x: -0.0757297053933
y: 2.42214488983
z: 0.0103636886925
doppler_bin: 33
target_idx: 5
posX: -0.0519181191921
posY: 2.44951748848
posZ: 0.222418725491
velX: 0.134964033961
velY: 0.0464914739132
velZ: -0.451138794422
accX: 0.0
accY: 0.0
accZ: 0.0
---
header: 
  seq: 8360
  stamp: 
    secs: 1596615771
    nsecs: 718114874
  frame_id: "node1_radarinterface_radarscan"
range: 2.57969594002
angle: -0.0327510721982
elev: 0.303360998631
doppler: 0.0795030742884
snr: 144
noise: 494
frame_num: 801
point_id: 14
x: -0.0806154981256
y: 2.46058130264
z: 0.770631074905
doppler_bin: 33
target_idx: 5
posX: -0.0519181191921
posY: 2.44951748848
posZ: 0.222418725491
velX: 0.134964033961
velY: 0.0464914739132
velZ: -0.451138794422
accX: 0.0
accY: 0.0
accZ: 0.0
---
header: 
  seq: 8361
  stamp: 
    secs: 1596615771
    nsecs: 718130421
  frame_id: "node1_radarinterface_radarscan"
range: 2.26700544357
angle: -0.0317242667079
elev: 0.17216822505
doppler: -0.0795030742884
snr: 115
noise: 417
frame_num: 801
point_id: 31
x: -0.0708439275622
y: 2.2323653698
z: 0.388380914927
doppler_bin: 31
target_idx: 5
posX: -0.0519181191921
posY: 2.44951748848
posZ: 0.222418725491
velX: 0.134964033961
velY: 0.0464914739132
velZ: -0.451138794422
accX: 0.0
accY: 0.0
accZ: 0.0
---
header: 
  seq: 8362
  stamp: 
    secs: 1596615771
    nsecs: 718143133
  frame_id: "node1_radarinterface_radarscan"
range: 2.42335057259
angle: -0.0312669351697
elev: -0.0275243986398
doppler: -0.0795030742884
snr: 214
noise: 407
frame_num: 801
point_id: 33
x: -0.0757297053933
y: 2.42124867439
z: -0.0666928440332
doppler_bin: 31
target_idx: 5
posX: -0.0519181191921
posY: 2.44951748848
posZ: 0.222418725491
velX: 0.134964033961
velY: 0.0464914739132
velZ: -0.451138794422
accX: 0.0
accY: 0.0
accZ: 0.0
---
header: 
  seq: 8363
  stamp: 
    secs: 1596615771
    nsecs: 718155051
  frame_id: "node1_radarinterface_radarscan"
range: 2.57969594002
angle: 0.0
elev: 0.285305052996
doppler: -0.0795030742884
snr: 196
noise: 406
frame_num: 801
point_id: 35
x: 0.0
y: 2.47541379929
z: 0.726055920124
doppler_bin: 31
target_idx: 5
posX: -0.0519181191921
posY: 2.44951748848
posZ: 0.222418725491
velX: 0.134964033961
velY: 0.0464914739132
velZ: -0.451138794422
accX: 0.0
accY: 0.0
accZ: 0.0
---
header: 
  seq: 8364
  stamp: 
    secs: 1596615771
    nsecs: 718165768
  frame_id: "node1_radarinterface_radarscan"
range: 2.65786838531
angle: 0.0325688831508
elev: 0.284954637289
doppler: -0.0795030742884
snr: 152
noise: 423
frame_num: 801
point_id: 36
x: 0.0830583795905
y: 2.54933547974
z: 0.747163772583
doppler_bin: 31
target_idx: 5
posX: -0.0519181191921
posY: 2.44951748848
posZ: 0.222418725491
velX: 0.134964033961
velY: 0.0464914739132
velZ: -0.451138794422
accX: 0.0
accY: 0.0
accZ: 0.0
---
header: 
  seq: 8365
  stamp: 
    secs: 1596615771
    nsecs: 820407021
  frame_id: "node1_radarinterface_radarscan"
range: 2.34517812729
angle: -0.0315620452166
elev: 0.139557287097
doppler: 0.0795030742884
snr: 167
noise: 447
frame_num: 802
point_id: 11
x: -0.0732868164778
y: 2.32122087479
z: 0.326225340366
doppler_bin: 33
target_idx: 5
posX: -0.0380228050053
posY: 2.46171069145
posZ: 0.262514442205
velX: 0.154978528619
velY: 0.0486262515187
velZ: -0.273978412151
accX: 0.0
accY: 0.0
accZ: 0.0
---
header: 
  seq: 8366
  stamp: 
    secs: 1596615771
    nsecs: 820515019
  frame_id: "node1_radarinterface_radarscan"
range: 2.42335057259
angle: -0.0625806301832
elev: 0.0356740951538
doppler: 0.0795030742884
snr: 172
noise: 448
frame_num: 802
point_id: 12
x: -0.151459410787
y: 2.41706800461
z: 0.0864325016737
doppler_bin: 33
target_idx: 5
posX: -0.0380228050053
posY: 2.46171069145
posZ: 0.262514442205
velX: 0.154978528619
velY: 0.0486262515187
velZ: -0.273978412151
accX: 0.0
accY: 0.0
accZ: 0.0
---
header: 
  seq: 8367
  stamp: 
    secs: 1596615771
    nsecs: 820640287
  frame_id: "node1_radarinterface_radarscan"
range: 2.65786838531
angle: 0.0
elev: 0.314227283001
doppler: 0.0795030742884
snr: 128
noise: 468
frame_num: 802
point_id: 14
x: 0.0
y: 2.52772712708
z: 0.821498453617
doppler_bin: 33
target_idx: 5
posX: -0.0380228050053
posY: 2.46171069145
posZ: 0.262514442205
velX: 0.154978528619
velY: 0.0486262515187
velZ: -0.273978412151
accX: 0.0
accY: 0.0
accZ: 0.0
---
header: 
  seq: 8368
  stamp: 
    secs: 1596615771
    nsecs: 820786366
  frame_id: "node1_radarinterface_radarscan"
range: 2.34517812729
angle: -0.0315763391554
elev: 0.142742842436
doppler: -0.0795030742884
snr: 170
noise: 420
frame_num: 802
point_id: 30
x: -0.0732868090272
y: 2.32016944885
z: 0.333621740341
doppler_bin: 31
target_idx: 5
posX: -0.0380228050053
posY: 2.46171069145
posZ: 0.262514442205
velX: 0.154978528619
velY: 0.0486262515187
velZ: -0.273978412151
accX: 0.0
accY: 0.0
accZ: 0.0
---
header: 
  seq: 8369
  stamp: 
    secs: 1596615771
    nsecs: 820866470
  frame_id: "node1_radarinterface_radarscan"
range: 2.42335057259
angle: -0.0625949501991
elev: 0.0415872298181
doppler: -0.0795030742884
snr: 182
noise: 414
frame_num: 802
point_id: 31
x: -0.151459410787
y: 2.41651344299
z: 0.100751392543
doppler_bin: 31
target_idx: 5
posX: -0.0380228050053
posY: 2.46171069145
posZ: 0.262514442205
velX: 0.154978528619
velY: 0.0486262515187
velZ: -0.273978412151
accX: 0.0
accY: 0.0
accZ: 0.0
---
header: 
  seq: 8370
  stamp: 
    secs: 1596615771
    nsecs: 820883709
  frame_id: "node1_radarinterface_radarscan"
range: 2.65786838531
angle: 0.0320124439895
elev: 0.217918246984
doppler: -0.0795030742884
snr: 156
noise: 423
frame_num: 802
point_id: 33
x: 0.0830583870411
y: 2.59367918968
z: 0.574624717236
doppler_bin: 31
target_idx: 5
posX: -0.0380228050053
posY: 2.46171069145
posZ: 0.262514442205
velX: 0.154978528619
velY: 0.0486262515187
velZ: -0.273978412151
accX: 0.0
accY: 0.0
accZ: 0.0
---
header: 
  seq: 8371
  stamp: 
    secs: 1596615771
    nsecs: 820896826
  frame_id: "node1_radarinterface_radarscan"
range: 2.81421375275
angle: 0.0
elev: 0.0736211687326
doppler: -0.0795030742884
snr: 141
noise: 474
frame_num: 802
point_id: 35
x: 0.0
y: 2.8065905571
z: 0.206998601556
doppler_bin: 31
target_idx: 5
posX: -0.0380228050053
posY: 2.46171069145
posZ: 0.262514442205
velX: 0.154978528619
velY: 0.0486262515187
velZ: -0.273978412151
accX: 0.0
accY: 0.0
accZ: 0.0
---
header: 
  seq: 8372
  stamp: 
    secs: 1596615771
    nsecs: 919114887
  frame_id: "node1_radarinterface_radarscan"
range: 2.5015232563
angle: 0.0323188528419
elev: 0.257238417864
doppler: 0.0795030742884
snr: 113
noise: 442
frame_num: 803
point_id: 8
x: 0.0781726017594
y: 2.41795039177
z: 0.636414527893
doppler_bin: 33
target_idx: 5
posX: 0.0141706466675
posY: 2.4574906826
posZ: 0.341927528381
velX: 0.285992324352
velY: 0.0237413179129
velZ: -0.0177808105946
accX: 0.0
accY: 0.0
accZ: 0.0
---
header: 
  seq: 8373
  stamp: 
    secs: 1596615771
    nsecs: 919185324
  frame_id: "node1_radarinterface_radarscan"
range: 2.34517812729
angle: 0.0
elev: 0.233426526189
doppler: -0.0795030742884
snr: 173
noise: 403
frame_num: 803
point_id: 15
x: 0.0
y: 2.28157567978
z: 0.542468965054
doppler_bin: 31
target_idx: 5
posX: 0.0141706466675
posY: 2.4574906826
posZ: 0.341927528381
velX: 0.285992324352
velY: 0.0237413179129
velZ: -0.0177808105946
accX: 0.0
accY: 0.0
accZ: 0.0
---
header: 
  seq: 8374
  stamp: 
    secs: 1596615771
    nsecs: 919263956
  frame_id: "node1_radarinterface_radarscan"
range: 2.42335057259
angle: 0.0
elev: 0.214901402593
doppler: -0.0795030742884
snr: 191
noise: 394
frame_num: 803
point_id: 16
x: 0.0
y: 2.36760735512
z: 0.516782164574
doppler_bin: 31
target_idx: 5
posX: 0.0141706466675
posY: 2.4574906826
posZ: 0.341927528381
velX: 0.285992324352
velY: 0.0237413179129
velZ: -0.0177808105946
accX: 0.0
accY: 0.0
accZ: 0.0
---
header: 
  seq: 8375
  stamp: 
    secs: 1596615771
    nsecs: 919287019
  frame_id: "node1_radarinterface_radarscan"
range: 2.65786838531
angle: 0.0314642898738
elev: 0.115361258388
doppler: -0.0795030742884
snr: 117
noise: 410
frame_num: 803
point_id: 19
x: 0.0830583870411
y: 2.63889551163
z: 0.305935412645
doppler_bin: 31
target_idx: 5
posX: 0.0141706466675
posY: 2.4574906826
posZ: 0.341927528381
velX: 0.285992324352
velY: 0.0237413179129
velZ: -0.0177808105946
accX: 0.0
accY: 0.0
accZ: 0.0
---
header: 
  seq: 8376
  stamp: 
    secs: 1596615772
    nsecs: 120886173
  frame_id: "node1_radarinterface_radarscan"
range: 2.42335057259
angle: 0.0634999498725
elev: 0.173917144537
doppler: 0.0795030742884
snr: 118
noise: 442
frame_num: 805
point_id: 11
x: 0.151459410787
y: 2.38198280334
z: 0.419340759516
doppler_bin: 33
target_idx: 5
posX: 0.0555981248617
posY: 2.45911169052
posZ: 0.348305374384
velX: 0.359824687243
velY: 0.0231277085841
velZ: 0.0274244826287
accX: 0.0
accY: 0.0
accZ: 0.0
---
header: 
  seq: 8377
  stamp: 
    secs: 1596615772
    nsecs: 220425068
  frame_id: "node1_radarinterface_radarscan"
range: 2.42335057259
angle: 0.0
elev: 0.188115134835
doppler: 0.0795030742884
snr: 126
noise: 439
frame_num: 806
point_id: 11
x: 0.0
y: 2.38059902191
z: 0.453185021877
doppler_bin: 33
target_idx: 5
posX: 0.0530703365803
posY: 2.44880080223
posZ: 0.364342391491
velX: 0.283076107502
velY: -0.010721642524
velZ: 0.0890724360943
accX: 0.0
accY: 0.0
accZ: 0.0
---
header: 
  seq: 8378
  stamp: 
    secs: 1596615772
    nsecs: 220546216
  frame_id: "node1_radarinterface_radarscan"
range: 2.34517812729
angle: 0.0
elev: 0.175672158599
doppler: -0.0795030742884
snr: 121
noise: 430
frame_num: 806
point_id: 22
x: 0.0
y: 2.30908417702
z: 0.40986675024
doppler_bin: 31
target_idx: 5
posX: 0.0530703365803
posY: 2.44880080223
posZ: 0.364342391491
velX: 0.283076107502
velY: -0.010721642524
velZ: 0.0890724360943
accX: 0.0
accY: 0.0
accZ: 0.0
---
header: 
  seq: 8379
  stamp: 
    secs: 1596615772
    nsecs: 220610883
  frame_id: "node1_radarinterface_radarscan"
range: 2.42335057259
angle: 0.0
elev: 0.118366666138
doppler: -0.0795030742884
snr: 125
noise: 430
frame_num: 806
point_id: 23
x: 0.0
y: 2.40639400482
z: 0.286174595356
doppler_bin: 31
target_idx: 5
posX: 0.0530703365803
posY: 2.44880080223
posZ: 0.364342391491
velX: 0.283076107502
velY: -0.010721642524
velZ: 0.0890724360943
accX: 0.0
accY: 0.0
accZ: 0.0
---
header: 
  seq: 8380
  stamp: 
    secs: 1596615772
    nsecs: 422760684
  frame_id: "node1_radarinterface_radarscan"
range: 2.73604106903
angle: 0.0975211039186
elev: 0.273409545422
doppler: 0.0795030742884
snr: 120
noise: 420
frame_num: 808
point_id: 9
x: 0.256503850222
y: 2.62189602852
z: 0.738774597645
doppler_bin: 33
target_idx: 5
posX: 0.125236168504
posY: 2.4619448185
posZ: 0.430339097977
velX: 0.430403143167
velY: 0.00978565588593
velZ: 0.245671927929
accX: 0.0
accY: 0.0
accZ: 0.0
---
header: 
  seq: 8381
  stamp: 
    secs: 1596615772
    nsecs: 518768618
  frame_id: "node1_radarinterface_radarscan"
range: 2.57969594002
angle: 0.202567532659
elev: 0.37096503377
doppler: 0.0795030742884
snr: 113
noise: 395
frame_num: 809
point_id: 4
x: 0.483692973852
y: 2.35506105423
z: 0.935178458691
doppler_bin: 33
target_idx: 5
posX: 0.211368277669
posY: 2.47391819954
posZ: 0.478801369667
velX: 0.580335617065
velY: -0.00153533462435
velZ: 0.322641342878
accX: 0.0
accY: 0.0
accZ: 0.0
---
header: 
  seq: 8382
  stamp: 
    secs: 1596615772
    nsecs: 518960130
  frame_id: "node1_radarinterface_radarscan"
range: 2.57969594002
angle: 0.196876361966
elev: 0.288911104202
doppler: -0.0795030742884
snr: 112
noise: 392
frame_num: 809
point_id: 9
x: 0.483692973852
y: 2.42501115799
z: 0.734977602959
doppler_bin: 31
target_idx: 5
posX: 0.211368277669
posY: 2.47391819954
posZ: 0.478801369667
velX: 0.580335617065
velY: -0.00153533462435
velZ: 0.322641342878
accX: 0.0
accY: 0.0
accZ: 0.0
---
header: 
  seq: 8383
  stamp: 
    secs: 1596615772
    nsecs: 619195828
  frame_id: "node1_radarinterface_radarscan"
range: 2.73604106903
angle: 0.031618334353
elev: 0.151701718569
doppler: 0.0
snr: 163
noise: 389
frame_num: 810
point_id: 0
x: 0.0855012908578
y: 2.70326685905
z: 0.413471966982
doppler_bin: 32
target_idx: 5
posX: 0.0818565934896
posY: 2.56925916672
posZ: 0.479709625244
velX: 0.116487622261
velY: 0.0932459831238
velZ: 0.197585061193
accX: 0.0
accY: 0.0
accZ: 0.0
---
header: 
  seq: 8384
  stamp: 
    secs: 1596615772
    nsecs: 619314336
  frame_id: "node1_radarinterface_radarscan"
range: 2.73604106903
angle: 0.03190067783
elev: 0.201491624117
doppler: 0.0795030742884
snr: 208
noise: 401
frame_num: 810
point_id: 9
x: 0.0855012834072
y: 2.67932462692
z: 0.547566652298
doppler_bin: 33
target_idx: 5
posX: 0.0818565934896
posY: 2.56925916672
posZ: 0.479709625244
velX: 0.116487622261
velY: 0.0932459831238
velZ: 0.197585061193
accX: 0.0
accY: 0.0
accZ: 0.0
---
header: 
  seq: 8385
  stamp: 
    secs: 1596615772
    nsecs: 619400132
  frame_id: "node1_radarinterface_radarscan"
range: 2.97055888176
angle: 0.0312550887465
elev: 0.000288640731014
doppler: 0.0795030742884
snr: 116
noise: 466
frame_num: 810
point_id: 12
x: 0.0928299576044
y: 2.96910786629
z: 0.000857424282003
doppler_bin: 33
target_idx: 5
posX: 0.0818565934896
posY: 2.56925916672
posZ: 0.479709625244
velX: 0.116487622261
velY: 0.0932459831238
velZ: 0.197585061193
accX: 0.0
accY: 0.0
accZ: 0.0
---
header: 
  seq: 8386
  stamp: 
    secs: 1596615772
    nsecs: 619424381
  frame_id: "node1_radarinterface_radarscan"
range: 2.81421375275
angle: 0.0
elev: 0.154217332602
doppler: 0.159006148577
snr: 191
noise: 396
frame_num: 810
point_id: 14
x: 0.0
y: 2.78081488609
z: 0.432282269001
doppler_bin: 34
target_idx: 5
posX: 0.0818565934896
posY: 2.56925916672
posZ: 0.479709625244
velX: 0.116487622261
velY: 0.0932459831238
velZ: 0.197585061193
accX: 0.0
accY: 0.0
accZ: 0.0
---
header: 
  seq: 8387
  stamp: 
    secs: 1596615772
    nsecs: 619485425
  frame_id: "node1_radarinterface_radarscan"
range: 2.89238619804
angle: 0.0
elev: 0.126672163606
doppler: 0.159006148577
snr: 160
noise: 408
frame_num: 810
point_id: 15
x: 0.0
y: 2.86921191216
z: 0.365405768156
doppler_bin: 34
target_idx: 5
posX: 0.0818565934896
posY: 2.56925916672
posZ: 0.479709625244
velX: 0.116487622261
velY: 0.0932459831238
velZ: 0.197585061193
accX: 0.0
accY: 0.0
accZ: 0.0
---
header: 
  seq: 8388
  stamp: 
    secs: 1596615772
    nsecs: 619504993
  frame_id: "node1_radarinterface_radarscan"
range: 2.42335057259
angle: 0.0949495211244
elev: 0.149458408356
doppler: -0.0795030742884
snr: 135
noise: 398
frame_num: 810
point_id: 19
x: 0.227189093828
y: 2.3855407238
z: 0.360843211412
doppler_bin: 31
target_idx: 5
posX: 0.0818565934896
posY: 2.56925916672
posZ: 0.479709625244
velX: 0.116487622261
velY: 0.0932459831238
velZ: 0.197585061193
accX: 0.0
accY: 0.0
accZ: 0.0
---
header: 
  seq: 8389
  stamp: 
    secs: 1596615772
    nsecs: 619522631
  frame_id: "node1_radarinterface_radarscan"
range: 2.57969594002
angle: -0.0684750676155
elev: 0.419102162123
doppler: -0.0795030742884
snr: 133
noise: 395
frame_num: 810
point_id: 21
x: -0.161230996251
y: 2.35091304779
z: 1.04978275299
doppler_bin: 31
target_idx: 5
posX: 0.0818565934896
posY: 2.56925916672
posZ: 0.479709625244
velX: 0.116487622261
velY: 0.0932459831238
velZ: 0.197585061193
accX: 0.0
accY: 0.0
accZ: 0.0
---
header: 
  seq: 8390
  stamp: 
    secs: 1596615772
    nsecs: 619540835
  frame_id: "node1_radarinterface_radarscan"
range: 2.81421375275
angle: 0.0
elev: 0.262287557125
doppler: -0.0795030742884
snr: 127
noise: 419
frame_num: 810
point_id: 24
x: 0.0
y: 2.71796584129
z: 0.729699015617
doppler_bin: 31
target_idx: 5
posX: 0.0818565934896
posY: 2.56925916672
posZ: 0.479709625244
velX: 0.116487622261
velY: 0.0932459831238
velZ: 0.197585061193
accX: 0.0
accY: 0.0
accZ: 0.0
---
header: 
  seq: 8391
  stamp: 
    secs: 1596615772
    nsecs: 719549780
  frame_id: "node1_radarinterface_radarscan"
range: 2.81421375275
angle: 0.0
elev: 0.145917579532
doppler: 0.159006148577
snr: 156
noise: 399
frame_num: 811
point_id: 19
x: 0.0
y: 2.7843067646
z: 0.409187585115
doppler_bin: 34
target_idx: 5
posX: 0.0594626627862
posY: 2.59543919563
posZ: 0.466158002615
velX: -0.000204309821129
velY: 0.0753673911095
velZ: 0.109513044357
accX: 0.0
accY: 0.0
accZ: 0.0
---
header: 
  seq: 8392
  stamp: 
    secs: 1596615772
    nsecs: 719642466
  frame_id: "node1_radarinterface_radarscan"
range: 2.34517812729
angle: 0.0
elev: 0.178501009941
doppler: -0.0795030742884
snr: 123
noise: 392
frame_num: 811
point_id: 24
x: 0.0
y: 2.30791544914
z: 0.416397154331
doppler_bin: 31
target_idx: 5
posX: 0.0594626627862
posY: 2.59543919563
posZ: 0.466158002615
velX: -0.000204309821129
velY: 0.0753673911095
velZ: 0.109513044357
accX: 0.0
accY: 0.0
accZ: 0.0
---
header: 
  seq: 8393
  stamp: 
    secs: 1596615772
    nsecs: 719697708
  frame_id: "node1_radarinterface_radarscan"
range: 2.42335057259
angle: -0.0316636674106
elev: 0.160793870687
doppler: -0.0795030742884
snr: 141
noise: 388
frame_num: 811
point_id: 25
x: -0.0757297053933
y: 2.39089155197
z: 0.387982994318
doppler_bin: 31
target_idx: 5
posX: 0.0594626627862
posY: 2.59543919563
posZ: 0.466158002615
velX: -0.000204309821129
velY: 0.0753673911095
velZ: 0.109513044357
accX: 0.0
accY: 0.0
accZ: 0.0
---
header: 
  seq: 8394
  stamp: 
    secs: 1596615772
    nsecs: 820633930
  frame_id: "node1_radarinterface_radarscan"
range: 2.81421375275
angle: 0.0315183922648
elev: 0.129328355193
doppler: 0.0
snr: 192
noise: 397
frame_num: 812
point_id: 4
x: 0.0879441723228
y: 2.78932547569
z: 0.362943887711
doppler_bin: 32
target_idx: 5
posX: 0.0505162850022
posY: 2.62616062164
posZ: 0.448972314596
velX: -0.0577340424061
velY: 0.0524785965681
velZ: 0.0139437243342
accX: 0.0
accY: 0.0
accZ: 0.0
---
header: 
  seq: 8395
  stamp: 
    secs: 1596615772
    nsecs: 820733302
  frame_id: "node1_radarinterface_radarscan"
range: 2.81421375275
angle: 0.0
elev: 0.196842879057
doppler: 0.0795030742884
snr: 175
noise: 456
frame_num: 812
point_id: 15
x: 0.0
y: 2.75986814499
z: 0.550387501717
doppler_bin: 33
target_idx: 5
posX: 0.0505162850022
posY: 2.62616062164
posZ: 0.448972314596
velX: -0.0577340424061
velY: 0.0524785965681
velZ: 0.0139437243342
accX: 0.0
accY: 0.0
accZ: 0.0
---
header: 
  seq: 8396
  stamp: 
    secs: 1596615772
    nsecs: 820802566
  frame_id: "node1_radarinterface_radarscan"
range: 2.89238619804
angle: 0.0
elev: 0.172520920634
doppler: 0.0795030742884
snr: 176
noise: 475
frame_num: 812
point_id: 16
x: 0.0
y: 2.84944915771
z: 0.496525496244
doppler_bin: 33
target_idx: 5
posX: 0.0505162850022
posY: 2.62616062164
posZ: 0.448972314596
velX: -0.0577340424061
velY: 0.0524785965681
velZ: 0.0139437243342
accX: 0.0
accY: 0.0
accZ: 0.0
---
header: 
  seq: 8397
  stamp: 
    secs: 1596615772
    nsecs: 820831052
  frame_id: "node1_radarinterface_radarscan"
range: 2.81421375275
angle: 0.0
elev: 0.207212030888
doppler: 0.159006148577
snr: 200
noise: 396
frame_num: 812
point_id: 19
x: 0.0
y: 2.7540128231
z: 0.57897490263
doppler_bin: 34
target_idx: 5
posX: 0.0505162850022
posY: 2.62616062164
posZ: 0.448972314596
velX: -0.0577340424061
velY: 0.0524785965681
velZ: 0.0139437243342
accX: 0.0
accY: 0.0
accZ: 0.0
---
header: 
  seq: 8398
  stamp: 
    secs: 1596615772
    nsecs: 820890537
  frame_id: "node1_radarinterface_radarscan"
range: 2.97055888176
angle: 0.0315904989839
elev: 0.145827308297
doppler: 0.159006148577
snr: 140
noise: 428
frame_num: 812
point_id: 21
x: 0.092829965055
y: 2.9375629425
z: 0.431654900312
doppler_bin: 34
target_idx: 5
posX: 0.0505162850022
posY: 2.62616062164
posZ: 0.448972314596
velX: -0.0577340424061
velY: 0.0524785965681
velZ: 0.0139437243342
accX: 0.0
accY: 0.0
accZ: 0.0
---
header: 
  seq: 8399
  stamp: 
    secs: 1596615772
    nsecs: 820917214
  frame_id: "node1_radarinterface_radarscan"
range: 2.57969594002
angle: -0.0332640893757
elev: 0.349263906479
doppler: -0.0795030742884
snr: 176
noise: 401
frame_num: 812
point_id: 29
x: -0.0806154981256
y: 2.42260551453
z: 0.882788062096
doppler_bin: 31
target_idx: 5
posX: 0.0505162850022
posY: 2.62616062164
posZ: 0.448972314596
velX: -0.0577340424061
velY: 0.0524785965681
velZ: 0.0139437243342
accX: 0.0
accY: 0.0
accZ: 0.0
---
header: 
  seq: 8400
  stamp: 
    secs: 1596615772
    nsecs: 820939481
  frame_id: "node1_radarinterface_radarscan"
range: 2.65786838531
angle: 0.0
elev: 0.393853634596
doppler: -0.0795030742884
snr: 193
noise: 408
frame_num: 812
point_id: 30
x: 0.0
y: 2.45437431335
z: 1.01995658875
doppler_bin: 31
target_idx: 5
posX: 0.0505162850022
posY: 2.62616062164
posZ: 0.448972314596
velX: -0.0577340424061
velY: 0.0524785965681
velZ: 0.0139437243342
accX: 0.0
accY: 0.0
accZ: 0.0
---
header: 
  seq: 8401
  stamp: 
    secs: 1596615772
    nsecs: 921131796
  frame_id: "node1_radarinterface_radarscan"
range: 2.5015232563
angle: 0.0
elev: 0.204536914825
doppler: 0.0
snr: 135
noise: 401
frame_num: 813
point_id: 5
x: 0.0
y: 2.44937944412
z: 0.508093774319
doppler_bin: 32
target_idx: 5
posX: 0.0825860276818
posY: 2.62780237198
posZ: 0.554965674877
velX: 0.0493016019464
velY: -0.017392873764
velZ: 0.282109349966
accX: 0.0
accY: 0.0
accZ: 0.0
---
header: 
  seq: 8402
  stamp: 
    secs: 1596615772
    nsecs: 921254492
  frame_id: "node1_radarinterface_radarscan"
range: 2.57969594002
angle: -0.0335915610194
elev: 0.375107616186
doppler: 0.0
snr: 158
noise: 400
frame_num: 813
point_id: 6
x: -0.0806155055761
y: 2.39897084236
z: 0.945130050182
doppler_bin: 32
target_idx: 5
posX: 0.0825860276818
posY: 2.62780237198
posZ: 0.554965674877
velX: 0.0493016019464
velY: -0.017392873764
velZ: 0.282109349966
accX: 0.0
accY: 0.0
accZ: 0.0
---
header: 
  seq: 8403
  stamp: 
    secs: 1596615772
    nsecs: 921423483
  frame_id: "node1_radarinterface_radarscan"
range: 2.89238619804
angle: 0.0316767841578
elev: 0.163325875998
doppler: 0.0
snr: 195
noise: 435
frame_num: 813
point_id: 11
x: 0.0903870761395
y: 2.85246253014
z: 0.470304071903
doppler_bin: 32
target_idx: 5
posX: 0.0825860276818
posY: 2.62780237198
posZ: 0.554965674877
velX: 0.0493016019464
velY: -0.017392873764
velZ: 0.282109349966
accX: 0.0
accY: 0.0
accZ: 0.0
---
header: 
  seq: 8404
  stamp: 
    secs: 1596615772
    nsecs: 921483593
  frame_id: "node1_radarinterface_radarscan"
range: 2.5015232563
angle: 0.0
elev: 0.239389151335
doppler: 0.0795030742884
snr: 154
noise: 445
frame_num: 813
point_id: 17
x: 0.0
y: 2.43018722534
z: 0.593134284019
doppler_bin: 33
target_idx: 5
posX: 0.0825860276818
posY: 2.62780237198
posZ: 0.554965674877
velX: 0.0493016019464
velY: -0.017392873764
velZ: 0.282109349966
accX: 0.0
accY: 0.0
accZ: 0.0
---
header: 
  seq: 8405
  stamp: 
    secs: 1596615772
    nsecs: 921503801
  frame_id: "node1_radarinterface_radarscan"
range: 2.97055888176
angle: 0.0
elev: 0.29130217433
doppler: 0.0795030742884
snr: 126
noise: 499
frame_num: 813
point_id: 25
x: 0.0
y: 2.84541130066
z: 0.853143870831
doppler_bin: 33
target_idx: 5
posX: 0.0825860276818
posY: 2.62780237198
posZ: 0.554965674877
velX: 0.0493016019464
velY: -0.017392873764
velZ: 0.282109349966
accX: 0.0
accY: 0.0
accZ: 0.0
---
header: 
  seq: 8406
  stamp: 
    secs: 1596615772
    nsecs: 921517775
  frame_id: "node1_radarinterface_radarscan"
range: 2.57969594002
angle: 0.0
elev: 0.487247437239
doppler: 0.159006148577
snr: 145
noise: 406
frame_num: 813
point_id: 27
x: 0.0
y: 2.27948355675
z: 1.20780181885
doppler_bin: 34
target_idx: 5
posX: 0.0825860276818
posY: 2.62780237198
posZ: 0.554965674877
velX: 0.0493016019464
velY: -0.017392873764
velZ: 0.282109349966
accX: 0.0
accY: 0.0
accZ: 0.0
---
header: 
  seq: 8407
  stamp: 
    secs: 1596615772
    nsecs: 921539272
  frame_id: "node1_radarinterface_radarscan"
range: 2.65786838531
angle: 0.265103012323
elev: 0.30393281579
doppler: 0.159006148577
snr: 132
noise: 410
frame_num: 813
point_id: 28
x: 0.664467155933
y: 2.44745445251
z: 0.795433759689
doppler_bin: 34
target_idx: 5
posX: 0.0825860276818
posY: 2.62780237198
posZ: 0.554965674877
velX: 0.0493016019464
velY: -0.017392873764
velZ: 0.282109349966
accX: 0.0
accY: 0.0
accZ: 0.0
---
header: 
  seq: 8408
  stamp: 
    secs: 1596615772
    nsecs: 921559188
  frame_id: "node1_radarinterface_radarscan"
range: 2.89238619804
angle: 0.0
elev: 0.219143182039
doppler: 0.159006148577
snr: 203
noise: 433
frame_num: 813
point_id: 31
x: 0.0
y: 2.82321214676
z: 0.628785610199
doppler_bin: 34
target_idx: 5
posX: 0.0825860276818
posY: 2.62780237198
posZ: 0.554965674877
velX: 0.0493016019464
velY: -0.017392873764
velZ: 0.282109349966
accX: 0.0
accY: 0.0
accZ: 0.0
---
header: 
  seq: 8409
  stamp: 
    secs: 1596615772
    nsecs: 921579642
  frame_id: "node1_radarinterface_radarscan"
range: 2.5015232563
angle: 0.0634457319975
elev: 0.168990671635
doppler: -0.0795030742884
snr: 137
noise: 397
frame_num: 813
point_id: 42
x: 0.156345203519
y: 2.46092772484
z: 0.420724898577
doppler_bin: 31
target_idx: 5
posX: 0.0825860276818
posY: 2.62780237198
posZ: 0.554965674877
velX: 0.0493016019464
velY: -0.017392873764
velZ: 0.282109349966
accX: 0.0
accY: 0.0
accZ: 0.0
---
header: 
  seq: 8410
  stamp: 
    secs: 1596615772
    nsecs: 921608657
  frame_id: "node1_radarinterface_radarscan"
range: 2.57969594002
angle: 0.06998886168
elev: 0.465207129717
doppler: -0.0795030742884
snr: 166
noise: 397
frame_num: 813
point_id: 44
x: 0.16123098135
y: 2.29990363121
z: 1.15727210045
doppler_bin: 31
target_idx: 5
posX: 0.0825860276818
posY: 2.62780237198
posZ: 0.554965674877
velX: 0.0493016019464
velY: -0.017392873764
velZ: 0.282109349966
accX: 0.0
accY: 0.0
accZ: 0.0
---
header: 
  seq: 8411
  stamp: 
    secs: 1596615772
    nsecs: 921677978
  frame_id: "node1_radarinterface_radarscan"
range: 2.89238619804
angle: 0.0640101209283
elev: 0.214536696672
doppler: -0.0795030742884
snr: 138
noise: 446
frame_num: 813
point_id: 49
x: 0.180774122477
y: 2.82029104233
z: 0.615773916245
doppler_bin: 31
target_idx: 5
posX: 0.0825860276818
posY: 2.62780237198
posZ: 0.554965674877
velX: 0.0493016019464
velY: -0.017392873764
velZ: 0.282109349966
accX: 0.0
accY: 0.0
accZ: 0.0
---
header: 
  seq: 8412
  stamp: 
    secs: 1596615773
    nsecs:  20051231
  frame_id: "node1_radarinterface_radarscan"
range: 2.34517812729
angle: -0.0317705832422
elev: 0.180356442928
doppler: 0.0795030742884
snr: 122
noise: 443
frame_num: 814
point_id: 12
x: -0.0732868164778
y: 2.30597472191
z: 0.42067861557
doppler_bin: 33
target_idx: 5
posX: 0.0294899269938
posY: 2.57938909531
posZ: 0.698887228966
velX: -0.179925769567
velY: -0.163373664021
velZ: 0.644996166229
accX: 0.0
accY: 0.0
accZ: 0.0
---
header: 
  seq: 8413
  stamp: 
    secs: 1596615773
    nsecs:  20188307
  frame_id: "node1_radarinterface_radarscan"
range: 2.5015232563
angle: -0.0341167077422
elev: 0.41242569685
doppler: 0.0795030742884
snr: 129
noise: 445
frame_num: 814
point_id: 14
x: -0.0781726017594
y: 2.29043984413
z: 1.00269258022
doppler_bin: 33
target_idx: 5
posX: 0.0294899269938
posY: 2.57938909531
posZ: 0.698887228966
velX: -0.179925769567
velY: -0.163373664021
velZ: 0.644996166229
accX: 0.0
accY: 0.0
accZ: 0.0
---
header: 
  seq: 8414
  stamp: 
    secs: 1596615773
    nsecs:  20227571
  frame_id: "node1_radarinterface_radarscan"
range: 2.57969594002
angle: -0.0339901223779
elev: 0.403832346201
doppler: -0.159006148577
snr: 138
noise: 405
frame_num: 814
point_id: 22
x: -0.0806155055761
y: 2.37081980705
z: 1.01367938519
doppler_bin: 30
target_idx: 5
posX: 0.0294899269938
posY: 2.57938909531
posZ: 0.698887228966
velX: -0.179925769567
velY: -0.163373664021
velZ: 0.644996166229
accX: 0.0
accY: 0.0
accZ: 0.0
---
header: 
  seq: 8415
  stamp: 
    secs: 1596615773
    nsecs:  20306958
  frame_id: "node1_radarinterface_radarscan"
range: 2.65786838531
angle: 0.0
elev: 0.397935420275
doppler: -0.159006148577
snr: 157
noise: 411
frame_num: 814
point_id: 23
x: 0.0
y: 2.45019054413
z: 1.02996623516
doppler_bin: 30
target_idx: 5
posX: 0.0294899269938
posY: 2.57938909531
posZ: 0.698887228966
velX: -0.179925769567
velY: -0.163373664021
velZ: 0.644996166229
accX: 0.0
accY: 0.0
accZ: 0.0
---
header: 
  seq: 8416
  stamp: 
    secs: 1596615773
    nsecs:  20333405
  frame_id: "node1_radarinterface_radarscan"
range: 2.34517812729
angle: -0.0318098813295
elev: 0.187008216977
doppler: -0.0795030742884
snr: 157
noise: 398
frame_num: 814
point_id: 27
x: -0.0732868164778
y: 2.30312395096
z: 0.43601578474
doppler_bin: 31
target_idx: 5
posX: 0.0294899269938
posY: 2.57938909531
posZ: 0.698887228966
velX: -0.179925769567
velY: -0.163373664021
velZ: 0.644996166229
accX: 0.0
accY: 0.0
accZ: 0.0
---
header: 
  seq: 8417
  stamp: 
    secs: 1596615773
    nsecs:  20363585
  frame_id: "node1_radarinterface_radarscan"
range: 2.42335057259
angle: 0.0
elev: 0.269319653511
doppler: -0.0795030742884
snr: 191
noise: 402
frame_num: 814
point_id: 28
x: 0.0
y: 2.3359940052
z: 0.644794642925
doppler_bin: 31
target_idx: 5
posX: 0.0294899269938
posY: 2.57938909531
posZ: 0.698887228966
velX: -0.179925769567
velY: -0.163373664021
velZ: 0.644996166229
accX: 0.0
accY: 0.0
accZ: 0.0
---
header: 
  seq: 8418
  stamp: 
    secs: 1596615773
    nsecs:  20388955
  frame_id: "node1_radarinterface_radarscan"
range: 2.5015232563
angle: 0.0
elev: 0.363075226545
doppler: -0.0795030742884
snr: 191
noise: 411
frame_num: 814
point_id: 29
x: 0.0
y: 2.33844661713
z: 0.888417601585
doppler_bin: 31
target_idx: 5
posX: 0.0294899269938
posY: 2.57938909531
posZ: 0.698887228966
velX: -0.179925769567
velY: -0.163373664021
velZ: 0.644996166229
accX: 0.0
accY: 0.0
accZ: 0.0
---
header: 
  seq: 8419
  stamp: 
    secs: 1596615773
    nsecs:  20427264
  frame_id: "node1_radarinterface_radarscan"
range: 2.57969594002
angle: -0.0349145978689
elev: 0.46186491847
doppler: -0.0795030742884
snr: 194
noise: 417
frame_num: 814
point_id: 30
x: -0.0806155055761
y: 2.3079957962
z: 1.14955997467
doppler_bin: 31
target_idx: 5
posX: 0.0294899269938
posY: 2.57938909531
posZ: 0.698887228966
velX: -0.179925769567
velY: -0.163373664021
velZ: 0.644996166229
accX: 0.0
accY: 0.0
accZ: 0.0
---
header: 
  seq: 8420
  stamp: 
    secs: 1596615773
    nsecs: 120636089
  frame_id: "node1_radarinterface_radarscan"
range: 2.42335057259
angle: -0.0315112508833
elev: 0.12757410109
doppler: 0.0
snr: 145
noise: 390
frame_num: 815
point_id: 2
x: -0.0757297128439
y: 2.40246391296
z: 0.308318853378
doppler_bin: 32
target_idx: 5
posX: -0.0364601016045
posY: 2.53852128983
posZ: 0.752945780754
velX: -0.396118462086
velY: -0.238009035587
velZ: 0.693885207176
accX: 0.0
accY: 0.0
accZ: 0.0
---
header: 
  seq: 8421
  stamp: 
    secs: 1596615773
    nsecs: 120729230
  frame_id: "node1_radarinterface_radarscan"
range: 2.42335057259
angle: -0.0322933569551
elev: 0.254221051931
doppler: 0.0795030742884
snr: 206
noise: 412
frame_num: 815
point_id: 12
x: -0.0757297053933
y: 2.34423995018
z: 0.60945224762
doppler_bin: 33
target_idx: 5
posX: -0.0364601016045
posY: 2.53852128983
posZ: 0.752945780754
velX: -0.396118462086
velY: -0.238009035587
velZ: 0.693885207176
accX: 0.0
accY: 0.0
accZ: 0.0
---
header: 
  seq: 8422
  stamp: 
    secs: 1596615773
    nsecs: 120812052
  frame_id: "node1_radarinterface_radarscan"
range: 2.57969594002
angle: -0.0366308279335
elev: 0.548519611359
doppler: 0.0795030742884
snr: 136
noise: 413
frame_num: 815
point_id: 14
