header: 
  seq: 834
  stamp: 
    secs: 1596616069
    nsecs: 840683369
  frame_id: "node1_radarinterface_radarscan"
range: 1.79796981812
angle: 0.0
elev: 0.26490226388
doppler: 0.0795030742884
snr: 158
noise: 499
frame_num: 71
point_id: 10
x: 0.0
y: 1.73525321484
z: 0.470735371113
doppler_bin: 33
target_idx: 1
posX: -0.0254968144
posY: 1.8526352644
posZ: 0.423762202263
velX: 0.0693202391267
velY: -0.069056533277
velZ: -0.0592041313648
accX: 0.0
accY: 0.0
accZ: 0.0
---
header: 
  seq: 835
  stamp: 
    secs: 1596616069
    nsecs: 840779497
  frame_id: "node1_radarinterface_radarscan"
range: 1.87614250183
angle: 0.0
elev: 0.197112679482
doppler: 0.0795030742884
snr: 165
noise: 496
frame_num: 71
point_id: 11
x: 0.0
y: 1.83981311321
z: 0.367421388626
doppler_bin: 33
target_idx: 1
posX: -0.0254968144
posY: 1.8526352644
posZ: 0.423762202263
velX: 0.0693202391267
velY: -0.069056533277
velZ: -0.0592041313648
accX: 0.0
accY: 0.0
accZ: 0.0
---
header: 
  seq: 836
  stamp: 
    secs: 1596616069
    nsecs: 840796664
  frame_id: "node1_radarinterface_radarscan"
range: 1.71979725361
angle: 0.0
elev: 0.306553453207
doppler: -0.159006148577
snr: 116
noise: 477
frame_num: 71
point_id: 16
x: 0.0
y: 1.63961911201
z: 0.518991053104
doppler_bin: 30
target_idx: 1
posX: -0.0254968144
posY: 1.8526352644
posZ: 0.423762202263
velX: 0.0693202391267
velY: -0.069056533277
velZ: -0.0592041313648
accX: 0.0
accY: 0.0
accZ: 0.0
---
header: 
  seq: 837
  stamp: 
    secs: 1596616069
    nsecs: 840812132
  frame_id: "node1_radarinterface_radarscan"
range: 1.79796981812
angle: 0.0
elev: 0.264114439487
doppler: -0.0795030742884
snr: 124
noise: 562
frame_num: 71
point_id: 23
x: 0.0
y: 1.73562347889
z: 0.469368129969
doppler_bin: 31
target_idx: 1
posX: -0.0254968144
posY: 1.8526352644
posZ: 0.423762202263
velX: 0.0693202391267
velY: -0.069056533277
velZ: -0.0592041313648
accX: 0.0
accY: 0.0
accZ: 0.0
---
header: 
  seq: 838
  stamp: 
    secs: 1596616069
    nsecs: 942877340
  frame_id: "node1_radarinterface_radarscan"
range: 1.71979725361
angle: -0.0326681695879
elev: 0.295148938894
doppler: 0.0
snr: 161
noise: 496
frame_num: 72
point_id: 5
x: -0.0537436641753
y: 1.64455318451
z: 0.500258684158
doppler_bin: 32
target_idx: 1
posX: -0.0355312228203
posY: 1.85050356388
posZ: 0.413325130939
velX: 0.0256470516324
velY: -0.00305224955082
velZ: -0.0665083378553
accX: 0.0
accY: 0.0
accZ: 0.0
---
header: 
  seq: 839
  stamp: 
    secs: 1596616069
    nsecs: 943002731
  frame_id: "node1_radarinterface_radarscan"
range: 1.79796981812
angle: -0.0325238332152
elev: 0.280188530684
doppler: 0.0
snr: 181
noise: 506
frame_num: 72
point_id: 6
x: -0.0561865605414
y: 1.72694122791
z: 0.497204869986
doppler_bin: 32
target_idx: 1
posX: -0.0355312228203
posY: 1.85050356388
posZ: 0.413325130939
velX: 0.0256470516324
velY: -0.00305224955082
velZ: -0.0665083378553
accX: 0.0
accY: 0.0
accZ: 0.0
---
header: 
  seq: 840
  stamp: 
    secs: 1596616069
    nsecs: 943064091
  frame_id: "node1_radarinterface_radarscan"
range: 1.87614250183
angle: -0.0321004204452
elev: 0.229963481426
doppler: 0.0795030742884
snr: 237
noise: 500
frame_num: 72
point_id: 14
x: -0.0586294531822
y: 1.82581150532
z: 0.427651613951
doppler_bin: 33
target_idx: 1
posX: -0.0355312228203
posY: 1.85050356388
posZ: 0.413325130939
velX: 0.0256470516324
velY: -0.00305224955082
velZ: -0.0665083378553
accX: 0.0
accY: 0.0
accZ: 0.0
---
header: 
  seq: 841
  stamp: 
    secs: 1596616069
    nsecs: 943093297
  frame_id: "node1_radarinterface_radarscan"
range: 1.79796981812
angle: -0.0324865579605
elev: 0.276174843311
doppler: 0.159006148577
snr: 248
noise: 444
frame_num: 72
point_id: 20
x: -0.0561865568161
y: 1.72892391682
z: 0.49026581645
doppler_bin: 34
target_idx: 1
posX: -0.0355312228203
posY: 1.85050356388
posZ: 0.413325130939
velX: 0.0256470516324
velY: -0.00305224955082
velZ: -0.0665083378553
accX: 0.0
accY: 0.0
accZ: 0.0
---
header: 
  seq: 842
  stamp: 
    secs: 1596616069
    nsecs: 943129346
  frame_id: "node1_radarinterface_radarscan"
range: 1.87614250183
angle: -0.0321815162897
elev: 0.240487486124
doppler: 0.159006148577
snr: 226
noise: 443
frame_num: 72
point_id: 21
x: -0.0586294569075
y: 1.82120740414
z: 0.446852326393
doppler_bin: 34
target_idx: 1
posX: -0.0355312228203
posY: 1.85050356388
posZ: 0.413325130939
velX: 0.0256470516324
velY: -0.00305224955082
velZ: -0.0665083378553
accX: 0.0
accY: 0.0
accZ: 0.0
---
header: 
  seq: 843
  stamp: 
    secs: 1596616069
    nsecs: 943159897
  frame_id: "node1_radarinterface_radarscan"
range: 1.79796981812
angle: 0.0
elev: 0.181812539697
doppler: -0.159006148577
snr: 148
noise: 483
frame_num: 72
point_id: 28
x: 0.0
y: 1.76833486557
z: 0.32509547472
doppler_bin: 30
target_idx: 1
posX: -0.0355312228203
posY: 1.85050356388
posZ: 0.413325130939
velX: 0.0256470516324
velY: -0.00305224955082
velZ: -0.0665083378553
accX: 0.0
accY: 0.0
accZ: 0.0
---
header: 
  seq: 844
  stamp: 
    secs: 1596616069
    nsecs: 943233269
  frame_id: "node1_radarinterface_radarscan"
range: 1.71979725361
angle: 0.0
elev: 0.259688228369
doppler: -0.0795030742884
snr: 172
noise: 504
frame_num: 72
point_id: 36
x: 0.0
y: 1.66213262081
z: 0.441608250141
doppler_bin: 31
target_idx: 1
posX: -0.0355312228203
posY: 1.85050356388
posZ: 0.413325130939
velX: 0.0256470516324
velY: -0.00305224955082
velZ: -0.0665083378553
accX: 0.0
accY: 0.0
accZ: 0.0
---
header: 
  seq: 845
  stamp: 
    secs: 1596616069
    nsecs: 943258200
  frame_id: "node1_radarinterface_radarscan"
range: 1.87614250183
angle: 0.0
elev: 0.183278873563
doppler: -0.0795030742884
snr: 164
noise: 540
frame_num: 72
point_id: 38
x: 0.0
y: 1.84471976757
z: 0.341935425997
doppler_bin: 31
target_idx: 1
posX: -0.0355312228203
posY: 1.85050356388
posZ: 0.413325130939
velX: 0.0256470516324
velY: -0.00305224955082
velZ: -0.0665083378553
accX: 0.0
accY: 0.0
accZ: 0.0
---
header: 
  seq: 846
  stamp: 
    secs: 1596616070
    nsecs:  43753433
  frame_id: "node1_radarinterface_radarscan"
range: 1.79796981812
angle: 0.0
elev: 0.284921854734
doppler: 0.0
snr: 258
noise: 495
frame_num: 73
point_id: 7
x: 0.0
y: 1.72548222542
z: 0.50537776947
doppler_bin: 32
target_idx: 1
posX: -0.0386171452701
posY: 1.838722229
posZ: 0.413474023342
velX: 0.0122765786946
velY: -0.00751932151616
velZ: -0.0481344014406
accX: 0.0
accY: 0.0
accZ: 0.0
---
header: 
  seq: 847
  stamp: 
    secs: 1596616070
    nsecs:  43833102
  frame_id: "node1_radarinterface_radarscan"
range: 1.87614250183
angle: 0.0
elev: 0.275727748871
doppler: 0.0
snr: 229
noise: 487
frame_num: 73
point_id: 8
x: 0.0
y: 1.80527555943
z: 0.510774672031
doppler_bin: 32
target_idx: 1
posX: -0.0386171452701
posY: 1.838722229
posZ: 0.413474023342
velX: 0.0122765786946
velY: -0.00751932151616
velZ: -0.0481344014406
accX: 0.0
accY: 0.0
accZ: 0.0
---
header: 
  seq: 848
  stamp: 
    secs: 1596616070
    nsecs:  43857328
  frame_id: "node1_radarinterface_radarscan"
range: 1.6416246891
angle: 0.0
elev: 0.343961507082
doppler: 0.0795030742884
snr: 174
noise: 498
frame_num: 73
point_id: 16
x: 0.0
y: 1.54546844959
z: 0.553587377071
doppler_bin: 33
target_idx: 1
posX: -0.0386171452701
posY: 1.838722229
posZ: 0.413474023342
velX: 0.0122765786946
velY: -0.00751932151616
velZ: -0.0481344014406
accX: 0.0
accY: 0.0
accZ: 0.0
---
header: 
  seq: 849
  stamp: 
    secs: 1596616070
    nsecs:  43928284
  frame_id: "node1_radarinterface_radarscan"
range: 1.71979725361
angle: 0.0
elev: 0.32622936368
doppler: 0.0795030742884
snr: 246
noise: 524
frame_num: 73
point_id: 17
x: 0.0
y: 1.62909078598
z: 0.5511495471
doppler_bin: 33
target_idx: 1
posX: -0.0386171452701
posY: 1.838722229
posZ: 0.413474023342
velX: 0.0122765786946
velY: -0.00751932151616
velZ: -0.0481344014406
accX: 0.0
accY: 0.0
accZ: 0.0
---
header: 
  seq: 850
  stamp: 
    secs: 1596616070
    nsecs:  43948696
  frame_id: "node1_radarinterface_radarscan"
range: 1.87614250183
angle: 0.0
elev: 0.274196356535
doppler: 0.0795030742884
snr: 225
noise: 524
frame_num: 73
point_id: 19
x: 0.0
y: 1.80605566502
z: 0.508009493351
doppler_bin: 33
target_idx: 1
posX: -0.0386171452701
posY: 1.838722229
posZ: 0.413474023342
velX: 0.0122765786946
velY: -0.00751932151616
velZ: -0.0481344014406
accX: 0.0
accY: 0.0
accZ: 0.0
---
header: 
  seq: 851
  stamp: 
    secs: 1596616070
    nsecs:  43972961
  frame_id: "node1_radarinterface_radarscan"
range: 1.6416246891
angle: 0.0
elev: 0.362682908773
doppler: 0.159006148577
snr: 164
noise: 447
frame_num: 73
point_id: 23
x: 0.0
y: 1.53483426571
z: 0.582422018051
doppler_bin: 34
target_idx: 1
posX: -0.0386171452701
posY: 1.838722229
posZ: 0.413474023342
velX: 0.0122765786946
velY: -0.00751932151616
velZ: -0.0481344014406
accX: 0.0
accY: 0.0
accZ: 0.0
---
header: 
  seq: 852
  stamp: 
    secs: 1596616070
    nsecs:  44045510
  frame_id: "node1_radarinterface_radarscan"
range: 1.87614250183
angle: 0.0
elev: 0.309432834387
doppler: 0.159006148577
snr: 214
noise: 468
frame_num: 73
point_id: 26
x: 0.0
y: 1.78703784943
z: 0.571319997311
doppler_bin: 34
target_idx: 1
posX: -0.0386171452701
posY: 1.838722229
posZ: 0.413474023342
velX: 0.0122765786946
velY: -0.00751932151616
velZ: -0.0481344014406
accX: 0.0
accY: 0.0
accZ: 0.0
---
header: 
  seq: 853
  stamp: 
    secs: 1596616070
    nsecs:  44069973
  frame_id: "node1_radarinterface_radarscan"
range: 1.79796981812
angle: -0.0630382373929
elev: 0.125631630421
doppler: -0.159006148577
snr: 275
noise: 441
frame_num: 73
point_id: 31
x: -0.112373121083
y: 1.78025650978
z: 0.225288152695
doppler_bin: 30
target_idx: 1
posX: -0.0386171452701
posY: 1.838722229
posZ: 0.413474023342
velX: 0.0122765786946
velY: -0.00751932151616
velZ: -0.0481344014406
accX: 0.0
accY: 0.0
accZ: 0.0
---
header: 
  seq: 854
  stamp: 
    secs: 1596616070
    nsecs:  44091861
  frame_id: "node1_radarinterface_radarscan"
range: 1.87614250183
angle: -0.0631763860583
elev: 0.141878843307
doppler: -0.159006148577
snr: 255
noise: 448
frame_num: 73
point_id: 32
x: -0.117258898914
y: 1.85358583927
z: 0.265292793512
doppler_bin: 30
target_idx: 1
posX: -0.0386171452701
posY: 1.838722229
posZ: 0.413474023342
velX: 0.0122765786946
velY: -0.00751932151616
velZ: -0.0481344014406
accX: 0.0
accY: 0.0
accZ: 0.0
---
header: 
  seq: 855
  stamp: 
    secs: 1596616070
    nsecs:  44168761
  frame_id: "node1_radarinterface_radarscan"
range: 1.95431506634
angle: -0.063854187727
elev: 0.203040614724
doppler: -0.159006148577
snr: 177
noise: 451
frame_num: 73
point_id: 33
x: -0.122144691646
y: 1.91026842594
z: 0.39408454299
doppler_bin: 30
target_idx: 1
posX: -0.0386171452701
posY: 1.838722229
posZ: 0.413474023342
velX: 0.0122765786946
velY: -0.00751932151616
velZ: -0.0481344014406
accX: 0.0
accY: 0.0
accZ: 0.0
---
header: 
  seq: 856
  stamp: 
    secs: 1596616070
    nsecs:  44203355
  frame_id: "node1_radarinterface_radarscan"
range: 1.71979725361
angle: -0.126515343785
elev: -0.136758759618
doppler: -0.0795030742884
snr: 123
noise: 475
frame_num: 73
point_id: 39
x: -0.2149746418
y: 1.69012272358
z: -0.234464883804
doppler_bin: 31
target_idx: 1
posX: -0.0386171452701
posY: 1.838722229
posZ: 0.413474023342
velX: 0.0122765786946
velY: -0.00751932151616
velZ: -0.0481344014406
accX: 0.0
accY: 0.0
accZ: 0.0
---
header: 
  seq: 857
  stamp: 
    secs: 1596616070
    nsecs: 141526982
  frame_id: "node1_radarinterface_radarscan"
range: 1.71979725361
angle: 0.0339897237718
elev: 0.403805136681
doppler: 0.0
snr: 123
noise: 466
frame_num: 74
point_id: 3
x: 0.0537436641753
y: 1.58056485653
z: 0.675743222237
doppler_bin: 32
target_idx: 1
posX: -0.0208601858467
posY: 1.83749043941
posZ: 0.394157499075
velX: 0.0827428847551
velY: 0.0106980577111
velZ: -0.0878329724073
accX: 0.0
accY: 0.0
accZ: 0.0
---
header: 
  seq: 858
  stamp: 
    secs: 1596616070
    nsecs: 141617432
  frame_id: "node1_radarinterface_radarscan"
range: 1.71979725361
angle: 0.0
elev: 0.321024805307
doppler: 0.0795030742884
snr: 187
noise: 510
frame_num: 74
point_id: 13
x: 0.0
y: 1.63193714619
z: 0.542663395405
doppler_bin: 33
target_idx: 1
posX: -0.0208601858467
posY: 1.83749043941
posZ: 0.394157499075
velX: 0.0827428847551
velY: 0.0106980577111
velZ: -0.0878329724073
accX: 0.0
accY: 0.0
accZ: 0.0
---
header: 
  seq: 859
  stamp: 
    secs: 1596616070
    nsecs: 141640126
  frame_id: "node1_radarinterface_radarscan"
range: 1.95431506634
angle: 0.0
elev: 0.163580581546
doppler: 0.0795030742884
snr: 119
noise: 501
frame_num: 74
point_id: 16
x: 0.0
y: 1.92822599411
z: 0.31826415658
doppler_bin: 33
target_idx: 1
posX: -0.0208601858467
posY: 1.83749043941
posZ: 0.394157499075
velX: 0.0827428847551
velY: 0.0106980577111
velZ: -0.0878329724073
accX: 0.0
accY: 0.0
accZ: 0.0
---
header: 
  seq: 860
  stamp: 
    secs: 1596616070
    nsecs: 141666123
  frame_id: "node1_radarinterface_radarscan"
range: 1.79796981812
angle: 0.0
elev: 0.318424254656
doppler: 0.159006148577
snr: 216
noise: 440
frame_num: 74
point_id: 21
x: 0.0
y: 1.70758569241
z: 0.562891185284
doppler_bin: 34
target_idx: 1
posX: -0.0208601858467
posY: 1.83749043941
posZ: 0.394157499075
velX: 0.0827428847551
velY: 0.0106980577111
velZ: -0.0878329724073
accX: 0.0
accY: 0.0
accZ: 0.0
---
header: 
  seq: 861
  stamp: 
    secs: 1596616070
    nsecs: 141693936
  frame_id: "node1_radarinterface_radarscan"
range: 1.87614250183
angle: 0.0
elev: 0.287093013525
doppler: 0.159006148577
snr: 196
noise: 435
frame_num: 74
point_id: 22
x: 0.0
y: 1.79935407639
z: 0.531258702278
doppler_bin: 34
target_idx: 1
posX: -0.0208601858467
posY: 1.83749043941
posZ: 0.394157499075
velX: 0.0827428847551
velY: 0.0106980577111
velZ: -0.0878329724073
accX: 0.0
accY: 0.0
accZ: 0.0
---
header: 
  seq: 862
  stamp: 
    secs: 1596616070
    nsecs: 141721932
  frame_id: "node1_radarinterface_radarscan"
range: 1.71979725361
angle: -0.0318352468312
elev: 0.191171869636
doppler: -0.159006148577
snr: 168
noise: 427
frame_num: 74
point_id: 23
x: -0.0537436679006
y: 1.68761086464
z: 0.326777905226
doppler_bin: 30
target_idx: 1
posX: -0.0208601858467
posY: 1.83749043941
posZ: 0.394157499075
velX: 0.0827428847551
velY: 0.0106980577111
velZ: -0.0878329724073
accX: 0.0
accY: 0.0
accZ: 0.0
---
header: 
  seq: 863
  stamp: 
    secs: 1596616070
    nsecs: 141750925
  frame_id: "node1_radarinterface_radarscan"
range: 1.95431506634
angle: -0.0312736481428
elev: 0.0344489812851
doppler: -0.159006148577
snr: 163
noise: 429
frame_num: 74
point_id: 26
x: -0.0610723420978
y: 1.95220041275
z: 0.067310847342
doppler_bin: 30
target_idx: 1
posX: -0.0208601858467
posY: 1.83749043941
posZ: 0.394157499075
velX: 0.0827428847551
velY: 0.0106980577111
velZ: -0.0878329724073
accX: 0.0
accY: 0.0
accZ: 0.0
---
header: 
  seq: 864
  stamp: 
    secs: 1596616070
    nsecs: 141779249
  frame_id: "node1_radarinterface_radarscan"
range: 1.71979725361
angle: 0.0
elev: 0.22669133544
doppler: -0.0795030742884
snr: 195
noise: 479
frame_num: 74
point_id: 33
x: 0.0
y: 1.67579686642
z: 0.386532604694
doppler_bin: 31
target_idx: 1
posX: -0.0208601858467
posY: 1.83749043941
posZ: 0.394157499075
velX: 0.0827428847551
velY: 0.0106980577111
velZ: -0.0878329724073
accX: 0.0
accY: 0.0
accZ: 0.0
---
header: 
  seq: 865
  stamp: 
    secs: 1596616070
    nsecs: 141806475
  frame_id: "node1_radarinterface_radarscan"
range: 1.95431506634
angle: 0.0
elev: 0.0506961047649
doppler: -0.0795030742884
snr: 168
noise: 494
frame_num: 74
point_id: 36
x: 0.0
y: 1.95180416107
z: 0.0990337282419
doppler_bin: 31
target_idx: 1
posX: -0.0208601858467
posY: 1.83749043941
posZ: 0.394157499075
velX: 0.0827428847551
velY: 0.0106980577111
velZ: -0.0878329724073
accX: 0.0
accY: 0.0
accZ: 0.0
---
header: 
  seq: 866
  stamp: 
    secs: 1596616070
    nsecs: 242425919
  frame_id: "node1_radarinterface_radarscan"
range: 1.87614250183
angle: -0.0318523198366
elev: 0.193921104074
doppler: 0.0
snr: 160
noise: 454
frame_num: 75
point_id: 6
x: -0.0586294531822
y: 1.84004259109
z: 0.361547619104
doppler_bin: 32
target_idx: 1
posX: 0.00111782643944
posY: 1.82008850574
posZ: 0.440651595592
velX: 0.151313766837
velY: -0.038386169821
velZ: 0.0704721584916
accX: 0.0
accY: 0.0
accZ: 0.0
---
header: 
  seq: 867
  stamp: 
    secs: 1596616070
    nsecs: 341198822
  frame_id: "node1_radarinterface_radarscan"
range: 1.79796981812
angle: 0.0
elev: 0.261076122522
doppler: 0.0
snr: 293
noise: 472
frame_num: 76
point_id: 6
x: 0.0
y: 1.7370415926
z: 0.464092612267
doppler_bin: 32
target_idx: 1
posX: 0.00138201005757
posY: 1.80908787251
posZ: 0.438191324472
velX: 0.113556355238
velY: -0.07512126863
velZ: 0.0505793839693
accX: 0.0
accY: 0.0
accZ: 0.0
---
header: 
  seq: 868
  stamp: 
    secs: 1596616070
    nsecs: 341309295
  frame_id: "node1_radarinterface_radarscan"
range: 1.87614250183
angle: 0.0
elev: 0.222701311111
doppler: 0.0
snr: 253
noise: 474
frame_num: 76
point_id: 7
x: 0.0
y: 1.82981002331
z: 0.414374262094
doppler_bin: 32
target_idx: 1
posX: 0.00138201005757
posY: 1.80908787251
posZ: 0.438191324472
velX: 0.113556355238
velY: -0.07512126863
velZ: 0.0505793839693
accX: 0.0
accY: 0.0
accZ: 0.0
---
header: 
  seq: 869
  stamp: 
    secs: 1596616070
    nsecs: 341330163
  frame_id: "node1_radarinterface_radarscan"
range: 1.95431506634
angle: -0.031418826431
elev: 0.102120257914
doppler: 0.0
snr: 149
noise: 475
frame_num: 76
point_id: 8
x: -0.0610723495483
y: 1.94317412376
z: 0.199228465557
doppler_bin: 32
target_idx: 1
posX: 0.00138201005757
posY: 1.80908787251
posZ: 0.438191324472
velX: 0.113556355238
velY: -0.07512126863
velZ: 0.0505793839693
accX: 0.0
accY: 0.0
accZ: 0.0
---
header: 
  seq: 870
  stamp: 
    secs: 1596616070
    nsecs: 440710070
  frame_id: "node1_radarinterface_radarscan"
range: 1.87614250183
angle: -0.0322994999588
elev: 0.254951804876
doppler: 0.0
snr: 234
noise: 442
frame_num: 77
point_id: 6
x: -0.0586294494569
y: 1.81455016136
z: 0.47316083312
doppler_bin: 32
target_idx: 1
posX: -0.0154098179191
posY: 1.79812169075
posZ: 0.433738678694
velX: 0.0151619315147
velY: -0.0802888721228
velZ: 0.0388275682926
accX: 0.0
accY: 0.0
accZ: 0.0
---
header: 
  seq: 871
  stamp: 
    secs: 1596616070
    nsecs: 440760714
  frame_id: "node1_radarinterface_radarscan"
range: 1.71979725361
angle: 0.0
elev: 0.276734262705
doppler: 0.0795030742884
snr: 151
noise: 498
frame_num: 77
point_id: 10
x: 0.0
y: 1.65436387062
z: 0.469875484705
doppler_bin: 33
target_idx: 1
posX: -0.0154098179191
posY: 1.79812169075
posZ: 0.433738678694
velX: 0.0151619315147
velY: -0.0802888721228
velZ: 0.0388275682926
accX: 0.0
accY: 0.0
accZ: 0.0
---
header: 
  seq: 872
  stamp: 
    secs: 1596616070
    nsecs: 536040619
  frame_id: "node1_radarinterface_radarscan"
range: 1.79796981812
angle: -0.0319251902401
elev: 0.205215215683
doppler: 0.0
snr: 273
noise: 466
frame_num: 78
point_id: 6
x: -0.0561865568161
y: 1.75934636593
z: 0.366386443377
doppler_bin: 32
target_idx: 1
posX: -0.0373162142932
posY: 1.79379940033
posZ: 0.401921749115
velX: -0.0814368650317
velY: -0.0594185963273
velZ: -0.0511089935899
accX: 0.0
accY: 0.0
accZ: 0.0
---
header: 
  seq: 873
  stamp: 
    secs: 1596616070
    nsecs: 536117494
  frame_id: "node1_radarinterface_radarscan"
range: 1.87614250183
angle: -0.031907979399
elev: 0.202608555555
doppler: 0.0
snr: 238
noise: 453
frame_num: 78
point_id: 7
x: -0.0586294531822
y: 1.836830616
z: 0.377527177334
doppler_bin: 32
target_idx: 1
posX: -0.0373162142932
posY: 1.79379940033
posZ: 0.401921749115
velX: -0.0814368650317
velY: -0.0594185963273
velZ: -0.0511089935899
accX: 0.0
accY: 0.0
accZ: 0.0
---
header: 
  seq: 874
  stamp: 
    secs: 1596616070
    nsecs: 536131778
  frame_id: "node1_radarinterface_radarscan"
range: 1.95431506634
angle: 0.0
elev: 0.256502985954
doppler: 0.0
snr: 130
noise: 443
frame_num: 78
point_id: 8
x: 0.0
y: 1.89037585258
z: 0.495808780193
doppler_bin: 32
target_idx: 1
posX: -0.0373162142932
posY: 1.79379940033
posZ: 0.401921749115
velX: -0.0814368650317
velY: -0.0594185963273
velZ: -0.0511089935899
accX: 0.0
accY: 0.0
accZ: 0.0
---
header: 
  seq: 875
  stamp: 
    secs: 1596616070
    nsecs: 536155513
  frame_id: "node1_radarinterface_radarscan"
range: 1.95431506634
angle: -0.0316369608045
elev: 0.155504956841
doppler: -0.159006148577
snr: 120
noise: 423
frame_num: 78
point_id: 25
x: -0.0610723420978
y: 1.9297670126
z: 0.302682340145
doppler_bin: 30
target_idx: 1
posX: -0.0373162142932
posY: 1.79379940033
posZ: 0.401921749115
velX: -0.0814368650317
velY: -0.0594185963273
velZ: -0.0511089935899
accX: 0.0
accY: 0.0
accZ: 0.0
---
header: 
  seq: 876
  stamp: 
    secs: 1596616070
    nsecs: 536196756
  frame_id: "node1_radarinterface_radarscan"
range: 1.87614250183
angle: -0.0317607931793
elev: 0.17865884304
doppler: -0.0795030742884
snr: 245
noise: 494
frame_num: 78
point_id: 31
x: -0.0586294494569
y: 1.84534859657
z: 0.333409130573
doppler_bin: 31
target_idx: 1
posX: -0.0373162142932
posY: 1.79379940033
posZ: 0.401921749115
velX: -0.0814368650317
velY: -0.0594185963273
velZ: -0.0511089935899
accX: 0.0
accY: 0.0
accZ: 0.0
---
header: 
  seq: 877
  stamp: 
    secs: 1596616070
    nsecs: 741207907
  frame_id: "node1_radarinterface_radarscan"
range: 1.79796981812
angle: -0.0319904983044
elev: 0.214799568057
doppler: 0.0
snr: 236
noise: 469
frame_num: 80
point_id: 6
x: -0.0561865530908
y: 1.75575208664
z: 0.383240163326
doppler_bin: 32
target_idx: 1
posX: -0.0518917888403
posY: 1.78227496147
posZ: 0.409423917532
velX: -0.127846628428
velY: -0.0464035868645
velZ: -0.0111370943487
accX: 0.0
accY: 0.0
accZ: 0.0
---
header: 
  seq: 878
  stamp: 
    secs: 1596616070
    nsecs: 741292869
  frame_id: "node1_radarinterface_radarscan"
range: 1.87614250183
angle: -0.0319162122905
elev: 0.203860029578
doppler: 0.0
snr: 178
noise: 473
frame_num: 80
point_id: 7
x: -0.0586294494569
y: 1.83635640144
z: 0.379826784134
doppler_bin: 32
target_idx: 1
posX: -0.0518917888403
posY: 1.78227496147
posZ: 0.409423917532
velX: -0.127846628428
velY: -0.0464035868645
velZ: -0.0111370943487
accX: 0.0
accY: 0.0
accZ: 0.0
---
header: 
  seq: 879
  stamp: 
    secs: 1596616070
    nsecs: 841167533
  frame_id: "node1_radarinterface_radarscan"
range: 1.87614250183
angle: -0.0317205451429
elev: 0.171492606401
doppler: 0.0
snr: 238
noise: 454
frame_num: 81
point_id: 6
x: -0.0586294531822
y: 1.84769165516
z: 0.32016980648
doppler_bin: 32
target_idx: 1
posX: -0.0594943575561
posY: 1.78587031364
posZ: 0.388994008303
velX: -0.13392919302
velY: 0.0353227369487
velZ: -0.0512623861432
accX: 0.0
accY: 0.0
accZ: 0.0
---
header: 
  seq: 880
  stamp: 
    secs: 1596616070
    nsecs: 841222709
  frame_id: "node1_radarinterface_radarscan"
range: 1.6416246891
angle: -0.0318934060633
elev: 0.200372576714
doppler: 0.0795030742884
snr: 244
noise: 436
frame_num: 81
point_id: 10
x: -0.0513007715344
y: 1.60796177387
z: 0.326739907265
doppler_bin: 33
target_idx: 1
posX: -0.0594943575561
posY: 1.78587031364
posZ: 0.388994008303
velX: -0.13392919302
velY: 0.0353227369487
velZ: -0.0512623861432
accX: 0.0
accY: 0.0
accZ: 0.0
---
header: 
  seq: 881
  stamp: 
    secs: 1596616070
    nsecs: 841425352
  frame_id: "node1_radarinterface_radarscan"
range: 1.71979725361
angle: 0.0
elev: 0.23861451447
doppler: -0.0795030742884
snr: 152
noise: 473
frame_num: 81
point_id: 26
x: 0.0
y: 1.6710691452
z: 0.406485468149
doppler_bin: 31
target_idx: 1
posX: -0.0594943575561
posY: 1.78587031364
posZ: 0.388994008303
velX: -0.13392919302
velY: 0.0353227369487
velZ: -0.0512623861432
accX: 0.0
accY: 0.0
accZ: 0.0
---
header: 
  seq: 882
  stamp: 
    secs: 1596616070
    nsecs: 942530162
  frame_id: "node1_radarinterface_radarscan"
range: 1.6416246891
angle: -0.0631908178329
elev: 0.143466979265
doppler: 0.0
snr: 120
noise: 436
frame_num: 82
point_id: 2
x: -0.102601543069
y: 1.62151622772
z: 0.234711825848
doppler_bin: 32
target_idx: 1
posX: -0.102777019143
posY: 1.79647493362
posZ: 0.342148244381
velX: -0.273675829172
velY: 0.10133036226
velZ: -0.170116022229
accX: 0.0
accY: 0.0
accZ: 0.0
---
header: 
  seq: 883
  stamp: 
    secs: 1596616070
    nsecs: 942596502
  frame_id: "node1_radarinterface_radarscan"
range: 1.6416246891
angle: -0.0629768073559
elev: 0.117667980492
doppler: 0.0795030742884
snr: 141
noise: 456
frame_num: 82
point_id: 8
x: -0.102601535618
y: 1.62704110146
z: 0.192721217871
doppler_bin: 33
target_idx: 1
posX: -0.102777019143
posY: 1.79647493362
posZ: 0.342148244381
velX: -0.273675829172
velY: 0.10133036226
velZ: -0.170116022229
accX: 0.0
accY: 0.0
accZ: 0.0
---
header: 
  seq: 884
  stamp: 
    secs: 1596616070
    nsecs: 942609870
  frame_id: "node1_radarinterface_radarscan"
range: 1.71979725361
angle: -0.0944392755628
elev: 0.107955031097
doppler: 0.0795030742884
snr: 201
noise: 468
frame_num: 82
point_id: 9
x: -0.16123098135
y: 1.70216655731
z: 0.185300350189
doppler_bin: 33
target_idx: 1
posX: -0.102777019143
posY: 1.79647493362
posZ: 0.342148244381
velX: -0.273675829172
velY: 0.10133036226
velZ: -0.170116022229
accX: 0.0
accY: 0.0
accZ: 0.0
---
header: 
  seq: 885
  stamp: 
    secs: 1596616070
    nsecs: 942635301
  frame_id: "node1_radarinterface_radarscan"
range: 1.79796981812
angle: -0.0947060883045
elev: 0.131349697709
doppler: 0.0795030742884
snr: 196
noise: 480
frame_num: 82
point_id: 10
x: -0.168559670448
y: 1.77449440956
z: 0.235484302044
doppler_bin: 33
target_idx: 1
posX: -0.102777019143
posY: 1.79647493362
posZ: 0.342148244381
velX: -0.273675829172
velY: 0.10133036226
velZ: -0.170116022229
accX: 0.0
accY: 0.0
accZ: 0.0
---
header: 
  seq: 886
  stamp: 
    secs: 1596616071
    nsecs:  40698383
  frame_id: "node1_radarinterface_radarscan"
range: 1.6416246891
angle: 0.0
elev: 0.313434571028
doppler: 0.0
snr: 139
noise: 389
frame_num: 83
point_id: 0
x: 0.0
y: 1.56164503098
z: 0.506158351898
doppler_bin: 32
target_idx: 1
posX: -0.0462412908673
posY: 1.79259252548
posZ: 0.389669179916
velX: 0.0159817934036
velY: 0.0828557983041
velZ: 0.00644686818123
accX: 0.0
accY: 0.0
accZ: 0.0
---
header: 
  seq: 887
  stamp: 
    secs: 1596616071
    nsecs:  40775284
  frame_id: "node1_radarinterface_radarscan"
range: 1.79796981812
angle: 0.0
elev: 0.233131706715
doppler: 0.0
snr: 263
noise: 393
frame_num: 83
point_id: 2
x: 0.0
y: 1.74933052063
z: 0.415377110243
doppler_bin: 32
target_idx: 1
posX: -0.0462412908673
posY: 1.79259252548
posZ: 0.389669179916
velX: 0.0159817934036
velY: 0.0828557983041
velZ: 0.00644686818123
accX: 0.0
accY: 0.0
accZ: 0.0
---
header: 
  seq: 888
  stamp: 
    secs: 1596616071
    nsecs:  40797894
  frame_id: "node1_radarinterface_radarscan"
range: 1.6416246891
angle: -0.0329516902566
elev: 0.322236150503
doppler: 0.0795030742884
snr: 201
noise: 408
frame_num: 83
point_id: 6
x: -0.0513007678092
y: 1.55628430843
z: 0.519883513451
doppler_bin: 33
target_idx: 1
posX: -0.0462412908673
posY: 1.79259252548
posZ: 0.389669179916
velX: 0.0159817934036
velY: 0.0828557983041
velZ: 0.00644686818123
accX: 0.0
accY: 0.0
accZ: 0.0
---
header: 
  seq: 889
  stamp: 
    secs: 1596616071
    nsecs:  40847199
  frame_id: "node1_radarinterface_radarscan"
range: 1.71979725361
angle: 0.0
elev: 0.291857153177
doppler: 0.0795030742884
snr: 284
noise: 425
frame_num: 83
point_id: 7
x: 0.0
y: 1.64706897736
z: 0.494839549065
doppler_bin: 33
target_idx: 1
posX: -0.0462412908673
posY: 1.79259252548
posZ: 0.389669179916
velX: 0.0159817934036
velY: 0.0828557983041
velZ: 0.00644686818123
accX: 0.0
accY: 0.0
accZ: 0.0
---
header: 
  seq: 890
  stamp: 
    secs: 1596616071
    nsecs:  40873121
  frame_id: "node1_radarinterface_radarscan"
range: 1.79796981812
angle: 0.0
elev: 0.260040938854
doppler: 0.0795030742884
snr: 305
noise: 434
frame_num: 83
point_id: 8
x: 0.0
y: 1.73752105236
z: 0.462294191122
doppler_bin: 33
target_idx: 1
posX: -0.0462412908673
posY: 1.79259252548
posZ: 0.389669179916
velX: 0.0159817934036
velY: 0.0828557983041
velZ: 0.00644686818123
accX: 0.0
accY: 0.0
accZ: 0.0
---
header: 
  seq: 891
  stamp: 
    secs: 1596616071
    nsecs:  40936246
  frame_id: "node1_radarinterface_radarscan"
range: 1.87614250183
angle: 0.0
elev: 0.210392042994
doppler: 0.0795030742884
snr: 277
noise: 445
frame_num: 83
point_id: 9
x: 0.0
y: 1.83477187157
z: 0.391819804907
doppler_bin: 33
target_idx: 1
posX: -0.0462412908673
posY: 1.79259252548
posZ: 0.389669179916
velX: 0.0159817934036
velY: 0.0828557983041
velZ: 0.00644686818123
accX: 0.0
accY: 0.0
accZ: 0.0
---
header: 
  seq: 892
  stamp: 
    secs: 1596616071
    nsecs:  40953277
  frame_id: "node1_radarinterface_radarscan"
range: 1.95431506634
angle: 0.0
elev: 0.174230009317
doppler: 0.0795030742884
snr: 215
noise: 460
frame_num: 83
point_id: 10
x: 0.0
y: 1.92472732067
z: 0.338780224323
doppler_bin: 33
target_idx: 1
posX: -0.0462412908673
posY: 1.79259252548
posZ: 0.389669179916
velX: 0.0159817934036
velY: 0.0828557983041
velZ: 0.00644686818123
accX: 0.0
accY: 0.0
accZ: 0.0
---
header: 
  seq: 893
  stamp: 
    secs: 1596616071
    nsecs:  40983313
  frame_id: "node1_radarinterface_radarscan"
range: 1.95431506634
angle: 0.0
elev: 0.155541360378
doppler: -0.0795030742884
snr: 126
noise: 457
frame_num: 83
point_id: 22
x: 0.0
y: 1.93072223663
z: 0.302752614021
doppler_bin: 31
target_idx: 1
posX: -0.0462412908673
posY: 1.79259252548
posZ: 0.389669179916
velX: 0.0159817934036
velY: 0.0828557983041
velZ: 0.00644686818123
accX: 0.0
accY: 0.0
accZ: 0.0
---
header: 
  seq: 894
  stamp: 
    secs: 1596616071
    nsecs: 141983821
  frame_id: "node1_radarinterface_radarscan"
range: 1.71979725361
angle: -0.0321428254247
elev: 0.235530927777
doppler: 0.0795030742884
snr: 167
noise: 446
frame_num: 84
point_id: 7
x: -0.05374366045
y: 1.67145085335
z: 0.401330649853
doppler_bin: 33
target_idx: 1
posX: -0.0443532802165
posY: 1.79953074455
posZ: 0.374601662159
velX: 0.0314081571996
velY: 0.0405405461788
velZ: -0.0489635877311
accX: 0.0
accY: 0.0
accZ: 0.0
---
header: 
  seq: 895
  stamp: 
    secs: 1596616071
    nsecs: 142120627
  frame_id: "node1_radarinterface_radarscan"
range: 1.79796981812
angle: -0.0318539217114
elev: 0.19417694211
doppler: 0.0795030742884
snr: 210
noise: 448
frame_num: 84
point_id: 8
x: -0.0561865568161
y: 1.76328539848
z: 0.346934467554
doppler_bin: 33
target_idx: 1
posX: -0.0443532802165
posY: 1.79953074455
posZ: 0.374601662159
velX: 0.0314081571996
velY: 0.0405405461788
velZ: -0.0489635877311
accX: 0.0
accY: 0.0
accZ: 0.0
---
header: 
  seq: 896
  stamp: 
    secs: 1596616071
    nsecs: 142140184
  frame_id: "node1_radarinterface_radarscan"
range: 1.87614250183
angle: -0.0317867547274
elev: 0.183125033975
doppler: 0.0795030742884
snr: 201
noise: 457
frame_num: 84
point_id: 9
x: -0.0586294531822
y: 1.84384047985
z: 0.341651618481
doppler_bin: 33
target_idx: 1
posX: -0.0443532802165
posY: 1.79953074455
posZ: 0.374601662159
velX: 0.0314081571996
velY: 0.0405405461788
velZ: -0.0489635877311
accX: 0.0
accY: 0.0
accZ: 0.0
---
header: 
  seq: 897
  stamp: 
    secs: 1596616071
    nsecs: 142171633
  frame_id: "node1_radarinterface_radarscan"
range: 2.26700544357
angle: 0.0320559702814
elev: 0.223965674639
doppler: 0.0795030742884
snr: 138
noise: 509
frame_num: 84
point_id: 11
x: 0.0708439201117
y: 2.2092499733
z: 0.503497362137
doppler_bin: 33
target_idx: 1
posX: -0.0443532802165
posY: 1.79953074455
posZ: 0.374601662159
velX: 0.0314081571996
velY: 0.0405405461788
velZ: -0.0489635877311
accX: 0.0
accY: 0.0
accZ: 0.0
---
header: 
  seq: 898
  stamp: 
    secs: 1596616071
    nsecs: 142216564
  frame_id: "node1_radarinterface_radarscan"
range: 2.34517812729
angle: 0.0320085026324
elev: 0.217361539602
doppler: 0.0795030742884
snr: 140
noise: 502
frame_num: 84
point_id: 12
x: 0.0732868164778
y: 2.28882265091
z: 0.505747020245
doppler_bin: 33
target_idx: 1
posX: -0.0443532802165
posY: 1.79953074455
posZ: 0.374601662159
velX: 0.0314081571996
velY: 0.0405405461788
velZ: -0.0489635877311
accX: 0.0
accY: 0.0
accZ: 0.0
---
header: 
  seq: 899
  stamp: 
    secs: 1596616071
    nsecs: 142285237
  frame_id: "node1_radarinterface_radarscan"
range: 1.87614250183
angle: -0.0316705070436
elev: 0.162119537592
doppler: 0.159006148577
snr: 206
noise: 400
frame_num: 84
point_id: 13
x: -0.0586294531822
y: 1.8506128788
z: 0.302828758955
doppler_bin: 34
target_idx: 1
posX: -0.0443532802165
posY: 1.79953074455
posZ: 0.374601662159
velX: 0.0314081571996
velY: 0.0405405461788
velZ: -0.0489635877311
accX: 0.0
accY: 0.0
accZ: 0.0
---
header: 
  seq: 900
  stamp: 
    secs: 1596616071
    nsecs: 142302096
  frame_id: "node1_radarinterface_radarscan"
range: 1.95431506634
angle: -0.0318527519703
elev: 0.193990245461
doppler: 0.159006148577
snr: 187
noise: 407
frame_num: 84
point_id: 14
x: -0.0610723420978
y: 1.91668486595
z: 0.376744687557
doppler_bin: 34
target_idx: 1
posX: -0.0443532802165
posY: 1.79953074455
posZ: 0.374601662159
velX: 0.0314081571996
velY: 0.0405405461788
velZ: -0.0489635877311
accX: 0.0
accY: 0.0
accZ: 0.0
---
header: 
  seq: 901
  stamp: 
    secs: 1596616071
    nsecs: 142326406
  frame_id: "node1_radarinterface_radarscan"
range: 2.26700544357
angle: 0.031992264092
elev: 0.215052217245
doppler: 0.159006148577
snr: 133
noise: 462
frame_num: 84
point_id: 17
x: 0.0708439201117
y: 2.21365213394
z: 0.483775436878
doppler_bin: 34
target_idx: 1
posX: -0.0443532802165
posY: 1.79953074455
posZ: 0.374601662159
velX: 0.0314081571996
velY: 0.0405405461788
velZ: -0.0489635877311
accX: 0.0
accY: 0.0
accZ: 0.0
---
header: 
  seq: 902
  stamp: 
    secs: 1596616071
    nsecs: 142364839
  frame_id: "node1_radarinterface_radarscan"
range: 2.34517812729
angle: 0.0319507792592
elev: 0.2090267241
doppler: 0.159006148577
snr: 129
noise: 454
frame_num: 84
point_id: 18
x: 0.0732868164778
y: 2.29296064377
z: 0.486643016338
doppler_bin: 34
target_idx: 1
posX: -0.0443532802165
posY: 1.79953074455
posZ: 0.374601662159
velX: 0.0314081571996
velY: 0.0405405461788
velZ: -0.0489635877311
accX: 0.0
accY: 0.0
accZ: 0.0
---
header: 
  seq: 903
  stamp: 
    secs: 1596616071
    nsecs: 142407740
  frame_id: "node1_radarinterface_radarscan"
range: 1.79796981812
angle: -0.0317921191454
elev: 0.184033602476
doppler: -0.159006148577
snr: 305
noise: 397
frame_num: 84
point_id: 21
x: -0.0561865530908
y: 1.76671528816
z: 0.32902225852
doppler_bin: 30
target_idx: 1
posX: -0.0443532802165
posY: 1.79953074455
posZ: 0.374601662159
velX: 0.0314081571996
velY: 0.0405405461788
velZ: -0.0489635877311
accX: 0.0
accY: 0.0
accZ: 0.0
---
header: 
  seq: 904
  stamp: 
    secs: 1596616071
    nsecs: 142449262
  frame_id: "node1_radarinterface_radarscan"
range: 1.71979725361
angle: -0.0319552719593
elev: 0.209688484669
doppler: -0.0795030742884
snr: 285
noise: 452
frame_num: 84
point_id: 27
x: -0.0537436641753
y: 1.68126773834
z: 0.357984781265
doppler_bin: 31
target_idx: 1
posX: -0.0443532802165
posY: 1.79953074455
posZ: 0.374601662159
velX: 0.0314081571996
velY: 0.0405405461788
velZ: -0.0489635877311
accX: 0.0
accY: 0.0
accZ: 0.0
---
header: 
  seq: 905
  stamp: 
    secs: 1596616071
    nsecs: 142524191
  frame_id: "node1_radarinterface_radarscan"
range: 1.87614250183
angle: -0.0317978709936
elev: 0.185002312064
doppler: -0.0795030742884
snr: 251
noise: 466
frame_num: 84
point_id: 29
x: -0.0586294531822
y: 1.84319543839
z: 0.345114171505
doppler_bin: 31
target_idx: 1
posX: -0.0443532802165
posY: 1.79953074455
posZ: 0.374601662159
velX: 0.0314081571996
velY: 0.0405405461788
velZ: -0.0489635877311
accX: 0.0
accY: 0.0
accZ: 0.0
---
header: 
  seq: 906
  stamp: 
    secs: 1596616071
    nsecs: 241163258
  frame_id: "node1_radarinterface_radarscan"
range: 1.87614250183
angle: -0.0626353919506
elev: -0.0549412406981
doppler: 0.0795030742884
snr: 152
noise: 440
frame_num: 85
point_id: 7
x: -0.117258898914
y: 1.86963820457
z: -0.103025749326
doppler_bin: 33
target_idx: 1
posX: -0.0568936243653
posY: 1.79796504974
posZ: 0.351733267307
velX: -0.019557569176
velY: -0.0171926431358
velZ: -0.110328704119
accX: 0.0
accY: 0.0
accZ: 0.0
---
header: 
  seq: 907
  stamp: 
    secs: 1596616071
    nsecs: 241238291
  frame_id: "node1_radarinterface_radarscan"
range: 1.95431506634
angle: -0.0625960752368
elev: 0.0420157238841
doppler: 0.0795030742884
snr: 164
noise: 446
frame_num: 85
point_id: 8
x: -0.122144691646
y: 1.94876623154
z: 0.0820878073573
doppler_bin: 33
target_idx: 1
posX: -0.0568936243653
posY: 1.79796504974
posZ: 0.351733267307
velX: -0.019557569176
velY: -0.0171926431358
velZ: -0.110328704119
accX: 0.0
accY: 0.0
accZ: 0.0
---
header: 
  seq: 908
  stamp: 
    secs: 1596616071
    nsecs: 241272034
  frame_id: "node1_radarinterface_radarscan"
range: 1.95431506634
angle: -0.0314591005445
elev: 0.113928444684
doppler: 0.159006148577
snr: 228
noise: 395
frame_num: 85
point_id: 9
x: -0.0610723495483
y: 1.94068491459
z: 0.222170725465
doppler_bin: 34
target_idx: 1
posX: -0.0568936243653
posY: 1.79796504974
posZ: 0.351733267307
velX: -0.019557569176
velY: -0.0171926431358
velZ: -0.110328704119
accX: 0.0
accY: 0.0
accZ: 0.0
---
header: 
  seq: 909
  stamp: 
    secs: 1596616071
    nsecs: 241321778
  frame_id: "node1_radarinterface_radarscan"
range: 1.71979725361
angle: -0.0630558356643
elev: 0.127819821239
doppler: -0.238509222865
snr: 253
noise: 359
frame_num: 85
point_id: 11
x: -0.107487328351
y: 1.70237743855
z: 0.2192260921
doppler_bin: 29
target_idx: 1
posX: -0.0568936243653
posY: 1.79796504974
posZ: 0.351733267307
velX: -0.019557569176
velY: -0.0171926431358
velZ: -0.110328704119
accX: 0.0
accY: 0.0
accZ: 0.0
---
header: 
  seq: 910
  stamp: 
    secs: 1596616071
    nsecs: 241352967
  frame_id: "node1_radarinterface_radarscan"
range: 1.79796981812
angle: -0.0629942342639
elev: 0.119982495904
doppler: -0.238509222865
snr: 269
noise: 362
frame_num: 85
point_id: 12
x: -0.112373106182
y: 1.78150308132
z: 0.215207695961
doppler_bin: 29
target_idx: 1
posX: -0.0568936243653
posY: 1.79796504974
posZ: 0.351733267307
velX: -0.019557569176
velY: -0.0171926431358
velZ: -0.110328704119
accX: 0.0
accY: 0.0
accZ: 0.0
---
header: 
  seq: 911
  stamp: 
    secs: 1596616071
    nsecs: 241397069
  frame_id: "node1_radarinterface_radarscan"
range: 1.6416246891
angle: -0.0319292284548
elev: 0.20582151413
doppler: -0.159006148577
snr: 288
noise: 381
frame_num: 85
point_id: 13
x: -0.0513007715344
y: 1.60615646839
z: 0.335501134396
doppler_bin: 30
target_idx: 1
posX: -0.0568936243653
posY: 1.79796504974
posZ: 0.351733267307
velX: -0.019557569176
velY: -0.0171926431358
velZ: -0.110328704119
accX: 0.0
accY: 0.0
accZ: 0.0
---
header: 
  seq: 912
  stamp: 
    secs: 1596616071
    nsecs: 241418262
  frame_id: "node1_radarinterface_radarscan"
range: 1.71979725361
angle: -0.0318180732429
elev: 0.188363447785
doppler: -0.159006148577
snr: 376
noise: 390
frame_num: 85
point_id: 14
x: -0.0537436641753
y: 1.68852233887
z: 0.322034686804
doppler_bin: 30
target_idx: 1
posX: -0.0568936243653
posY: 1.79796504974
posZ: 0.351733267307
velX: -0.019557569176
velY: -0.0171926431358
velZ: -0.110328704119
accX: 0.0
accY: 0.0
accZ: 0.0
---
header: 
  seq: 913
  stamp: 
    secs: 1596616071
    nsecs: 241446470
  frame_id: "node1_radarinterface_radarscan"
range: 1.95431506634
angle: -0.0631082504988
elev: 0.134119108319
doppler: -0.159006148577
snr: 220
noise: 398
frame_num: 85
point_id: 17
x: -0.122144699097
y: 1.93290889263
z: 0.261325895786
doppler_bin: 30
target_idx: 1
posX: -0.0568936243653
posY: 1.79796504974
posZ: 0.351733267307
velX: -0.019557569176
velY: -0.0171926431358
velZ: -0.110328704119
accX: 0.0
accY: 0.0
accZ: 0.0
---
header: 
  seq: 914
  stamp: 
    secs: 1596616071
    nsecs: 241521964
  frame_id: "node1_radarinterface_radarscan"
range: 1.71979725361
angle: -0.0320583544672
elev: 0.224291548133
doppler: -0.0795030742884
snr: 372
noise: 434
frame_num: 85
point_id: 21
x: -0.0537436679006
y: 1.67585813999
z: 0.382509917021
doppler_bin: 31
target_idx: 1
posX: -0.0568936243653
posY: 1.79796504974
posZ: 0.351733267307
velX: -0.019557569176
velY: -0.0171926431358
velZ: -0.110328704119
accX: 0.0
accY: 0.0
accZ: 0.0
---
header: 
  seq: 915
  stamp: 
    secs: 1596616071
    nsecs: 241550696
  frame_id: "node1_radarinterface_radarscan"
range: 1.95431506634
angle: -0.0633755326271
elev: 0.162378847599
doppler: -0.0795030742884
snr: 201
noise: 453
frame_num: 85
point_id: 24
x: -0.122144691646
y: 1.92473518848
z: 0.315946727991
doppler_bin: 31
target_idx: 1
posX: -0.0568936243653
posY: 1.79796504974
posZ: 0.351733267307
velX: -0.019557569176
velY: -0.0171926431358
velZ: -0.110328704119
accX: 0.0
accY: 0.0
accZ: 0.0
---
header: 
  seq: 916
  stamp: 
    secs: 1596616071
    nsecs: 342240698
  frame_id: "node1_radarinterface_radarscan"
range: 1.6416246891
angle: -0.0325630009174
elev: 0.284337341785
doppler: 0.0
snr: 253
noise: 410
frame_num: 86
point_id: 0
x: -0.0513007715344
y: 1.5748745203
z: 0.460510969162
doppler_bin: 32
target_idx: 1
posX: -0.058385964483
posY: 1.78094446659
posZ: 0.393605083227
velX: -0.0156129263341
velY: -0.0753290876746
velZ: 0.0446393787861
accX: 0.0
accY: 0.0
accZ: 0.0
---
header: 
  seq: 917
  stamp: 
    secs: 1596616071
    nsecs: 342304513
  frame_id: "node1_radarinterface_radarscan"
range: 1.79796981812
angle: -0.0323089174926
elev: 0.256067305803
doppler: 0.0
snr: 337
noise: 418
frame_num: 86
point_id: 2
x: -0.0561865568161
y: 1.7384365797
z: 0.455386310816
doppler_bin: 32
target_idx: 1
posX: -0.058385964483
posY: 1.78094446659
posZ: 0.393605083227
velX: -0.0156129263341
velY: -0.0753290876746
velZ: 0.0446393787861
accX: 0.0
accY: 0.0
accZ: 0.0
---
header: 
  seq: 918
  stamp: 
    secs: 1596616071
    nsecs: 342323046
  frame_id: "node1_radarinterface_radarscan"
range: 1.87614250183
angle: -0.0321974009275
elev: 0.242490425706
doppler: 0.0
snr: 282
noise: 418
frame_num: 86
point_id: 3
x: -0.0586294569075
y: 1.82030832767
z: 0.450501084328
doppler_bin: 32
target_idx: 1
posX: -0.058385964483
posY: 1.78094446659
posZ: 0.393605083227
velX: -0.0156129263341
velY: -0.0753290876746
velZ: 0.0446393787861
accX: 0.0
accY: 0.0
accZ: 0.0
---
header: 
  seq: 919
  stamp: 
    secs: 1596616071
    nsecs: 342405922
  frame_id: "node1_radarinterface_radarscan"
range: 1.79796981812
angle: -0.0321340933442
elev: 0.234396383166
doppler: -0.159006148577
snr: 332
noise: 410
frame_num: 86
point_id: 12
x: -0.0561865568161
y: 1.74790108204
z: 0.417589128017
doppler_bin: 30
target_idx: 1
posX: -0.058385964483
posY: 1.78094446659
posZ: 0.393605083227
velX: -0.0156129263341
velY: -0.0753290876746
velZ: 0.0446393787861
accX: 0.0
accY: 0.0
accZ: 0.0
---
header: 
  seq: 920
  stamp: 
    secs: 1596616071
    nsecs: 342426434
  frame_id: "node1_radarinterface_radarscan"
range: 1.87614250183
angle: -0.0320839360356
elev: 0.22775901854
doppler: -0.159006148577
snr: 273
noise: 414
frame_num: 86
point_id: 13
x: -0.0586294569075
y: 1.82675027847
z: 0.423623561859
doppler_bin: 30
target_idx: 1
posX: -0.058385964483
posY: 1.78094446659
posZ: 0.393605083227
velX: -0.0156129263341
velY: -0.0753290876746
velZ: 0.0446393787861
accX: 0.0
accY: 0.0
accZ: 0.0
---
header: 
  seq: 921
  stamp: 
    secs: 1596616071
    nsecs: 342450337
  frame_id: "node1_radarinterface_radarscan"
range: 1.71979725361
angle: -0.0323179401457
elev: 0.257131308317
doppler: -0.0795030742884
snr: 329
noise: 459
frame_num: 86
point_id: 21
x: -0.05374366045
y: 1.66238772869
z: 0.437356859446
doppler_bin: 31
target_idx: 1
posX: -0.058385964483
posY: 1.78094446659
posZ: 0.393605083227
velX: -0.0156129263341
velY: -0.0753290876746
velZ: 0.0446393787861
accX: 0.0
accY: 0.0
accZ: 0.0
---
header: 
  seq: 922
  stamp: 
    secs: 1596616071
    nsecs: 342513507
  frame_id: "node1_radarinterface_radarscan"
range: 1.79796981812
angle: -0.0322472192347
elev: 0.248657003045
doppler: -0.0795030742884
snr: 331
noise: 468
frame_num: 86
point_id: 22
x: -0.0561865605414
y: 1.74176514149
z: 0.442484855652
doppler_bin: 31
target_idx: 1
posX: -0.058385964483
posY: 1.78094446659
posZ: 0.393605083227
velX: -0.0156129263341
velY: -0.0753290876746
velZ: 0.0446393787861
accX: 0.0
accY: 0.0
accZ: 0.0
---
header: 
  seq: 923
  stamp: 
    secs: 1596616071
    nsecs: 342536421
  frame_id: "node1_radarinterface_radarscan"
range: 1.87614250183
angle: -0.0322265662253
elev: 0.246121138334
doppler: -0.0795030742884
snr: 271
noise: 473
frame_num: 86
point_id: 23
x: -0.0586294569075
y: 1.8186596632
z: 0.45711055398
doppler_bin: 31
target_idx: 1
posX: -0.058385964483
posY: 1.78094446659
posZ: 0.393605083227
velX: -0.0156129263341
velY: -0.0753290876746
velZ: 0.0446393787861
accX: 0.0
accY: 0.0
accZ: 0.0
---
header: 
  seq: 924
  stamp: 
    secs: 1596616071
    nsecs: 442724710
  frame_id: "node1_radarinterface_radarscan"
range: 1.71979725361
angle: -0.0322684422135
elev: 0.251233428717
doppler: 0.0
snr: 149
noise: 400
frame_num: 87
point_id: 0
x: -0.0537436641753
y: 1.66493976116
z: 0.427539616823
doppler_bin: 32
target_idx: 1
posX: -0.0533460713923
posY: 1.77643728256
posZ: 0.388012498617
velX: 0.0147095415741
velY: -0.0679429471493
velZ: 0.031791344285
accX: 0.0
accY: 0.0
accZ: 0.0
---
header: 
  seq: 925
  stamp: 
    secs: 1596616071
    nsecs: 442802370
  frame_id: "node1_radarinterface_radarscan"
range: 1.87614250183
angle: 0.0
elev: 0.26129975915
doppler: 0.0
snr: 171
noise: 402
frame_num: 87
point_id: 2
x: 0.0
y: 1.81245684624
z: 0.484675914049
doppler_bin: 32
target_idx: 1
posX: -0.0533460713923
posY: 1.77643728256
posZ: 0.388012498617
velX: 0.0147095415741
velY: -0.0679429471493
velZ: 0.031791344285
accX: 0.0
accY: 0.0
accZ: 0.0
---
header: 
  seq: 926
  stamp: 
    secs: 1596616071
    nsecs: 442824200
  frame_id: "node1_radarinterface_radarscan"
range: 1.95431506634
angle: 0.0
elev: 0.221450731158
doppler: 0.0
snr: 141
noise: 407
frame_num: 87
point_id: 3
x: 0.0
y: 1.90659034252
z: 0.429255843163
doppler_bin: 32
target_idx: 1
posX: -0.0533460713923
posY: 1.77643728256
posZ: 0.388012498617
velX: 0.0147095415741
velY: -0.0679429471493
velZ: 0.031791344285
accX: 0.0
accY: 0.0
accZ: 0.0
---
header: 
  seq: 927
  stamp: 
    secs: 1596616071
    nsecs: 442895076
  frame_id: "node1_radarinterface_radarscan"
range: 1.6416246891
angle: -0.0325142219663
elev: 0.279159933329
doppler: 0.0795030742884
snr: 168
noise: 414
frame_num: 87
point_id: 6
x: -0.0513007715344
y: 1.57723879814
z: 0.452346742153
doppler_bin: 33
target_idx: 1
posX: -0.0533460713923
posY: 1.77643728256
posZ: 0.388012498617
velX: 0.0147095415741
velY: -0.0679429471493
velZ: 0.031791344285
accX: 0.0
accY: 0.0
accZ: 0.0
---
header: 
  seq: 928
  stamp: 
    secs: 1596616071
    nsecs: 442909893
  frame_id: "node1_radarinterface_radarscan"
range: 1.87614250183
angle: -0.0314896069467
elev: 0.122101120651
doppler: -0.159006148577
snr: 184
noise: 407
frame_num: 87
point_id: 12
x: -0.0586294531822
y: 1.86125135422
z: 0.228510320187
doppler_bin: 30
target_idx: 1
posX: -0.0533460713923
posY: 1.77643728256
posZ: 0.388012498617
velX: 0.0147095415741
velY: -0.0679429471493
velZ: 0.031791344285
accX: 0.0
accY: 0.0
accZ: 0.0
---
header: 
  seq: 929
  stamp: 
    secs: 1596616071
    nsecs: 442922870
  frame_id: "node1_radarinterface_radarscan"
range: 1.95431506634
angle: -0.0312568359077
elev: 0.0105753093958
doppler: -0.159006148577
snr: 128
noise: 404
frame_num: 87
point_id: 13
x: -0.0610723420978
y: 1.95325124264
z: 0.0206671003252
doppler_bin: 30
target_idx: 1
posX: -0.0533460713923
posY: 1.77643728256
posZ: 0.388012498617
velX: 0.0147095415741
velY: -0.0679429471493
velZ: 0.031791344285
accX: 0.0
accY: 0.0
accZ: 0.0
---
header: 
  seq: 930
  stamp: 
    secs: 1596616071
    nsecs: 442934775
  frame_id: "node1_radarinterface_radarscan"
range: 1.79796981812
angle: -0.0319530591369
elev: 0.20936280489
doppler: -0.0795030742884
snr: 241
noise: 461
frame_num: 87
point_id: 19
x: -0.0561865530908
y: 1.75781071186
z: 0.373684048653
doppler_bin: 31
target_idx: 1
posX: -0.0533460713923
posY: 1.77643728256
posZ: 0.388012498617
velX: 0.0147095415741
velY: -0.0679429471493
velZ: 0.031791344285
accX: 0.0
accY: 0.0
accZ: 0.0
---
header: 
  seq: 931
  stamp: 
    secs: 1596616071
    nsecs: 442951204
  frame_id: "node1_radarinterface_radarscan"
range: 1.95431506634
angle: -0.0312638357282
elev: 0.0236519966274
doppler: -0.0795030742884
snr: 143
noise: 468
frame_num: 87
point_id: 21
x: -0.061072345823
y: 1.95281374454
z: 0.0462191440165
doppler_bin: 31
target_idx: 1
posX: -0.0533460713923
posY: 1.77643728256
posZ: 0.388012498617
velX: 0.0147095415741
velY: -0.0679429471493
velZ: 0.031791344285
accX: 0.0
accY: 0.0
accZ: 0.0
---
header: 
  seq: 932
  stamp: 
    secs: 1596616071
    nsecs: 541121667
  frame_id: "node1_radarinterface_radarscan"
range: 1.6416246891
angle: -0.0322062186897
elev: 0.243594393134
doppler: 0.0
snr: 300
noise: 386
frame_num: 88
point_id: 0
x: -0.0513007752597
y: 1.59233343601
z: 0.395947486162
doppler_bin: 32
target_idx: 1
posX: -0.0780503824353
posY: 1.77584314346
posZ: 0.381888240576
velX: -0.0854163169861
velY: -0.00772887468338
velZ: 0.0264066047966
accX: 0.0
accY: 0.0
accZ: 0.0
---
header: 
  seq: 933
  stamp: 
    secs: 1596616071
    nsecs: 541212915
  frame_id: "node1_radarinterface_radarscan"
range: 1.79796981812
angle: -0.0319194570184
elev: 0.204350620508
doppler: 0.0
snr: 381
noise: 392
frame_num: 88
point_id: 2
x: -0.0561865605414
y: 1.75966262817
z: 0.36486440897
doppler_bin: 32
target_idx: 1
posX: -0.0780503824353
posY: 1.77584314346
posZ: 0.381888240576
velX: -0.0854163169861
velY: -0.00772887468338
velZ: 0.0264066047966
accX: 0.0
accY: 0.0
accZ: 0.0
---
header: 
  seq: 934
  stamp: 
    secs: 1596616071
    nsecs: 541246361
  frame_id: "node1_radarinterface_radarscan"
range: 1.6416246891
angle: -0.0647125765681
elev: 0.259635597467
doppler: 0.0795030742884
snr: 349
noise: 384
frame_num: 88
point_id: 6
x: -0.102601543069
y: 1.58328235149
z: 0.42145165801
doppler_bin: 33
target_idx: 1
posX: -0.0780503824353
posY: 1.77584314346
posZ: 0.381888240576
velX: -0.0854163169861
velY: -0.00772887468338
velZ: 0.0264066047966
accX: 0.0
accY: 0.0
accZ: 0.0
---
header: 
  seq: 935
  stamp: 
    secs: 1596616071
    nsecs: 541315939
  frame_id: "node1_radarinterface_radarscan"
range: 1.71979725361
angle: -0.064349450171
elev: 0.237497106194
doppler: 0.0795030742884
snr: 417
noise: 394
frame_num: 88
point_id: 7
x: -0.107487328351
y: 1.66806280613
z: 0.404617965221
doppler_bin: 33
target_idx: 1
posX: -0.0780503824353
posY: 1.77584314346
posZ: 0.381888240576
velX: -0.0854163169861
velY: -0.00772887468338
velZ: 0.0264066047966
accX: 0.0
accY: 0.0
accZ: 0.0
---
header: 
  seq: 936
  stamp: 
    secs: 1596616071
    nsecs: 541346449
  frame_id: "node1_radarinterface_radarscan"
range: 1.79796981812
angle: -0.0640807375312
elev: 0.219529733062
doppler: 0.0795030742884
snr: 415
noise: 405
frame_num: 88
point_id: 8
x: -0.112373113632
y: 1.75121676922
z: 0.391545087099
doppler_bin: 33
target_idx: 1
posX: -0.0780503824353
posY: 1.77584314346
posZ: 0.381888240576
velX: -0.0854163169861
velY: -0.00772887468338
velZ: 0.0264066047966
accX: 0.0
accY: 0.0
accZ: 0.0
---
header: 
  seq: 937
  stamp: 
    secs: 1596616071
    nsecs: 541371713
  frame_id: "node1_radarinterface_radarscan"
range: 1.87614250183
angle: -0.0637195259333
elev: 0.192520484328
doppler: 0.0795030742884
snr: 344
noise: 418
frame_num: 88
point_id: 9
x: -0.117258906364
y: 1.83774387836
z: 0.358968764544
doppler_bin: 33
target_idx: 1
posX: -0.0780503824353
posY: 1.77584314346
posZ: 0.381888240576
velX: -0.0854163169861
velY: -0.00772887468338
velZ: 0.0264066047966
accX: 0.0
accY: 0.0
accZ: 0.0
---
header: 
  seq: 938
  stamp: 
    secs: 1596616071
    nsecs: 541462470
  frame_id: "node1_radarinterface_radarscan"
range: 1.6416246891
angle: -0.0649321749806
elev: 0.272059440613
doppler: 0.159006148577
snr: 309
noise: 368
frame_num: 88
point_id: 11
x: -0.102601543069
y: 1.57791268826
z: 0.441130310297
doppler_bin: 34
target_idx: 1
posX: -0.0780503824353
posY: 1.77584314346
posZ: 0.381888240576
velX: -0.0854163169861
velY: -0.00772887468338
velZ: 0.0264066047966
accX: 0.0
accY: 0.0
accZ: 0.0
---
header: 
  seq: 939
  stamp: 
    secs: 1596616071
    nsecs: 541498615
  frame_id: "node1_radarinterface_radarscan"
range: 1.79796981812
angle: -0.0643297657371
elev: 0.236231520772
doppler: 0.159006148577
snr: 386
noise: 379
frame_num: 88
point_id: 13
x: -0.112373113632
y: 1.74441885948
z: 0.42079770565
doppler_bin: 34
target_idx: 1
posX: -0.0780503824353
posY: 1.77584314346
posZ: 0.381888240576
velX: -0.0854163169861
velY: -0.00772887468338
velZ: 0.0264066047966
accX: 0.0
accY: 0.0
accZ: 0.0
---
header: 
  seq: 940
  stamp: 
    secs: 1596616071
    nsecs: 541544817
  frame_id: "node1_radarinterface_radarscan"
range: 1.95431506634
angle: -0.031434699893
elev: 0.106933355331
doppler: -0.159006148577
snr: 225
noise: 392
frame_num: 88
point_id: 15
x: -0.061072345823
y: 1.94219219685
z: 0.208583414555
doppler_bin: 30
target_idx: 1
posX: -0.0780503824353
posY: 1.77584314346
posZ: 0.381888240576
velX: -0.0854163169861
velY: -0.00772887468338
velZ: 0.0264066047966
accX: 0.0
accY: 0.0
accZ: 0.0
---
header: 
  seq: 941
  stamp: 
    secs: 1596616071
    nsecs: 541563929
  frame_id: "node1_radarinterface_radarscan"
range: 1.71979725361
angle: -0.0638720393181
elev: 0.204392060637
doppler: -0.0795030742884
snr: 237
noise: 410
frame_num: 88
point_id: 18
x: -0.107487328351
y: 1.68056499958
z: 0.349070549011
doppler_bin: 31
target_idx: 1
posX: -0.0780503824353
posY: 1.77584314346
posZ: 0.381888240576
velX: -0.0854163169861
velY: -0.00772887468338
velZ: 0.0264066047966
accX: 0.0
accY: 0.0
accZ: 0.0
---
header: 
  seq: 942
  stamp: 
    secs: 1596616071
    nsecs: 541591353
  frame_id: "node1_radarinterface_radarscan"
range: 1.79796981812
angle: -0.063520424068
elev: 0.175739988685
doppler: -0.0795030742884
snr: 233
noise: 418
frame_num: 88
point_id: 19
x: -0.112373106182
y: 1.76670622826
z: 0.314351260662
doppler_bin: 31
target_idx: 1
posX: -0.0780503824353
posY: 1.77584314346
posZ: 0.381888240576
velX: -0.0854163169861
velY: -0.00772887468338
velZ: 0.0264066047966
accX: 0.0
accY: 0.0
accZ: 0.0
---
header: 
  seq: 943
  stamp: 
    secs: 1596616071
    nsecs: 541620560
  frame_id: "node1_radarinterface_radarscan"
range: 2.03248763084
angle: -0.0316286198795
elev: 0.15381360054
doppler: -0.0795030742884
snr: 130
noise: 467
frame_num: 88
point_id: 22
x: -0.0635152384639
y: 2.00748753548
z: 0.311392992735
doppler_bin: 31
target_idx: 1
posX: -0.0780503824353
posY: 1.77584314346
posZ: 0.381888240576
velX: -0.0854163169861
velY: -0.00772887468338
velZ: 0.0264066047966
accX: 0.0
accY: 0.0
accZ: 0.0
---
header: 
  seq: 944
  stamp: 
    secs: 1596616071
    nsecs: 641311774
  frame_id: "node1_radarinterface_radarscan"
range: 1.6416246891
angle: -0.0322354920208
elev: 0.247220769525
doppler: 0.0
snr: 227
noise: 407
frame_num: 89
point_id: 0
x: -0.0513007715344
y: 1.59088623524
z: 0.401722252369
doppler_bin: 32
target_idx: 1
posX: -0.0758626461029
posY: 1.77534770966
posZ: 0.396343410015
velX: -0.0538185462356
velY: 0.0422603785992
velZ: 0.0822610706091
accX: 0.0
accY: 0.0
accZ: 0.0
---
header: 
  seq: 945
  stamp: 
    secs: 1596616071
    nsecs: 641433524
  frame_id: "node1_radarinterface_radarscan"
range: 1.79796981812
angle: -0.0321051962674
elev: 0.23059771955
doppler: 0.0
snr: 356
noise: 403
frame_num: 89
point_id: 2
x: -0.0561865568161
y: 1.74947535992
z: 0.410943001509
doppler_bin: 32
target_idx: 1
posX: -0.0758626461029
posY: 1.77534770966
posZ: 0.396343410015
velX: -0.0538185462356
velY: 0.0422603785992
velZ: 0.0822610706091
accX: 0.0
accY: 0.0
accZ: 0.0
---
header: 
  seq: 946
  stamp: 
    secs: 1596616071
    nsecs: 641492748
  frame_id: "node1_radarinterface_radarscan"
range: 1.87614250183
angle: -0.0320069603622
elev: 0.217143237591
doppler: 0.0
snr: 317
noise: 404
frame_num: 89
point_id: 3
x: -0.0586294569075
y: 1.83114659786
z: 0.404197692871
doppler_bin: 32
target_idx: 1
posX: -0.0758626461029
posY: 1.77534770966
posZ: 0.396343410015
velX: -0.0538185462356
velY: 0.0422603785992
velZ: 0.0822610706091
accX: 0.0
accY: 0.0
accZ: 0.0
---
header: 
  seq: 947
  stamp: 
    secs: 1596616071
    nsecs: 641636173
  frame_id: "node1_radarinterface_radarscan"
range: 1.95431506634
angle: 0.0
elev: 0.210101366043
doppler: 0.0795030742884
snr: 191
noise: 463
frame_num: 89
point_id: 12
x: 0.0
y: 1.91133928299
z: 0.407590061426
doppler_bin: 33
target_idx: 1
posX: -0.0758626461029
posY: 1.77534770966
posZ: 0.396343410015
velX: -0.0538185462356
velY: 0.0422603785992
velZ: 0.0822610706091
accX: 0.0
accY: 0.0
accZ: 0.0
---
header: 
  seq: 948
  stamp: 
    secs: 1596616071
    nsecs: 641656728
  frame_id: "node1_radarinterface_radarscan"
range: 1.6416246891
angle: -0.065065652132
elev: 0.279308497906
doppler: 0.159006148577
snr: 276
noise: 380
frame_num: 89
point_id: 13
x: -0.102601535618
y: 1.5746666193
z: 0.452581167221
doppler_bin: 34
target_idx: 1
posX: -0.0758626461029
posY: 1.77534770966
posZ: 0.396343410015
velX: -0.0538185462356
velY: 0.0422603785992
velZ: 0.0822610706091
accX: 0.0
accY: 0.0
accZ: 0.0
---
header: 
  seq: 949
  stamp: 
    secs: 1596616071
    nsecs: 641690821
  frame_id: "node1_radarinterface_radarscan"
range: 1.71979725361
angle: -0.0323679223657
elev: 0.262937694788
doppler: 0.159006148577
snr: 364
noise: 389
frame_num: 89
point_id: 14
x: -0.0537436641753
y: 1.65981900692
z: 0.447006940842
doppler_bin: 34
target_idx: 1
posX: -0.0758626461029
posY: 1.77534770966
posZ: 0.396343410015
velX: -0.0538185462356
velY: 0.0422603785992
velZ: 0.0822610706091
accX: 0.0
accY: 0.0
accZ: 0.0
---
header: 
  seq: 950
  stamp: 
    secs: 1596616071
    nsecs: 641722410
  frame_id: "node1_radarinterface_radarscan"
range: 1.79796981812
angle: -0.0322916246951
elev: 0.254014521837
doppler: 0.159006148577
snr: 384
noise: 393
frame_num: 89
point_id: 15
x: -0.0561865568161
y: 1.7393682003
z: 0.451814860106
doppler_bin: 34
target_idx: 1
posX: -0.0758626461029
posY: 1.77534770966
posZ: 0.396343410015
velX: -0.0538185462356
velY: 0.0422603785992
velZ: 0.0822610706091
accX: 0.0
accY: 0.0
accZ: 0.0
---
header: 
  seq: 951
  stamp: 
    secs: 1596616071
    nsecs: 641750835
  frame_id: "node1_radarinterface_radarscan"
range: 1.71979725361
angle: -0.0641935542226
elev: 0.22726161778
doppler: 0.238509222865
snr: 254
noise: 369
frame_num: 89
point_id: 19
x: -0.107487335801
y: 1.67212498188
z: 0.387488216162
doppler_bin: 35
target_idx: 1
posX: -0.0758626461029
posY: 1.77534770966
posZ: 0.396343410015
velX: -0.0538185462356
velY: 0.0422603785992
velZ: 0.0822610706091
accX: 0.0
accY: 0.0
accZ: 0.0
---
header: 
  seq: 952
  stamp: 
    secs: 1596616071
    nsecs: 641802016
  frame_id: "node1_radarinterface_radarscan"
range: 1.95431506634
angle: -0.0314708836377
elev: 0.117154531181
doppler: -0.159006148577
snr: 175
noise: 406
frame_num: 89
point_id: 21
x: -0.0610723420978
y: 1.93995761871
z: 0.228433474898
doppler_bin: 30
target_idx: 1
posX: -0.0758626461029
posY: 1.77534770966
posZ: 0.396343410015
velX: -0.0538185462356
velY: 0.0422603785992
velZ: 0.0822610706091
accX: 0.0
accY: 0.0
accZ: 0.0
---
header: 
  seq: 953
  stamp: 
    secs: 1596616071
    nsecs: 641815941
  frame_id: "node1_radarinterface_radarscan"
range: 1.79796981812
angle: -0.0626967474818
elev: 0.070508249104
doppler: -0.0795030742884
snr: 171
noise: 461
frame_num: 89
point_id: 26
x: -0.112373113632
y: 1.78997862339
z: 0.12666669488
doppler_bin: 31
target_idx: 1
posX: -0.0758626461029
posY: 1.77534770966
posZ: 0.396343410015
velX: -0.0538185462356
velY: 0.0422603785992
velZ: 0.0822610706091
accX: 0.0
accY: 0.0
accZ: 0.0
---
header: 
  seq: 954
  stamp: 
    secs: 1596616071
    nsecs: 641836085
  frame_id: "node1_radarinterface_radarscan"
range: 1.87614250183
angle: -0.062793366611
elev: 0.0896691977978
doppler: -0.0795030742884
snr: 164
noise: 470
frame_num: 89
point_id: 27
x: -0.117258898914
y: 1.86492216587
z: 0.168006837368
doppler_bin: 31
target_idx: 1
posX: -0.0758626461029
posY: 1.77534770966
posZ: 0.396343410015
velX: -0.0538185462356
velY: 0.0422603785992
velZ: 0.0822610706091
accX: 0.0
accY: 0.0
accZ: 0.0
---
header: 
  seq: 955
  stamp: 
    secs: 1596616071
    nsecs: 741081949
  frame_id: "node1_radarinterface_radarscan"
range: 1.6416246891
angle: -0.0332712121308
elev: 0.349851071835
doppler: 0.0
snr: 197
noise: 390
frame_num: 90
point_id: 0
x: -0.0513007752597
y: 1.54132771492
z: 0.562679827213
